{"type":"FeatureCollection","features":[{"type":"Feature","geometry":{"type":"Point","coordinates":[108.277199,14.058324000001]},"properties":{"title":"31.79%","placename":"Viet Nam","address":"Viet Nam","id":"1","description":"","percentage":"31.79%","category":"","urltitle:moreinfo":"","url:moreinfo":"","vimeo:title":"","vimeo:link":"","youtube:title":"","youtube:link":"","flickr:setid":"","block:greenfact":"","color":"#ffcc00","size":"28"}},{"type":"Feature","geometry":{"type":"Point","coordinates":[78.962879999997,20.593684000004]},"properties":{"title":"17.76%","placename":"India","address":"India","id":"2","description":"","percentage":"17.76%","category":"","urltitle:moreinfo":"","url:moreinfo":"","vimeo:title":"","vimeo:link":"","youtube:title":"","youtube:link":"","flickr:setid":"","block:greenfact":"","color":"#ffcc00","size":"21"}},{"type":"Feature","geometry":{"type":"Point","coordinates":[8.6752770000036,9.0819989999966]},"properties":{"title":"17.62%","placename":"Nigeria","address":"Nigeria","id":"3","description":"","percentage":"17.62%","category":"","urltitle:moreinfo":"","url:moreinfo":"","vimeo:title":"","vimeo:link":"","youtube:title":"","youtube:link":"","flickr:setid":"","block:greenfact":"","color":"#ffcc00","size":"21"}},{"type":"Feature","geometry":{"type":"Point","coordinates":[-5.547080000004,7.5399890000007]},"properties":{"title":"7.48%","placename":"C\u00f4te d'Ivoire","address":"C\u00f4te d'Ivoire","id":"4","description":"","percentage":"7.48%","category":"","urltitle:moreinfo":"","url:moreinfo":"","vimeo:title":"","vimeo:link":"","youtube:title":"","youtube:link":"","flickr:setid":"","block:greenfact":"","color":"#ffcc00","size":"14"}},{"type":"Feature","geometry":{"type":"Point","coordinates":[-51.925279999999,-14.235004]},"properties":{"title":"6.5%","placename":"Brazil","address":"Brazil","id":"5","description":"","percentage":"6.5%","category":"","urltitle:moreinfo":"","url:moreinfo":"","vimeo:title":"","vimeo:link":"","youtube:title":"","youtube:link":"","flickr:setid":"","block:greenfact":"","color":"#ffcc00","size":"13"}},{"type":"Feature","geometry":{"type":"Point","coordinates":[113.921327,-0.78927499999687]},"properties":{"title":"3.81%","placename":"Indonesia","address":"Indonesia","id":"6","description":"","percentage":"3.81%","category":"","urltitle:moreinfo":"","url:moreinfo":"","vimeo:title":"","vimeo:link":"","youtube:title":"","youtube:link":"","flickr:setid":"","block:greenfact":"","color":"#ffcc00","size":"10"}},{"type":"Feature","geometry":{"type":"Point","coordinates":[121.774017,12.879720999999]},"properties":{"title":"3%","placename":"Philippines","address":"Philippines","id":"7","description":"","percentage":"3%","category":"","urltitle:moreinfo":"","url:moreinfo":"","vimeo:title":"","vimeo:link":"","youtube:title":"","youtube:link":"","flickr:setid":"","block:greenfact":"","color":"#ffcc00","size":"9"}},{"type":"Feature","geometry":{"type":"Point","coordinates":[34.888821999999,-6.3690280000008]},"properties":{"title":"2.65%","placename":"United Republic of Tanzania","address":"United Republic of Tanzania","id":"8","description":"","percentage":"2.65%","category":"","urltitle:moreinfo":"","url:moreinfo":"","vimeo:title":"","vimeo:link":"","youtube:title":"","youtube:link":"","flickr:setid":"","block:greenfact":"","color":"#ffcc00","size":"8"}},{"type":"Feature","geometry":{"type":"Point","coordinates":[35.529562,-18.665694999996]},"properties":{"title":"2.27%","placename":"Mozambique","address":"Mozambique","id":"9","description":"","percentage":"2.27%","category":"","urltitle:moreinfo":"","url:moreinfo":"","vimeo:title":"","vimeo:link":"","youtube:title":"","youtube:link":"","flickr:setid":"","block:greenfact":"","color":"#ffcc00","size":"8"}},{"type":"Feature","geometry":{"type":"Point","coordinates":[-15.180413000004,11.803749000002]},"properties":{"title":"2.16%","placename":"Guinea-Bissau","address":"Guinea-Bissau","id":"10","description":"","percentage":"2.16%","category":"","urltitle:moreinfo":"","url:moreinfo":"","vimeo:title":"","vimeo:link":"","youtube:title":"","youtube:link":"","flickr:setid":"","block:greenfact":"","color":"#ffcc00","size":"7"}},{"type":"Feature","geometry":{"type":"Point","coordinates":[2.3158340000022,9.3076899999976]},"properties":{"title":"1.66%","placename":"Benin","address":"Benin","id":"11","description":"","percentage":"1.66%","category":"","urltitle:moreinfo":"","url:moreinfo":"","vimeo:title":"","vimeo:link":"","youtube:title":"","youtube:link":"","flickr:setid":"","block:greenfact":"","color":"#ffcc00","size":"6"}},{"type":"Feature","geometry":{"type":"Point","coordinates":[100.992541,15.870032]},"properties":{"title":"1.08%","placename":"Thailand","address":"Thailand","id":"12","description":"","percentage":"1.08%","category":"","urltitle:moreinfo":"","url:moreinfo":"","vimeo:title":"","vimeo:link":"","youtube:title":"","youtube:link":"","flickr:setid":"","block:greenfact":"","color":"#ffcc00","size":"5"}},{"type":"Feature","geometry":{"type":"Point","coordinates":[-1.0231940000024,7.9465270000027]},"properties":{"title":"0.91%","placename":"Ghana","address":"Ghana","id":"13","description":"","percentage":"0.91%","category":"","urltitle:moreinfo":"","url:moreinfo":"","vimeo:title":"","vimeo:link":"","youtube:title":"","youtube:link":"","flickr:setid":"","block:greenfact":"","color":"#ffcc00","size":"5"}},{"type":"Feature","geometry":{"type":"Point","coordinates":[101.975766,4.2104840000023]},"properties":{"title":"0.35%","placename":"Malaysia","address":"Malaysia","id":"14","description":"","percentage":"0.35%","category":"","urltitle:moreinfo":"","url:moreinfo":"","vimeo:title":"","vimeo:link":"","youtube:title":"","youtube:link":"","flickr:setid":"","block:greenfact":"","color":"#ffcc00","size":"5"}},{"type":"Feature","geometry":{"type":"Point","coordinates":[37.906193000004,-0.023558999995522]},"properties":{"title":"0.27%","placename":"Kenya","address":"Kenya","id":"15","description":"","percentage":"0.27%","category":"","urltitle:moreinfo":"","url:moreinfo":"","vimeo:title":"","vimeo:link":"","youtube:title":"","youtube:link":"","flickr:setid":"","block:greenfact":"","color":"#ffcc00","size":"5"}},{"type":"Feature","geometry":{"type":"Point","coordinates":[80.771797000003,7.8730540000028]},"properties":{"title":"0.19%","placename":"Sri Lanka","address":"Sri Lanka","id":"16","description":"","percentage":"0.19%","category":"","urltitle:moreinfo":"","url:moreinfo":"","vimeo:title":"","vimeo:link":"","youtube:title":"","youtube:link":"","flickr:setid":"","block:greenfact":"","color":"#ffcc00","size":"5"}},{"type":"Feature","geometry":{"type":"Point","coordinates":[46.869106999996,-18.766946999998]},"properties":{"title":"0.18%","placename":"Madagascar","address":"Madagascar","id":"17","description":"","percentage":"0.18%","category":"","urltitle:moreinfo":"","url:moreinfo":"","vimeo:title":"","vimeo:link":"","youtube:title":"","youtube:link":"","flickr:setid":"","block:greenfact":"","color":"#ffcc00","size":"5"}},{"type":"Feature","geometry":{"type":"Point","coordinates":[-14.452361999999,14.497400999997]},"properties":{"title":"0.13%","placename":"Senegal","address":"Senegal","id":"18","description":"","percentage":"0.13%","category":"","urltitle:moreinfo":"","url:moreinfo":"","vimeo:title":"","vimeo:link":"","youtube:title":"","youtube:link":"","flickr:setid":"","block:greenfact":"","color":"#ffcc00","size":"5"}},{"type":"Feature","geometry":{"type":"Point","coordinates":[-3.9961659999965,17.570691999998]},"properties":{"title":"0.1%","placename":"Mali","address":"Mali","id":"19","description":"","percentage":"0.1%","category":"","urltitle:moreinfo":"","url:moreinfo":"","vimeo:title":"","vimeo:link":"","youtube:title":"","youtube:link":"","flickr:setid":"","block:greenfact":"","color":"#ffcc00","size":"5"}},{"type":"Feature","geometry":{"type":"Point","coordinates":[-1.5615929999969,12.238332999997]},"properties":{"title":"0.1%","placename":"Burkina Faso","address":"Burkina Faso","id":"20","description":"","percentage":"0.1%","category":"","urltitle:moreinfo":"","url:moreinfo":"","vimeo:title":"","vimeo:link":"","youtube:title":"","youtube:link":"","flickr:setid":"","block:greenfact":"","color":"#ffcc00","size":"5"}}],"properties":{"title":"World Cashew Production","description":"Top 20 producers by country in 2009. Data Source, UN-FAO: http:\/\/faostat.fao.org\/site\/339\/default.aspx","tags":""}}