{"type":"FeatureCollection","features":[{"type":"Feature","geometry":{"type":"Point","coordinates":[12.568337098251,55.676096794716]},"properties":{"youtube:link":"","co2e":"0","weight":"0","unit":"kg","qty":"0","supplychain_instance_id":"supplychain-1","stop_instance_id":"stop-74","description":"","address":"Copenhagen, Denmark","title":"K\u00f8benhavn"}},{"type":"Feature","geometry":{"type":"Point","coordinates":[8.2387168988531,50.084283994816]},"properties":{"youtube:link":"","co2e":"0","weight":"0","unit":"kg","qty":"0","supplychain_instance_id":"supplychain-1","stop_instance_id":"stop-73","description":"","address":"Wiesbaden, Germany","title":"Wiesbaden"}},{"type":"Feature","geometry":{"type":"Point","coordinates":[6.8659746990443,51.469579694777]},"properties":{"youtube:link":"","co2e":"0","weight":"0","unit":"kg","qty":"0","supplychain_instance_id":"supplychain-1","stop_instance_id":"stop-72","description":"","address":"Oberhausen, Germany","title":"Oberhausen"}},{"type":"Feature","geometry":{"type":"Point","coordinates":[11.080479998458,49.450519994837]},"properties":{"youtube:link":"","co2e":"0","weight":"0","unit":"kg","qty":"0","supplychain_instance_id":"supplychain-1","stop_instance_id":"stop-71","description":"","address":"Nuremberg, Germany","title":"N\u00fcrnberg"}},{"type":"Feature","geometry":{"type":"Point","coordinates":[11.580186298388,48.139126494885]},"properties":{"youtube:link":"","co2e":"0","weight":"0","unit":"kg","qty":"0","supplychain_instance_id":"supplychain-1","stop_instance_id":"stop-70","description":"","address":"Munich, Germany","title":"M\u00fcnchen"}},{"type":"Feature","geometry":{"type":"Point","coordinates":[6.9599114990312,50.940664494791]},"properties":{"youtube:link":"","co2e":"0","weight":"0","unit":"kg","qty":"0","supplychain_instance_id":"supplychain-1","stop_instance_id":"stop-69","description":"","address":"Cologne, Germany","title":"K\u00f6ln"}},{"type":"Feature","geometry":{"type":"Point","coordinates":[9.9915859986094,53.553812994736]},"properties":{"youtube:link":"","co2e":"0","weight":"0","unit":"kg","qty":"0","supplychain_instance_id":"supplychain-1","stop_instance_id":"stop-68","description":"","address":"Hamburg, Germany","title":"Hamburg"}},{"type":"Feature","geometry":{"type":"Point","coordinates":[8.6806153987917,50.111445094815]},"properties":{"youtube:link":"","co2e":"0","weight":"0","unit":"kg","qty":"0","supplychain_instance_id":"supplychain-1","stop_instance_id":"stop-67","description":"","address":"Frankfurt, Germany","title":"Frankfurt"}},{"type":"Feature","geometry":{"type":"Point","coordinates":[13.411399898133,52.523405094754]},"properties":{"youtube:link":"","co2e":"0","weight":"0","unit":"kg","qty":"0","supplychain_instance_id":"supplychain-1","stop_instance_id":"stop-66","description":"","address":"Berlin, Germany","title":"Berlin"}},{"type":"Feature","geometry":{"type":"Point","coordinates":[-0.12623619998243,51.500152394776]},"properties":{"youtube:link":"","co2e":"0","weight":"0","unit":"kg","qty":"0","supplychain_instance_id":"supplychain-1","stop_instance_id":"stop-65","description":"","address":"Westminster, London, UK","title":"Westfield Stratford"}},{"type":"Feature","geometry":{"type":"Point","coordinates":[-0.22177819996913,51.509384394776]},"properties":{"youtube:link":"","co2e":"0","weight":"0","unit":"kg","qty":"0","supplychain_instance_id":"supplychain-1","stop_instance_id":"stop-64","description":"","address":"Westfield, Hammersmith, Greater London W12 7, UK","title":"Westfield London"}},{"type":"Feature","geometry":{"type":"Point","coordinates":[-0.76055669989413,52.041437594764]},"properties":{"youtube:link":"","co2e":"0","weight":"0","unit":"kg","qty":"0","supplychain_instance_id":"supplychain-1","stop_instance_id":"stop-63","description":"","address":"Milton Keynes, UK","title":"Milton Keynes"}},{"type":"Feature","geometry":{"type":"Point","coordinates":[-2.9778382995855,53.410776594738]},"properties":{"youtube:link":"","co2e":"0","weight":"0","unit":"kg","qty":"0","supplychain_instance_id":"supplychain-1","stop_instance_id":"stop-62","description":"","address":"Liverpool, UK","title":"Liverpool"}},{"type":"Feature","geometry":{"type":"Point","coordinates":[-3.1804978995573,51.481306894777]},"properties":{"youtube:link":"","co2e":"0","weight":"0","unit":"kg","qty":"0","supplychain_instance_id":"supplychain-1","stop_instance_id":"stop-61","description":"","address":"Cardiff, UK","title":"Cardiff"}},{"type":"Feature","geometry":{"type":"Point","coordinates":[-0.13641999998101,50.819521994795]},"properties":{"youtube:link":"","co2e":"0","weight":"0","unit":"kg","qty":"0","supplychain_instance_id":"supplychain-1","stop_instance_id":"stop-60","description":"","address":"Brighton, Brighton and Hove, UK","title":"Brighton"}},{"type":"Feature","geometry":{"type":"Point","coordinates":[0.2694239999625,51.440303094778]},"properties":{"youtube:link":"","co2e":"0","weight":"0","unit":"kg","qty":"0","supplychain_instance_id":"supplychain-1","stop_instance_id":"stop-59","description":"","address":"Bluewater, Greenhithe, Kent DA9, UK","title":"Bluewater"}},{"type":"Feature","geometry":{"type":"Point","coordinates":[-79.38318428895,43.653225995103]},"properties":{"youtube:link":"","co2e":"0","weight":"0","unit":"kg","qty":"0","supplychain_instance_id":"supplychain-1","stop_instance_id":"stop-58","description":"","address":"Toronto, ON, Canada","title":"Sherway Gardens"}},{"type":"Feature","geometry":{"type":"Point","coordinates":[-79.38318428895,43.653225995103]},"properties":{"youtube:link":"","co2e":"0","weight":"0","unit":"kg","qty":"0","supplychain_instance_id":"supplychain-1","stop_instance_id":"stop-57","description":"","address":"Toronto, ON, Canada","title":"Fairview"}},{"type":"Feature","geometry":{"type":"Point","coordinates":[-114.05722218412,51.044999994788]},"properties":{"youtube:link":"","co2e":"0","weight":"0","unit":"kg","qty":"0","supplychain_instance_id":"supplychain-1","stop_instance_id":"stop-56","description":"","address":"Calgary, AB, Canada","title":"Calgary"}},{"type":"Feature","geometry":{"type":"Point","coordinates":[-122.20067858299,47.610376994906]},"properties":{"youtube:link":"","co2e":"0","weight":"0","unit":"kg","qty":"0","supplychain_instance_id":"supplychain-1","stop_instance_id":"stop-55","description":"","address":"Bellevue, WA, USA","title":"Bellevue"}},{"type":"Feature","geometry":{"type":"Point","coordinates":[-77.249704889247,38.658172195437]},"properties":{"youtube:link":"","co2e":"0","weight":"0","unit":"kg","qty":"0","supplychain_instance_id":"supplychain-1","stop_instance_id":"stop-54","description":"","address":"Woodbridge, VA, USA","title":"Woodbridge"}},{"type":"Feature","geometry":{"type":"Point","coordinates":[-77.177260389257,38.933867595416]},"properties":{"youtube:link":"","co2e":"0","weight":"0","unit":"kg","qty":"0","supplychain_instance_id":"supplychain-1","stop_instance_id":"stop-53","description":"","address":"McLean, VA, USA","title":"McLean"}},{"type":"Feature","geometry":{"type":"Point","coordinates":[-95.36938958672,29.76019269623]},"properties":{"youtube:link":"","co2e":"0","weight":"0","unit":"kg","qty":"0","supplychain_instance_id":"supplychain-1","stop_instance_id":"stop-52","description":"","address":"Houston, TX, USA","title":"Houston"}},{"type":"Feature","geometry":{"type":"Point","coordinates":[-96.823611586519,33.150674395901]},"properties":{"youtube:link":"","co2e":"0","weight":"0","unit":"kg","qty":"0","supplychain_instance_id":"supplychain-1","stop_instance_id":"stop-51","description":"","address":"Frisco, TX, USA","title":"Frisco"}},{"type":"Feature","geometry":{"type":"Point","coordinates":[-95.201044686744,29.529399796253]},"properties":{"youtube:link":"","co2e":"0","weight":"0","unit":"kg","qty":"0","supplychain_instance_id":"supplychain-1","stop_instance_id":"stop-50","description":"","address":"Friendswood, TX, USA","title":"Friendswood"}},{"type":"Feature","geometry":{"type":"Point","coordinates":[-96.769922986532,32.802954995933]},"properties":{"youtube:link":"","co2e":"0","weight":"0","unit":"kg","qty":"0","supplychain_instance_id":"supplychain-1","stop_instance_id":"stop-49","description":"","address":"Dallas, TX, USA","title":"Dallas"}},{"type":"Feature","geometry":{"type":"Point","coordinates":[-97.743060786391,30.267152996179]},"properties":{"youtube:link":"","co2e":"0","weight":"0","unit":"kg","qty":"0","supplychain_instance_id":"supplychain-1","stop_instance_id":"stop-48","description":"","address":"Austin, TX, USA","title":"Austin"}},{"type":"Feature","geometry":{"type":"Point","coordinates":[-75.396021089505,40.089274595333]},"properties":{"youtube:link":"","co2e":"0","weight":"0","unit":"kg","qty":"0","supplychain_instance_id":"supplychain-1","stop_instance_id":"stop-47","description":"","address":"King of Prussia, PA, USA","title":"King of Prussia"}},{"type":"Feature","geometry":{"type":"Point","coordinates":[-122.77148608291,45.431229395007]},"properties":{"youtube:link":"","co2e":"0","weight":"0","unit":"kg","qty":"0","supplychain_instance_id":"supplychain-1","stop_instance_id":"stop-46","description":"","address":"Tigard, OR, USA","title":"Tigard"}},{"type":"Feature","geometry":{"type":"Point","coordinates":[-97.516427586425,35.467560195695]},"properties":{"youtube:link":"","co2e":"0","weight":"0","unit":"kg","qty":"0","supplychain_instance_id":"supplychain-1","stop_instance_id":"stop-45","description":"","address":"Oklahoma City, OK, USA","title":"Oklahoma City"}},{"type":"Feature","geometry":{"type":"Point","coordinates":[-82.998794188447,39.961175495342]},"properties":{"youtube:link":"","co2e":"0","weight":"0","unit":"kg","qty":"0","supplychain_instance_id":"supplychain-1","stop_instance_id":"stop-44","description":"","address":"Columbus, OH, USA","title":"Columbus"}},{"type":"Feature","geometry":{"type":"Point","coordinates":[-84.512019588236,39.103118195404]},"properties":{"youtube:link":"","co2e":"0","weight":"0","unit":"kg","qty":"0","supplychain_instance_id":"supplychain-1","stop_instance_id":"stop-43","description":"","address":"Cincinnati, OH, USA","title":"Cincinnati"}},{"type":"Feature","geometry":{"type":"Point","coordinates":[-81.508732188654,41.464497895239]},"properties":{"youtube:link":"","co2e":"0","weight":"0","unit":"kg","qty":"0","supplychain_instance_id":"supplychain-1","stop_instance_id":"stop-42","description":"","address":"Beachwood, OH, USA","title":"Beachwood"}},{"type":"Feature","geometry":{"type":"Point","coordinates":[-78.638614489054,35.772095995668]},"properties":{"youtube:link":"","co2e":"0","weight":"0","unit":"kg","qty":"0","supplychain_instance_id":"supplychain-1","stop_instance_id":"stop-41","description":"","address":"Raleigh, NC, USA","title":"Raleigh"}},{"type":"Feature","geometry":{"type":"Point","coordinates":[-80.579510988783,35.4087516957]},"properties":{"youtube:link":"","co2e":"0","weight":"0","unit":"kg","qty":"0","supplychain_instance_id":"supplychain-1","stop_instance_id":"stop-40","description":"","address":"Concord, NC, USA","title":"Concord"}},{"type":"Feature","geometry":{"type":"Point","coordinates":[-73.972916189703,41.096484995263]},"properties":{"youtube:link":"","co2e":"0","weight":"0","unit":"kg","qty":"0","supplychain_instance_id":"supplychain-1","stop_instance_id":"stop-39","description":"","address":"West Nyack, NY, USA","title":"West Nyack"}},{"type":"Feature","geometry":{"type":"Point","coordinates":[-74.005973089698,40.714352795289]},"properties":{"youtube:link":"","co2e":"0","weight":"0","unit":"kg","qty":"0","supplychain_instance_id":"supplychain-1","stop_instance_id":"stop-38","description":"","address":"New York, NY, USA","title":"New York City"}},{"type":"Feature","geometry":{"type":"Point","coordinates":[-73.63429538975,40.726768195288]},"properties":{"youtube:link":"","co2e":"0","weight":"0","unit":"kg","qty":"0","supplychain_instance_id":"supplychain-1","stop_instance_id":"stop-37","description":"","address":"Garden City, NY, USA","title":"Garden City"}},{"type":"Feature","geometry":{"type":"Point","coordinates":[-73.880130089716,40.737974995287]},"properties":{"youtube:link":"","co2e":"0","weight":"0","unit":"kg","qty":"0","supplychain_instance_id":"supplychain-1","stop_instance_id":"stop-36","description":"","address":"Elmhurst, Queens, NY, USA","title":"Elmhurst"}},{"type":"Feature","geometry":{"type":"Point","coordinates":[-74.075418889689,40.944542795274]},"properties":{"youtube:link":"","co2e":"0","weight":"0","unit":"kg","qty":"0","supplychain_instance_id":"supplychain-1","stop_instance_id":"stop-35","description":"","address":"Paramus, NJ, USA","title":"Paramus"}},{"type":"Feature","geometry":{"type":"Point","coordinates":[-74.601111089615,40.623333295295]},"properties":{"youtube:link":"","co2e":"0","weight":"0","unit":"kg","qty":"0","supplychain_instance_id":"supplychain-1","stop_instance_id":"stop-34","description":"","address":"Bridgewater, NJ, USA","title":"Bridgewater"}},{"type":"Feature","geometry":{"type":"Point","coordinates":[-93.263836087016,44.97996539503]},"properties":{"youtube:link":"","co2e":"0","weight":"0","unit":"kg","qty":"0","supplychain_instance_id":"supplychain-1","stop_instance_id":"stop-33","description":"","address":"Minneapolis, MN, USA","title":"Minneapolis"}},{"type":"Feature","geometry":{"type":"Point","coordinates":[-83.149930388426,42.605589295166]},"properties":{"youtube:link":"","co2e":"0","weight":"0","unit":"kg","qty":"0","supplychain_instance_id":"supplychain-1","stop_instance_id":"stop-32","description":"","address":"Troy, MI, USA","title":"Troy"}},{"type":"Feature","geometry":{"type":"Point","coordinates":[-71.349503190068,42.283429795186]},"properties":{"youtube:link":"","co2e":"0","weight":"0","unit":"kg","qty":"0","supplychain_instance_id":"supplychain-1","stop_instance_id":"stop-31","description":"","address":"Natick, MA, USA","title":"Natick"}},{"type":"Feature","geometry":{"type":"Point","coordinates":[-71.19561099009,42.504816695172]},"properties":{"youtube:link":"","co2e":"0","weight":"0","unit":"kg","qty":"0","supplychain_instance_id":"supplychain-1","stop_instance_id":"stop-30","description":"","address":"Burlington, MA, USA","title":"Burlington"}},{"type":"Feature","geometry":{"type":"Point","coordinates":[-70.999491990117,42.22232179519]},"properties":{"youtube:link":"","co2e":"0","weight":"0","unit":"kg","qty":"0","supplychain_instance_id":"supplychain-1","stop_instance_id":"stop-29","description":"","address":"Braintree, MA, USA","title":"Braintree"}},{"type":"Feature","geometry":{"type":"Point","coordinates":[-76.72379998932,39.192977995397]},"properties":{"youtube:link":"","co2e":"0","weight":"0","unit":"kg","qty":"0","supplychain_instance_id":"supplychain-1","stop_instance_id":"stop-28","description":"","address":"Hanover, Elkridge, MD 21076, USA","title":"Hanover"}},{"type":"Feature","geometry":{"type":"Point","coordinates":[-76.492182889352,38.978445295413]},"properties":{"youtube:link":"","co2e":"0","weight":"0","unit":"kg","qty":"0","supplychain_instance_id":"supplychain-1","stop_instance_id":"stop-27","description":"","address":"Annapolis, MD, USA","title":"Annapolis"}},{"type":"Feature","geometry":{"type":"Point","coordinates":[-86.158042288006,39.768376495356]},"properties":{"youtube:link":"","co2e":"0","weight":"0","unit":"kg","qty":"0","supplychain_instance_id":"supplychain-1","stop_instance_id":"stop-26","description":"","address":"Indianapolis, IN, USA","title":"Indianapolis"}},{"type":"Feature","geometry":{"type":"Point","coordinates":[-88.083405887739,42.033360695202]},"properties":{"youtube:link":"","co2e":"0","weight":"0","unit":"kg","qty":"0","supplychain_instance_id":"supplychain-1","stop_instance_id":"stop-25","description":"","address":"Schaumburg, IL, USA","title":"Schaumburg"}},{"type":"Feature","geometry":{"type":"Point","coordinates":[-87.853942487771,41.630310295228]},"properties":{"youtube:link":"","co2e":"0","weight":"0","unit":"kg","qty":"0","supplychain_instance_id":"supplychain-1","stop_instance_id":"stop-24","description":"","address":"Orland Park, IL, USA","title":"Orland Park"}},{"type":"Feature","geometry":{"type":"Point","coordinates":[-87.828954787774,42.127526695196]},"properties":{"youtube:link":"","co2e":"0","weight":"0","unit":"kg","qty":"0","supplychain_instance_id":"supplychain-1","stop_instance_id":"stop-23","description":"","address":"Northbrook, IL, USA","title":"Northbrook"}},{"type":"Feature","geometry":{"type":"Point","coordinates":[-87.629798187802,41.878113595212]},"properties":{"youtube:link":"","co2e":"0","weight":"0","unit":"kg","qty":"0","supplychain_instance_id":"supplychain-1","stop_instance_id":"stop-22","description":"","address":"Chicago, IL, USA","title":"Chicago"}},{"type":"Feature","geometry":{"type":"Point","coordinates":[-157.85833327803,21.306944397171]},"properties":{"youtube:link":"","co2e":"0","weight":"0","unit":"kg","qty":"0","supplychain_instance_id":"supplychain-1","stop_instance_id":"stop-21","description":"","address":"Honolulu, HI, USA","title":"Honolulu"}},{"type":"Feature","geometry":{"type":"Point","coordinates":[-83.987962488309,33.956214895827]},"properties":{"youtube:link":"","co2e":"0","weight":"0","unit":"kg","qty":"0","supplychain_instance_id":"supplychain-1","stop_instance_id":"stop-20","description":"","address":"Lawrenceville, GA, USA","title":"Lawrenceville"}},{"type":"Feature","geometry":{"type":"Point","coordinates":[-80.286225588824,26.157174296612]},"properties":{"youtube:link":"","co2e":"0","weight":"0","unit":"kg","qty":"0","supplychain_instance_id":"supplychain-1","stop_instance_id":"stop-20","description":"","address":"Sunrise, FL, USA","title":"Sunrise"}},{"type":"Feature","geometry":{"type":"Point","coordinates":[-81.379236488671,28.538335496356]},"properties":{"youtube:link":"","co2e":"0","weight":"0","unit":"kg","qty":"0","supplychain_instance_id":"supplychain-1","stop_instance_id":"stop-19","description":"","address":"Orlando, FL, USA","title":"Orlando"}},{"type":"Feature","geometry":{"type":"Point","coordinates":[-80.226439288832,25.788968896653]},"properties":{"youtube:link":"","co2e":"0","weight":"0","unit":"kg","qty":"0","supplychain_instance_id":"supplychain-1","stop_instance_id":"stop-18","description":"","address":"Miami, FL, USA","title":"Miami"}},{"type":"Feature","geometry":{"type":"Point","coordinates":[-75.749657189455,39.683722595361]},"properties":{"youtube:link":"","co2e":"0","weight":"0","unit":"kg","qty":"0","supplychain_instance_id":"supplychain-1","stop_instance_id":"stop-17","description":"","address":"Newark, DE, USA","title":"Newark"}},{"type":"Feature","geometry":{"type":"Point","coordinates":[-104.8963681854,39.536099695372]},"properties":{"youtube:link":"","co2e":"0","weight":"0","unit":"kg","qty":"0","supplychain_instance_id":"supplychain-1","stop_instance_id":"stop-16","description":"","address":"Lone Tree, CO, USA","title":"Lone Tree"}},{"type":"Feature","geometry":{"type":"Point","coordinates":[-104.98470338539,39.739153595357]},"properties":{"youtube:link":"","co2e":"0","weight":"0","unit":"kg","qty":"0","supplychain_instance_id":"supplychain-1","stop_instance_id":"stop-15","description":"","address":"Denver, CO, USA","title":"Denver"}},{"type":"Feature","geometry":{"type":"Point","coordinates":[-121.95523558302,37.354107895538]},"properties":{"youtube:link":"","co2e":"0","weight":"0","unit":"kg","qty":"0","supplychain_instance_id":"supplychain-1","stop_instance_id":"stop-14","description":"","address":"Santa Clara, CA, USA","title":"Santa Clara"}},{"type":"Feature","geometry":{"type":"Point","coordinates":[-122.32552538297,37.562991695522]},"properties":{"youtube:link":"","co2e":"0","weight":"0","unit":"kg","qty":"0","supplychain_instance_id":"supplychain-1","stop_instance_id":"stop-13","description":"","address":"San Mateo, CA, USA","title":"San Mateo"}},{"type":"Feature","geometry":{"type":"Point","coordinates":[-117.15725508369,32.715329195941]},"properties":{"youtube:link":"","co2e":"0","weight":"0","unit":"kg","qty":"0","supplychain_instance_id":"supplychain-1","stop_instance_id":"stop-12","description":"","address":"San Diego, CA, USA","title":"San Diego"}},{"type":"Feature","geometry":{"type":"Point","coordinates":[-121.49439958309,38.581571895443]},"properties":{"youtube:link":"","co2e":"0","weight":"0","unit":"kg","qty":"0","supplychain_instance_id":"supplychain-1","stop_instance_id":"stop-11","description":"","address":"Sacramento, CA, USA","title":"Sacramento"}},{"type":"Feature","geometry":{"type":"Point","coordinates":[-121.87467888303,37.662431195514]},"properties":{"youtube:link":"","co2e":"0","weight":"0","unit":"kg","qty":"0","supplychain_instance_id":"supplychain-1","stop_instance_id":"stop-10","description":"","address":"Pleasanton, CA, USA","title":"Pleasanton"}},{"type":"Feature","geometry":{"type":"Point","coordinates":[-117.65088758363,34.063344295818]},"properties":{"youtube:link":"","co2e":"0","weight":"0","unit":"kg","qty":"0","supplychain_instance_id":"supplychain-1","stop_instance_id":"stop-9","description":"","address":"Ontario, CA, USA","title":"Ontario"}},{"type":"Feature","geometry":{"type":"Point","coordinates":[-117.67199528362,33.60002319586]},"properties":{"youtube:link":"","co2e":"0","weight":"0","unit":"kg","qty":"0","supplychain_instance_id":"supplychain-1","stop_instance_id":"stop-7","description":"","address":"Mission Viejo, CA, USA","title":"Mission Viejo"}},{"type":"Feature","geometry":{"type":"Point","coordinates":[-118.25507498354,34.142507795811]},"properties":{"youtube:link":"","co2e":"0","weight":"0","unit":"kg","qty":"0","supplychain_instance_id":"supplychain-1","stop_instance_id":"stop-6","description":"","address":"Glendale, CA, USA","title":"Glendale"}},{"type":"Feature","geometry":{"type":"Point","coordinates":[-117.91866888358,33.641131595856]},"properties":{"youtube:link":"","co2e":"0","weight":"0","unit":"kg","qty":"0","supplychain_instance_id":"supplychain-1","stop_instance_id":"stop-5","description":"","address":"Costa Mesa, CA, USA","title":"Costa Mesa"}},{"type":"Feature","geometry":{"type":"Point","coordinates":[-117.91450358358,33.835293195839]},"properties":{"youtube:link":"","co2e":"0","weight":"0","unit":"kg","qty":"0","supplychain_instance_id":"supplychain-1","stop_instance_id":"stop-4","description":"","address":"Anaheim, CA, USA","title":"Anaheim"}},{"type":"Feature","geometry":{"type":"Point","coordinates":[-112.0740372844,33.448377095874]},"properties":{"youtube:link":"","co2e":"0","weight":"0","unit":"kg","qty":"0","supplychain_instance_id":"supplychain-1","stop_instance_id":"stop-3","description":"","address":"Phoenix, AZ, USA","title":"Phoenix"}},{"type":"Feature","geometry":{"type":"Point","coordinates":[-111.84125018443,33.306160495886]},"properties":{"youtube:link":"","co2e":"0","weight":"0","unit":"kg","qty":"0","supplychain_instance_id":"supplychain-1","stop_instance_id":"stop-2","description":"","address":"Chandler, AZ, USA","title":"Chandler"}},{"type":"Feature","geometry":{"type":"Point","coordinates":[-86.802489987917,33.520660795867]},"properties":{"youtube:link":"","co2e":"0","weight":"0","unit":"kg","qty":"0","supplychain_instance_id":"supplychain-1","stop_instance_id":"stop-1","description":"","address":"Birmingham, AL, USA","title":"Birmingham"}}],"properties":{"title":"Lego stores","description":"","tags":""}}