{"type":"FeatureCollection","features":[{"type":"Feature","geometry":{"type":"Point","coordinates":[-63.616671991144,-38.416096995455]},"properties":{"title":"Argentina","address":"Argentina","description":"","stop_instance_id":"stop-1","supplychain_instance_id":"supplychain-1"}},{"type":"Feature","geometry":{"type":"Point","coordinates":[-51.925279992772,-14.235003998059]},"properties":{"title":"Braz\u00edlie","address":"Brazil","description":"","stop_instance_id":"stop-2","supplychain_instance_id":"supplychain-1"}},{"type":"Feature","geometry":{"type":"Point","coordinates":[-71.542968990041,-35.675146995677]},"properties":{"title":"Chille","address":"Chile","description":"","stop_instance_id":"stop-3","supplychain_instance_id":"supplychain-1"}},{"type":"Feature","geometry":{"type":"Point","coordinates":[-74.297332989658,4.5708679993651]},"properties":{"title":"Kolumbie","address":"Colombia","description":"","stop_instance_id":"stop-4","supplychain_instance_id":"supplychain-1"}},{"type":"Feature","geometry":{"type":"Point","coordinates":[-55.765834992238,-32.52277899596]},"properties":{"title":"Uruguay","address":"Uruguay","description":"","stop_instance_id":"stop-5","supplychain_instance_id":"supplychain-1"}},{"type":"Feature","geometry":{"type":"Point","coordinates":[-106.3467709852,56.130365994714]},"properties":{"title":"Kanada","address":"Canada","description":"","stop_instance_id":"stop-6","supplychain_instance_id":"supplychain-1"}},{"type":"Feature","geometry":{"type":"Point","coordinates":[-90.230758987436,15.783470997858]},"properties":{"title":"Guatemala","address":"Guatemala","description":"","stop_instance_id":"stop-7","supplychain_instance_id":"supplychain-1"}},{"type":"Feature","geometry":{"type":"Point","coordinates":[-102.55278398572,23.634500996897]},"properties":{"title":"Mexiko","address":"Mexico","description":"","stop_instance_id":"stop-8","supplychain_instance_id":"supplychain-1"}},{"type":"Feature","geometry":{"type":"Point","coordinates":[-95.712890986677,37.090239995559]},"properties":{"title":"USA","address":"United States","description":"","stop_instance_id":"stop-9","supplychain_instance_id":"supplychain-1"}},{"type":"Feature","geometry":{"type":"Point","coordinates":[30.802497995712,26.82055299654]},"properties":{"title":"Egypt","address":"Egypt","description":"","stop_instance_id":"stop-10","supplychain_instance_id":"supplychain-1"}},{"type":"Feature","geometry":{"type":"Point","coordinates":[22.937505996807,-30.55948199615]},"properties":{"title":"Jihoafrick\u00e1 republika","address":"South Africa","description":"","stop_instance_id":"stop-11","supplychain_instance_id":"supplychain-1"}},{"type":"Feature","geometry":{"type":"Point","coordinates":[133.77513598138,-25.27439799671]},"properties":{"title":"Austr\u00e1lie","address":"Australia","description":"","stop_instance_id":"stop-12","supplychain_instance_id":"supplychain-1"}},{"type":"Feature","geometry":{"type":"Point","coordinates":[50.637771992951,25.930413996637]},"properties":{"title":"Bahrajn","address":"Bahrain","description":"","stop_instance_id":"stop-13","supplychain_instance_id":"supplychain-1"}},{"type":"Feature","geometry":{"type":"Point","coordinates":[104.19539698549,35.861659995661]},"properties":{"title":"\u010c\u00edna","address":"China","description":"","stop_instance_id":"stop-14","supplychain_instance_id":"supplychain-1"}},{"type":"Feature","geometry":{"type":"Point","coordinates":[114.10949698411,22.396427997041]},"properties":{"title":"Hong Kong","address":"Hong Kong","description":"","stop_instance_id":"stop-15","supplychain_instance_id":"supplychain-1"}},{"type":"Feature","geometry":{"type":"Point","coordinates":[78.962879989009,20.593683997257]},"properties":{"title":"Indie","address":"India","description":"","stop_instance_id":"stop-16","supplychain_instance_id":"supplychain-1"}},{"type":"Feature","geometry":{"type":"Point","coordinates":[34.851611995149,31.046050996101]},"properties":{"title":"Izrael","address":"Israel","description":"","stop_instance_id":"stop-17","supplychain_instance_id":"supplychain-1"}},{"type":"Feature","geometry":{"type":"Point","coordinates":[138.25292398076,36.204823995632]},"properties":{"title":"Japonsko","address":"Japan","description":"","stop_instance_id":"stop-18","supplychain_instance_id":"supplychain-1"}},{"type":"Feature","geometry":{"type":"Point","coordinates":[36.238413994956,30.585163996148]},"properties":{"title":"Jord\u00e1nsko","address":"Jordan","description":"","stop_instance_id":"stop-19","supplychain_instance_id":"supplychain-1"}},{"type":"Feature","geometry":{"type":"Point","coordinates":[127.76692198221,35.907756995657]},"properties":{"title":"Ji\u017en\u00ed Korea","address":"South Korea","description":"","stop_instance_id":"stop-20","supplychain_instance_id":"supplychain-1"}},{"type":"Feature","geometry":{"type":"Point","coordinates":[47.48176599339,29.311659996276]},"properties":{"title":"Kuvajt","address":"Kuwait","description":"","stop_instance_id":"stop-21","supplychain_instance_id":"supplychain-1"}},{"type":"Feature","geometry":{"type":"Point","coordinates":[35.862284995008,33.854720995837]},"properties":{"title":"Libanon","address":"Lebanon","description":"","stop_instance_id":"stop-22","supplychain_instance_id":"supplychain-1"}},{"type":"Feature","geometry":{"type":"Point","coordinates":[101.97576598581,4.2104839994149]},"properties":{"title":"Malajsie","address":"Malaysia","description":"","stop_instance_id":"stop-23","supplychain_instance_id":"supplychain-1"}},{"type":"Feature","geometry":{"type":"Point","coordinates":[55.923254992215,21.512582997146]},"properties":{"title":"Om\u00e1n","address":"Oman","description":"","stop_instance_id":"stop-24","supplychain_instance_id":"supplychain-1"}},{"type":"Feature","geometry":{"type":"Point","coordinates":[69.345115990347,30.375320996168]},"properties":{"title":"P\u00e1kist\u00e1n","address":"Pakistan","description":"","stop_instance_id":"stop-25","supplychain_instance_id":"supplychain-1"}},{"type":"Feature","geometry":{"type":"Point","coordinates":[51.183883992875,25.354825996701]},"properties":{"title":"Katar","address":"Qatar","description":"","stop_instance_id":"stop-26","supplychain_instance_id":"supplychain-1"}},{"type":"Feature","geometry":{"type":"Point","coordinates":[45.079161993725,23.885941996868]},"properties":{"title":"Saudsk\u00e1 Ar\u00e1bie ","address":"Saudi Arabia","description":"","stop_instance_id":"stop-27","supplychain_instance_id":"supplychain-1"}},{"type":"Feature","geometry":{"type":"Point","coordinates":[103.81983598554,1.3520829998118]},"properties":{"title":"Singapur","address":"Singapore","description":"","stop_instance_id":"stop-28","supplychain_instance_id":"supplychain-1"}},{"type":"Feature","geometry":{"type":"Point","coordinates":[120.96051498316,23.697809996889]},"properties":{"title":"Taiwan","address":"Taiwan","description":"","stop_instance_id":"stop-29","supplychain_instance_id":"supplychain-1"}},{"type":"Feature","geometry":{"type":"Point","coordinates":[35.243321995095,38.963744995414]},"properties":{"title":"Turecko","address":"Turkey","description":"","stop_instance_id":"stop-30","supplychain_instance_id":"supplychain-1"}},{"type":"Feature","geometry":{"type":"Point","coordinates":[53.847817992505,23.424075996921]},"properties":{"title":"Spojen\u00e9 arabsk\u00e9 emir\u00e1ty","address":"United Arab Emirates","description":"","stop_instance_id":"stop-31","supplychain_instance_id":"supplychain-1"}},{"type":"Feature","geometry":{"type":"Point","coordinates":[14.550071997975,47.51623099491]},"properties":{"title":"Rakousko","address":"Austria","description":"","stop_instance_id":"stop-32","supplychain_instance_id":"supplychain-1"}},{"type":"Feature","geometry":{"type":"Point","coordinates":[4.4699359993778,50.503886994803]},"properties":{"title":"Belgie","address":"Belgium","description":"","stop_instance_id":"stop-33","supplychain_instance_id":"supplychain-1"}},{"type":"Feature","geometry":{"type":"Point","coordinates":[25.485829996452,42.733882995158]},"properties":{"title":"Bulharsko","address":"Bulgaria","description":"","stop_instance_id":"stop-34","supplychain_instance_id":"supplychain-1"}},{"type":"Feature","geometry":{"type":"Point","coordinates":[15.199999997884,45.099999995024]},"properties":{"title":"Chorvatsko","address":"Croatia","description":"","stop_instance_id":"stop-35","supplychain_instance_id":"supplychain-1"}},{"type":"Feature","geometry":{"type":"Point","coordinates":[33.429858995346,35.126412995724]},"properties":{"title":"Kypr","address":"Cyprus","description":"","stop_instance_id":"stop-36","supplychain_instance_id":"supplychain-1"}},{"type":"Feature","geometry":{"type":"Point","coordinates":[15.472961997846,49.817491994824]},"properties":{"title":"\u010cesk\u00e1 republika","address":"Czech Republic","description":"","stop_instance_id":"stop-37","supplychain_instance_id":"supplychain-1"}},{"type":"Feature","geometry":{"type":"Point","coordinates":[9.5017849986771,56.263919994714]},"properties":{"title":"D\u00e1nsko","address":"Denmark","description":"","stop_instance_id":"stop-38","supplychain_instance_id":"supplychain-1"}},{"type":"Feature","geometry":{"type":"Point","coordinates":[25.013606996518,58.595271994726]},"properties":{"title":"Estonsko","address":"Estonia","description":"","stop_instance_id":"stop-39","supplychain_instance_id":"supplychain-1"}},{"type":"Feature","geometry":{"type":"Point","coordinates":[25.748150996416,61.924109994797]},"properties":{"title":"Finsko","address":"Finland","description":"","stop_instance_id":"stop-40","supplychain_instance_id":"supplychain-1"}},{"type":"Feature","geometry":{"type":"Point","coordinates":[2.2137489996918,46.227637994968]},"properties":{"title":"Francie","address":"France","description":"","stop_instance_id":"stop-41","supplychain_instance_id":"supplychain-1"}},{"type":"Feature","geometry":{"type":"Point","coordinates":[10.451525998545,51.165690994785]},"properties":{"title":"N\u011bmecko","address":"Germany","description":"","stop_instance_id":"stop-42","supplychain_instance_id":"supplychain-1"}},{"type":"Feature","geometry":{"type":"Point","coordinates":[21.824311996962,39.074207995406]},"properties":{"title":"\u0158ecko","address":"Greece","description":"","stop_instance_id":"stop-43","supplychain_instance_id":"supplychain-1"}},{"type":"Feature","geometry":{"type":"Point","coordinates":[19.503303997285,47.162493994925]},"properties":{"title":"Ma\u010farsko","address":"Hungary","description":"","stop_instance_id":"stop-44","supplychain_instance_id":"supplychain-1"}},{"type":"Feature","geometry":{"type":"Point","coordinates":[-8.2438899988524,53.412909994738]},"properties":{"title":"Irsko","address":"Ireland","description":"","stop_instance_id":"stop-45","supplychain_instance_id":"supplychain-1"}},{"type":"Feature","geometry":{"type":"Point","coordinates":[12.56737999825,41.871939995212]},"properties":{"title":"It\u00e1lie","address":"Italy","description":"","stop_instance_id":"stop-46","supplychain_instance_id":"supplychain-1"}},{"type":"Feature","geometry":{"type":"Point","coordinates":[23.881274996676,55.169437994719]},"properties":{"title":"Litva","address":"Lithuania","description":"","stop_instance_id":"stop-47","supplychain_instance_id":"supplychain-1"}},{"type":"Feature","geometry":{"type":"Point","coordinates":[24.603188996575,56.879634994715]},"properties":{"title":"Loty\u0161sko","address":"Latvia","description":"","stop_instance_id":"stop-48","supplychain_instance_id":"supplychain-1"}},{"type":"Feature","geometry":{"type":"Point","coordinates":[6.1295829991467,49.815272994824]},"properties":{"title":"Lucembursko","address":"Luxembourg","description":"","stop_instance_id":"stop-49","supplychain_instance_id":"supplychain-1"}},{"type":"Feature","geometry":{"type":"Point","coordinates":[14.375415997999,35.937495995654]},"properties":{"title":"Malta","address":"Malta","description":"","stop_instance_id":"stop-50","supplychain_instance_id":"supplychain-1"}},{"type":"Feature","geometry":{"type":"Point","coordinates":[5.2912659992635,52.132632994762]},"properties":{"title":"Nizozemsko","address":"The Netherlands","description":"","stop_instance_id":"stop-51","supplychain_instance_id":"supplychain-1"}},{"type":"Feature","geometry":{"type":"Point","coordinates":[8.4689459988211,60.472023994758]},"properties":{"title":"Norsko","address":"Norway","description":"","stop_instance_id":"stop-52","supplychain_instance_id":"supplychain-1"}},{"type":"Feature","geometry":{"type":"Point","coordinates":[19.145135997335,51.919437994767]},"properties":{"title":"Polsko","address":"Poland","description":"","stop_instance_id":"stop-53","supplychain_instance_id":"supplychain-1"}},{"type":"Feature","geometry":{"type":"Point","coordinates":[-8.2244539988552,39.399871995382]},"properties":{"title":"Portugalsko","address":"Portugal","description":"","stop_instance_id":"stop-54","supplychain_instance_id":"supplychain-1"}},{"type":"Feature","geometry":{"type":"Point","coordinates":[24.966759996525,45.943160994982]},"properties":{"title":"Rumunsko","address":"Romania","description":"","stop_instance_id":"stop-55","supplychain_instance_id":"supplychain-1"}},{"type":"Feature","geometry":{"type":"Point","coordinates":[105.31875598534,61.524009994785]},"properties":{"title":"Rusko","address":"Russia","description":"","stop_instance_id":"stop-56","supplychain_instance_id":"supplychain-1"}},{"type":"Feature","geometry":{"type":"Point","coordinates":[19.699023997258,48.669025994865]},"properties":{"title":"Slovensko","address":"Slovakia","description":"","stop_instance_id":"stop-57","supplychain_instance_id":"supplychain-1"}},{"type":"Feature","geometry":{"type":"Point","coordinates":[14.995462997913,46.151240994971]},"properties":{"title":"Slovinsko","address":"Slovenia","description":"","stop_instance_id":"stop-58","supplychain_instance_id":"supplychain-1"}},{"type":"Feature","geometry":{"type":"Point","coordinates":[-3.7492199994781,40.463666995306]},"properties":{"title":"\u0160pan\u011blsko","address":"Spain","description":"","stop_instance_id":"stop-59","supplychain_instance_id":"supplychain-1"}},{"type":"Feature","geometry":{"type":"Point","coordinates":[18.643500997405,60.128160994751]},"properties":{"title":"\u0160v\u00e9dsko","address":"Sweden","description":"","stop_instance_id":"stop-60","supplychain_instance_id":"supplychain-1"}},{"type":"Feature","geometry":{"type":"Point","coordinates":[8.2275119988548,46.818187994941]},"properties":{"title":"\u0160v\u00fdcarsko","address":"Switzerland","description":"","stop_instance_id":"stop-61","supplychain_instance_id":"supplychain-1"}},{"type":"Feature","geometry":{"type":"Point","coordinates":[-5.0034609993035,56.777250994714]},"properties":{"title":"Spojen\u00e9 kr\u00e1lovstv\u00ed","address":"Ben Nevis, Highland PH33 6, UK","description":"","stop_instance_id":"stop-62","supplychain_instance_id":"supplychain-1"}},{"type":"Feature","geometry":{"type":"Point","coordinates":[174.88597097565,-40.900556995276]},"properties":{"title":"Nov\u00fd Z\u00e9land","address":"New Zealand","description":""}}],"properties":{"title":"Glob\u00e1ln\u00ed s\u00ed\u0165 restaurac\u00ed McDonald's","description":"","tags":""}}