{"supplychain":{"category":33,"created":1322511500,"enable_comments":true,"flags":0,"id":1361,"modified":1323083503,"other_perms":1,"passcode":null,"user_featured":false,"usergroup_id":null,"usergroup_perms":0,"user_id":623,"owner":{"id":623,"name":"FosaDC","avatar":"http:\/\/free.sourcemap.com\/assets\/images\/default-user.png","banner_url":null,"display_name":null},"taxonomy":[{"description":"Clothing, Shoes & Jewelry","id":8,"left":1,"name":"clothing-shoes","right":12,"title":"Clothing, Shoes & Jewelry"},{"description":"Handbags & Accessories","id":33,"left":8,"name":"accessories","right":9,"title":"Handbags & Accessories"}],"attributes":{"title":"H&M obchody ve sv\u011bt\u011b","description":"","tags":""},"stops":[{"local_stop_id":43,"id":43,"geometry":"POINT(11598978.535428 4281602.6590309)","attributes":{"description":"","address":"China","title":"China"}},{"local_stop_id":42,"id":42,"geometry":"POINT(15390245.098219 4328841.5619102)","attributes":{"supplychain_instance_id":"supplychain-1","stop_instance_id":"stop-46","description":"","address":"Japan","title":"Japan"}},{"local_stop_id":41,"id":41,"geometry":"POINT(5018189.358529 2739515.7915507)","attributes":{"supplychain_instance_id":"supplychain-1","stop_instance_id":"stop-45","description":"","address":"Saudi Arabia","title":"Saudi Arabia"}},{"local_stop_id":40,"id":40,"geometry":"POINT(5994311.6792545 2683384.6572901)","attributes":{"supplychain_instance_id":"supplychain-1","stop_instance_id":"stop-44","description":"","address":"United Arab Emirates","title":"UAE"}},{"local_stop_id":39,"id":39,"geometry":"POINT(12702611.098948 2559188.1798433)","attributes":{"supplychain_instance_id":"supplychain-1","stop_instance_id":"stop-43","description":"","address":"Hong Kong","title":"Hong Kong"}},{"local_stop_id":38,"id":38,"geometry":"POINT(3879663.7006247 3638731.1870765)","attributes":{"supplychain_instance_id":"supplychain-1","stop_instance_id":"stop-42","description":"","address":"Israel","title":"Israel"}},{"local_stop_id":37,"id":37,"geometry":"POINT(5285646.0123496 3415373.4874844)","attributes":{"supplychain_instance_id":"supplychain-1","stop_instance_id":"stop-41","description":"","address":"Kuwait","title":"Kuwait"}},{"local_stop_id":36,"id":36,"geometry":"POINT(3992171.3043275 4009311.2470976)","attributes":{"supplychain_instance_id":"supplychain-1","stop_instance_id":"stop-40","description":"","address":"Lebanon","title":"Lebanon"}},{"local_stop_id":35,"id":35,"geometry":"POINT(14222948.695284 4287936.2888022)","attributes":{"supplychain_instance_id":"supplychain-1","stop_instance_id":"stop-39","description":"","address":"South Korea","title":"South Korea"}},{"local_stop_id":34,"id":34,"geometry":"POINT(5636970.9931612 2990464.968506)","attributes":{"supplychain_instance_id":"supplychain-1","stop_instance_id":"stop-38","description":"","address":"Bahrain","title":"Bahrain"}},{"local_stop_id":33,"id":33,"geometry":"POINT(5697763.9029088 2919390.3324817)","attributes":{"supplychain_instance_id":"supplychain-1","stop_instance_id":"stop-37","description":"","address":"Qatar","title":"Qatar"}},{"local_stop_id":32,"id":32,"geometry":"POINT(6225348.2692358 2453104.6408902)","attributes":{"supplychain_instance_id":"supplychain-1","stop_instance_id":"stop-36","description":"","address":"Oman","title":"Oman"}},{"local_stop_id":31,"id":31,"geometry":"POINT(11557171.276152 150527.16261961)","attributes":{"supplychain_instance_id":"supplychain-1","stop_instance_id":"stop-35","description":"","address":"Singapore","title":"Singapore"}},{"local_stop_id":30,"id":30,"geometry":"POINT(3923268.6583573 4716479.6839723)","attributes":{"supplychain_instance_id":"supplychain-1","stop_instance_id":"stop-34","description":"","address":"Turkey","title":"Turkey"}},{"local_stop_id":29,"id":29,"geometry":"POINT(2779287.009571 5771245.4036282)","attributes":{"supplychain_instance_id":"supplychain-1","stop_instance_id":"stop-33","description":"","address":"Romania","title":"Romania"}},{"local_stop_id":28,"id":28,"geometry":"POINT(1692056.2598222 5637278.2011058)","attributes":{"supplychain_instance_id":"supplychain-1","stop_instance_id":"stop-32","description":"","address":"Croatia","title":"Croatia"}},{"local_stop_id":27,"id":27,"geometry":"POINT(11724030.287269 8747149.0475725)","attributes":{"supplychain_instance_id":"supplychain-1","stop_instance_id":"stop-31","description":"","address":"Russia","title":"Russia"}},{"local_stop_id":26,"id":26,"geometry":"POINT(2171097.8697642 5968637.6782985)","attributes":{"supplychain_instance_id":"supplychain-1","stop_instance_id":"stop-30","description":"","address":"Hungary","title":"Hungary"}},{"local_stop_id":25,"id":25,"geometry":"POINT(2429471.2984153 4732306.8123197)","attributes":{"supplychain_instance_id":"supplychain-1","stop_instance_id":"stop-29","description":"","address":"Greece","title":"Greece"}},{"local_stop_id":24,"id":24,"geometry":"POINT(2866271.0577893 8841170.3929835)","attributes":{"supplychain_instance_id":"supplychain-1","stop_instance_id":"stop-28","description":"","address":"Finland","title":"Finland"}},{"local_stop_id":23,"id":23,"geometry":"POINT(497590.99932926 6534001.8553792)","attributes":{"supplychain_instance_id":"supplychain-1","stop_instance_id":"stop-27","description":"","address":"Belgium","title":"Belgium"}},{"local_stop_id":22,"id":22,"geometry":"POINT(1619706.60582 6026746.9738055)","attributes":{"supplychain_instance_id":"supplychain-1","stop_instance_id":"stop-26","description":"","address":"Austria","title":"Austria"}},{"local_stop_id":21,"id":21,"geometry":"POINT(915882.44620806 5912448.0540482)","attributes":{"supplychain_instance_id":"supplychain-1","stop_instance_id":"stop-25","description":"","address":"Switzerland","title":"Schwizerland"}},{"local_stop_id":20,"id":20,"geometry":"POINT(1398994.3420108 5141815.9369254)","attributes":{"supplychain_instance_id":"supplychain-1","stop_instance_id":"stop-24","description":"","address":"Italy","title":"Italy"}},{"local_stop_id":19,"id":19,"geometry":"POINT(2131226.7903913 6785571.8978479)","attributes":{"supplychain_instance_id":"supplychain-1","stop_instance_id":"stop-23","description":"","address":"Poland","title":"Poland"}},{"local_stop_id":18,"id":18,"geometry":"POINT(682342.05824012 6414345.6265068)","attributes":{"supplychain_instance_id":"supplychain-1","stop_instance_id":"stop-22","description":"","address":"Luxembourg","title":"Luxemburg"}},{"local_stop_id":17,"id":17,"geometry":"POINT(1057733.8676799 7611135.0671694)","attributes":{"supplychain_instance_id":"supplychain-1","stop_instance_id":"stop-21","description":"","address":"Denmark","title":"Denmark"}},{"local_stop_id":16,"id":16,"geometry":"POINT(589021.03668977 6824142.8206739)","attributes":{"supplychain_instance_id":"supplychain-1","stop_instance_id":"stop-18","description":"","address":"The Netherlands","title":"Netherlands"}},{"local_stop_id":15,"id":15,"geometry":"POINT(1669287.305137 5804618.9089314)","attributes":{"supplychain_instance_id":"supplychain-1","stop_instance_id":"stop-16","description":"","address":"Slovenia","title":"Slovenia"}},{"local_stop_id":14,"id":14,"geometry":"POINT(2192885.3204992 6218887.4930174)","attributes":{"supplychain_instance_id":"supplychain-1","stop_instance_id":"stop-15","description":"","address":"Slovakia","title":"Slowakia"}},{"local_stop_id":13,"id":13,"geometry":"POINT(1722442.2506639 6414728.458057)","attributes":{"supplychain_instance_id":"supplychain-1","stop_instance_id":"stop-14","description":"","address":"Czech Republic","title":"CZ"}},{"local_stop_id":12,"id":12,"geometry":"POINT(1163458.5521707 6650655.0402484)","attributes":{"supplychain_instance_id":"supplychain-1","stop_instance_id":"stop-13","description":"","address":"Germany","title":"Germany"}},{"local_stop_id":11,"id":11,"geometry":"POINT(942758.7561445 8505587.0375049)","attributes":{"supplychain_instance_id":"supplychain-1","stop_instance_id":"stop-12","description":"","address":"Norway","title":"Norway"}},{"local_stop_id":10,"id":10,"geometry":"POINT(2075385.037635 8428326.964267)","attributes":{"youtube:link":"","co2e":"0","weight":"0","unit":"kg","qty":"0","supplychain_instance_id":"supplychain-1","stop_instance_id":"stop-11","description":"","address":"Sweden","title":"Sweden"}},{"local_stop_id":9,"id":9,"geometry":"POINT(-382490.76468619 7435586.5299477)","attributes":{"supplychain_instance_id":"supplychain-1","stop_instance_id":"stop-10","description":"","address":"United Kingdom","title":"UK"}},{"local_stop_id":8,"id":8,"geometry":"POINT(-917705.63682801 7059743.326019)","attributes":{"supplychain_instance_id":"supplychain-1","stop_instance_id":"stop-9","description":"","address":"Ireland","title":"Ireland"}},{"local_stop_id":7,"id":7,"geometry":"POINT(246433.41138981 5816903.7126173)","attributes":{"supplychain_instance_id":"supplychain-1","stop_instance_id":"stop-8","description":"","address":"France","title":"France"}},{"local_stop_id":6,"id":6,"geometry":"POINT(-417361.26121386 4933551.651775)","attributes":{"supplychain_instance_id":"supplychain-1","stop_instance_id":"stop-7","description":"","address":"Spain","title":"Spain"}},{"local_stop_id":5,"id":5,"geometry":"POINT(-915542.03120526 4779112.7409819)","attributes":{"supplychain_instance_id":"supplychain-1","stop_instance_id":"stop-6","description":"","address":"Portugal","title":"Portugal"}},{"local_stop_id":4,"id":4,"geometry":"POINT(3428918.3920435 3101070.0503622)","attributes":{"supplychain_instance_id":"supplychain-1","stop_instance_id":"stop-5","description":"","address":"Egypt","title":"Egypt"}},{"local_stop_id":3,"id":3,"geometry":"POINT(-789546.84668028 3735999.2271399)","attributes":{"supplychain_instance_id":"supplychain-1","stop_instance_id":"stop-4","description":"","address":"Morocco","title":"Morroco"}},{"local_stop_id":2,"id":2,"geometry":"POINT(-10654710.286989 4451692.5541908)","attributes":{"supplychain_instance_id":"supplychain-1","stop_instance_id":"stop-3","description":"","address":"United States","title":"USA"}},{"local_stop_id":1,"id":1,"geometry":"POINT(-11838468.393581 7584411.7316911)","attributes":{"youtube:link":"","co2e":"0","weight":"0","unit":"kg","qty":"0","supplychain_instance_id":"supplychain-1","stop_instance_id":"stop-2","description":"","address":"Canada","title":"Canada"}}],"hops":[]},"editable":false}