{"type":"FeatureCollection","features":[{"type":"Feature","geometry":{"type":"Point","coordinates":[104.19539698549,35.861659995661]},"properties":{"description":"","address":"China","title":"China"}},{"type":"Feature","geometry":{"type":"Point","coordinates":[138.25292398076,36.204823995632]},"properties":{"supplychain_instance_id":"supplychain-1","stop_instance_id":"stop-46","description":"","address":"Japan","title":"Japan"}},{"type":"Feature","geometry":{"type":"Point","coordinates":[45.079161993725,23.885941996868]},"properties":{"supplychain_instance_id":"supplychain-1","stop_instance_id":"stop-45","description":"","address":"Saudi Arabia","title":"Saudi Arabia"}},{"type":"Feature","geometry":{"type":"Point","coordinates":[53.847817992505,23.424075996921]},"properties":{"supplychain_instance_id":"supplychain-1","stop_instance_id":"stop-44","description":"","address":"United Arab Emirates","title":"UAE"}},{"type":"Feature","geometry":{"type":"Point","coordinates":[114.10949698411,22.396427997041]},"properties":{"supplychain_instance_id":"supplychain-1","stop_instance_id":"stop-43","description":"","address":"Hong Kong","title":"Hong Kong"}},{"type":"Feature","geometry":{"type":"Point","coordinates":[34.851611995149,31.046050996101]},"properties":{"supplychain_instance_id":"supplychain-1","stop_instance_id":"stop-42","description":"","address":"Israel","title":"Israel"}},{"type":"Feature","geometry":{"type":"Point","coordinates":[47.48176599339,29.311659996276]},"properties":{"supplychain_instance_id":"supplychain-1","stop_instance_id":"stop-41","description":"","address":"Kuwait","title":"Kuwait"}},{"type":"Feature","geometry":{"type":"Point","coordinates":[35.862284995008,33.854720995837]},"properties":{"supplychain_instance_id":"supplychain-1","stop_instance_id":"stop-40","description":"","address":"Lebanon","title":"Lebanon"}},{"type":"Feature","geometry":{"type":"Point","coordinates":[127.76692198221,35.907756995657]},"properties":{"supplychain_instance_id":"supplychain-1","stop_instance_id":"stop-39","description":"","address":"South Korea","title":"South Korea"}},{"type":"Feature","geometry":{"type":"Point","coordinates":[50.637771992951,25.930413996637]},"properties":{"supplychain_instance_id":"supplychain-1","stop_instance_id":"stop-38","description":"","address":"Bahrain","title":"Bahrain"}},{"type":"Feature","geometry":{"type":"Point","coordinates":[51.183883992875,25.354825996701]},"properties":{"supplychain_instance_id":"supplychain-1","stop_instance_id":"stop-37","description":"","address":"Qatar","title":"Qatar"}},{"type":"Feature","geometry":{"type":"Point","coordinates":[55.923254992215,21.512582997146]},"properties":{"supplychain_instance_id":"supplychain-1","stop_instance_id":"stop-36","description":"","address":"Oman","title":"Oman"}},{"type":"Feature","geometry":{"type":"Point","coordinates":[103.81983598554,1.3520829998118]},"properties":{"supplychain_instance_id":"supplychain-1","stop_instance_id":"stop-35","description":"","address":"Singapore","title":"Singapore"}},{"type":"Feature","geometry":{"type":"Point","coordinates":[35.243321995095,38.963744995414]},"properties":{"supplychain_instance_id":"supplychain-1","stop_instance_id":"stop-34","description":"","address":"Turkey","title":"Turkey"}},{"type":"Feature","geometry":{"type":"Point","coordinates":[24.966759996525,45.943160994982]},"properties":{"supplychain_instance_id":"supplychain-1","stop_instance_id":"stop-33","description":"","address":"Romania","title":"Romania"}},{"type":"Feature","geometry":{"type":"Point","coordinates":[15.199999997884,45.099999995024]},"properties":{"supplychain_instance_id":"supplychain-1","stop_instance_id":"stop-32","description":"","address":"Croatia","title":"Croatia"}},{"type":"Feature","geometry":{"type":"Point","coordinates":[105.31875598534,61.524009994785]},"properties":{"supplychain_instance_id":"supplychain-1","stop_instance_id":"stop-31","description":"","address":"Russia","title":"Russia"}},{"type":"Feature","geometry":{"type":"Point","coordinates":[19.503303997285,47.162493994925]},"properties":{"supplychain_instance_id":"supplychain-1","stop_instance_id":"stop-30","description":"","address":"Hungary","title":"Hungary"}},{"type":"Feature","geometry":{"type":"Point","coordinates":[21.824311996962,39.074207995406]},"properties":{"supplychain_instance_id":"supplychain-1","stop_instance_id":"stop-29","description":"","address":"Greece","title":"Greece"}},{"type":"Feature","geometry":{"type":"Point","coordinates":[25.748150996416,61.924109994797]},"properties":{"supplychain_instance_id":"supplychain-1","stop_instance_id":"stop-28","description":"","address":"Finland","title":"Finland"}},{"type":"Feature","geometry":{"type":"Point","coordinates":[4.4699359993778,50.503886994803]},"properties":{"supplychain_instance_id":"supplychain-1","stop_instance_id":"stop-27","description":"","address":"Belgium","title":"Belgium"}},{"type":"Feature","geometry":{"type":"Point","coordinates":[14.550071997975,47.51623099491]},"properties":{"supplychain_instance_id":"supplychain-1","stop_instance_id":"stop-26","description":"","address":"Austria","title":"Austria"}},{"type":"Feature","geometry":{"type":"Point","coordinates":[8.2275119988548,46.818187994941]},"properties":{"supplychain_instance_id":"supplychain-1","stop_instance_id":"stop-25","description":"","address":"Switzerland","title":"Schwizerland"}},{"type":"Feature","geometry":{"type":"Point","coordinates":[12.56737999825,41.871939995212]},"properties":{"supplychain_instance_id":"supplychain-1","stop_instance_id":"stop-24","description":"","address":"Italy","title":"Italy"}},{"type":"Feature","geometry":{"type":"Point","coordinates":[19.145135997335,51.919437994767]},"properties":{"supplychain_instance_id":"supplychain-1","stop_instance_id":"stop-23","description":"","address":"Poland","title":"Poland"}},{"type":"Feature","geometry":{"type":"Point","coordinates":[6.1295829991467,49.815272994824]},"properties":{"supplychain_instance_id":"supplychain-1","stop_instance_id":"stop-22","description":"","address":"Luxembourg","title":"Luxemburg"}},{"type":"Feature","geometry":{"type":"Point","coordinates":[9.5017849986771,56.263919994714]},"properties":{"supplychain_instance_id":"supplychain-1","stop_instance_id":"stop-21","description":"","address":"Denmark","title":"Denmark"}},{"type":"Feature","geometry":{"type":"Point","coordinates":[5.2912659992635,52.132632994762]},"properties":{"supplychain_instance_id":"supplychain-1","stop_instance_id":"stop-18","description":"","address":"The Netherlands","title":"Netherlands"}},{"type":"Feature","geometry":{"type":"Point","coordinates":[14.995462997913,46.151240994971]},"properties":{"supplychain_instance_id":"supplychain-1","stop_instance_id":"stop-16","description":"","address":"Slovenia","title":"Slovenia"}},{"type":"Feature","geometry":{"type":"Point","coordinates":[19.699023997258,48.669025994865]},"properties":{"supplychain_instance_id":"supplychain-1","stop_instance_id":"stop-15","description":"","address":"Slovakia","title":"Slowakia"}},{"type":"Feature","geometry":{"type":"Point","coordinates":[15.472961997846,49.817491994824]},"properties":{"supplychain_instance_id":"supplychain-1","stop_instance_id":"stop-14","description":"","address":"Czech Republic","title":"CZ"}},{"type":"Feature","geometry":{"type":"Point","coordinates":[10.451525998545,51.165690994785]},"properties":{"supplychain_instance_id":"supplychain-1","stop_instance_id":"stop-13","description":"","address":"Germany","title":"Germany"}},{"type":"Feature","geometry":{"type":"Point","coordinates":[8.4689459988211,60.472023994758]},"properties":{"supplychain_instance_id":"supplychain-1","stop_instance_id":"stop-12","description":"","address":"Norway","title":"Norway"}},{"type":"Feature","geometry":{"type":"Point","coordinates":[18.643500997405,60.128160994751]},"properties":{"youtube:link":"","co2e":"0","weight":"0","unit":"kg","qty":"0","supplychain_instance_id":"supplychain-1","stop_instance_id":"stop-11","description":"","address":"Sweden","title":"Sweden"}},{"type":"Feature","geometry":{"type":"Point","coordinates":[-3.4359729995217,55.378050994717]},"properties":{"supplychain_instance_id":"supplychain-1","stop_instance_id":"stop-10","description":"","address":"United Kingdom","title":"UK"}},{"type":"Feature","geometry":{"type":"Point","coordinates":[-8.2438899988524,53.412909994738]},"properties":{"supplychain_instance_id":"supplychain-1","stop_instance_id":"stop-9","description":"","address":"Ireland","title":"Ireland"}},{"type":"Feature","geometry":{"type":"Point","coordinates":[2.2137489996918,46.227637994968]},"properties":{"supplychain_instance_id":"supplychain-1","stop_instance_id":"stop-8","description":"","address":"France","title":"France"}},{"type":"Feature","geometry":{"type":"Point","coordinates":[-3.7492199994781,40.463666995306]},"properties":{"supplychain_instance_id":"supplychain-1","stop_instance_id":"stop-7","description":"","address":"Spain","title":"Spain"}},{"type":"Feature","geometry":{"type":"Point","coordinates":[-8.2244539988552,39.399871995382]},"properties":{"supplychain_instance_id":"supplychain-1","stop_instance_id":"stop-6","description":"","address":"Portugal","title":"Portugal"}},{"type":"Feature","geometry":{"type":"Point","coordinates":[30.802497995712,26.82055299654]},"properties":{"supplychain_instance_id":"supplychain-1","stop_instance_id":"stop-5","description":"","address":"Egypt","title":"Egypt"}},{"type":"Feature","geometry":{"type":"Point","coordinates":[-7.0926199990127,31.791701996029]},"properties":{"supplychain_instance_id":"supplychain-1","stop_instance_id":"stop-4","description":"","address":"Morocco","title":"Morroco"}},{"type":"Feature","geometry":{"type":"Point","coordinates":[-95.712890986677,37.090239995559]},"properties":{"supplychain_instance_id":"supplychain-1","stop_instance_id":"stop-3","description":"","address":"United States","title":"USA"}},{"type":"Feature","geometry":{"type":"Point","coordinates":[-106.3467709852,56.130365994714]},"properties":{"youtube:link":"","co2e":"0","weight":"0","unit":"kg","qty":"0","supplychain_instance_id":"supplychain-1","stop_instance_id":"stop-2","description":"","address":"Canada","title":"Canada"}}],"properties":{"title":"H&M obchody ve sv\u011bt\u011b","description":"","tags":""}}