{"type":"FeatureCollection","features":[{"type":"Feature","geometry":{"type":"Point","coordinates":[-122.18,49.0566]},"properties":{"url:moreinfo":"http:\/\/foodtree.com\/sources\/107","address":"Sumas River Bridge, Abbotsford  , British Columbia, Canada","title":"Skeeter Farm"}},{"type":"Feature","geometry":{"type":"Point","coordinates":[-122.581,49.0842]},"properties":{"url:moreinfo":"http:\/\/foodtree.com\/sources\/130","address":"4533 232 St., Langley  , British Columbia, Canada","title":"Twin Oaks Herb Farm"}},{"type":"Feature","geometry":{"type":"Point","coordinates":[-125.217,50.1006]},"properties":{"url:moreinfo":"http:\/\/foodtree.com\/sources\/104","address":"Box 233, Heriot Bay, British Columbia, Canada","title":"Sawmill Bay Shelfish Company"}},{"type":"Feature","geometry":{"type":"Point","coordinates":[-123.15,49.276]},"properties":{"url:moreinfo":"http:\/\/foodtree.com\/sources\/96","address":"1118 Maple Street, Vancouver, British Columbia, Canada","title":"Rise Artisan Breads"}},{"type":"Feature","geometry":{"type":"Point","coordinates":[-123.116,49.3169]},"properties":{"url:moreinfo":"http:\/\/foodtree.com\/sources\/347","address":"107 Bowser Avenue, North Vancouver, British Columbia, Canada","title":"Granola King"}},{"type":"Feature","geometry":{"type":"Point","coordinates":[-123.114,49.2612]},"properties":{"url:moreinfo":"http:\/\/foodtree.com\/sources\/54","address":"Vancouver, British Columbia, Canada","title":"Gluten-Shmuten"}},{"type":"Feature","geometry":{"type":"Point","coordinates":[-122.248,49.2086]},"properties":{"url:moreinfo":"http:\/\/foodtree.com\/sources\/23","address":"11424 Farms Road, Mission , British Columbia, Canada","title":"Beckmann Berry Farm"}},{"type":"Feature","geometry":{"type":"Point","coordinates":[-123.181,49.3346]},"properties":{"url:moreinfo":"http:\/\/foodtree.com\/sources\/39","address":"2454 Marine Dr, West Vancouver, British Columbia, Canada","title":"Dundarave Olive Company"}},{"type":"Feature","geometry":{"type":"Point","coordinates":[-123.093,49.2757]},"properties":{"url:moreinfo":"http:\/\/foodtree.com\/sources\/83","address":"618 Malkin Avenue, Vancouver  , British Columbia, Canada","title":"My Urban Farm"}},{"type":"Feature","geometry":{"type":"Point","coordinates":[-123.114,49.2612]},"properties":{"url:moreinfo":"http:\/\/foodtree.com\/sources\/80","address":"Vancouver , British Columbia, Canada","title":"Maples Sugar Shack"}},{"type":"Feature","geometry":{"type":"Point","coordinates":[-122.033,49.0167]},"properties":{"url:moreinfo":"http:\/\/foodtree.com\/sources\/106","address":"Columbia Valley, British Columbia, Canada","title":"Shalefield Organic Gardens"}},{"type":"Feature","geometry":{"type":"Point","coordinates":[-123.114,49.2612]},"properties":{"url:moreinfo":"http:\/\/foodtree.com\/sources\/110","address":"Vancouver, British Columbia, Canada","title":"Small Pleasures"}},{"type":"Feature","geometry":{"type":"Point","coordinates":[-122.497,49.1149]},"properties":{"url:moreinfo":"http:\/\/foodtree.com\/sources\/116","address":"26227 62nd Ave, Aldergrove, British Columbia, Canada","title":"Specialty Mushroom Growers"}},{"type":"Feature","geometry":{"type":"Point","coordinates":[-119.762,49.1759]},"properties":{"url:moreinfo":"http:\/\/foodtree.com\/sources\/87","address":"440 VLA Rd, Cawston  , British Columbia, Canada","title":"Osprey Organic Farm"}},{"type":"Feature","geometry":{"type":"Point","coordinates":[-123.114,49.2612]},"properties":{"url:moreinfo":"http:\/\/foodtree.com\/sources\/30","address":"Vancouver, British Columbia, Canada","title":"Carole's Country Kitchen"}},{"type":"Feature","geometry":{"type":"Point","coordinates":[-123.114,49.2612]},"properties":{"url:moreinfo":"http:\/\/foodtree.com\/sources\/38","address":"Vancouver, British Columbia, Canada","title":"Dessert-First"}},{"type":"Feature","geometry":{"type":"Point","coordinates":[-123.114,49.2612]},"properties":{"url:moreinfo":"http:\/\/foodtree.com\/sources\/22","address":"Vancouver, British Columbia, Canada","title":"Bean Boy Creations"}},{"type":"Feature","geometry":{"type":"Point","coordinates":[-123.114,49.2612]},"properties":{"url:moreinfo":"http:\/\/foodtree.com\/sources\/32","address":"Vancouver, British Columbia, Canada","title":"Chili Tank"}},{"type":"Feature","geometry":{"type":"Point","coordinates":[-122.694,49.2695]},"properties":{"url:moreinfo":"http:\/\/foodtree.com\/sources\/62","address":"19049 McQuarrie Road, Pitt Meadows  , British Columbia, Canada","title":"Heimat Farm"}},{"type":"Feature","geometry":{"type":"Point","coordinates":[-122.303,49.1336]},"properties":{"url:moreinfo":"http:\/\/foodtree.com\/sources\/60","address":"Box 3022, Mission , British Columbia, Canada","title":"Hannah Brook Farm"}},{"type":"Feature","geometry":{"type":"Point","coordinates":[-119.634,49.5734]},"properties":{"url:moreinfo":"http:\/\/foodtree.com\/sources\/173","address":"6200 Miltimore Ave, Summerland  , British Columbia, Canada","title":"Golden West Farms"}},{"type":"Feature","geometry":{"type":"Point","coordinates":[-122.368,49.086]},"properties":{"url:moreinfo":"http:\/\/foodtree.com\/sources\/55","address":"30854 Olund Road, Abbotsford  , British Columbia, Canada","title":"Goat's Pride Dairy"}},{"type":"Feature","geometry":{"type":"Point","coordinates":[-123.114,49.2612]},"properties":{"url:moreinfo":"http:\/\/foodtree.com\/sources\/97","address":"West Georgia Street, at Thurlow and Burrard, Vancouver, British Columbia, Canada","title":"Roaming Dragon"}},{"type":"Feature","geometry":{"type":"Point","coordinates":[-122.082,49.0023]},"properties":{"url:moreinfo":"http:\/\/foodtree.com\/sources\/105","address":"41381 Henderson Road, Lindell Beach  , British Columbia, Canada","title":"Shalefield Gardens"}},{"type":"Feature","geometry":{"type":"Point","coordinates":[-122.515,49.0249]},"properties":{"url:moreinfo":"http:\/\/foodtree.com\/sources\/86","address":"1374-256 Street, Aldergrove, British Columbia, Canada","title":"Organic Farm Connection, The"}},{"type":"Feature","geometry":{"type":"Point","coordinates":[-121.744,49.2344]},"properties":{"url:moreinfo":"http:\/\/foodtree.com\/sources\/93","address":"1611 Tranmer Rd, Agassiz  , British Columbia, Canada","title":"Poplar Grove Arbour"}},{"type":"Feature","geometry":{"type":"Point","coordinates":[-122.956,50.1172]},"properties":{"url:moreinfo":"http:\/\/foodtree.com\/sources\/136","address":"36-4314 Main St RR 4, Whistler, Vancouver, British Columbia, Canada","title":"Whistler Wood Fired Pizza Company"}},{"type":"Feature","geometry":{"type":"Point","coordinates":[-121.577,50.225]},"properties":{"url:moreinfo":"http:\/\/foodtree.com\/sources\/117","address":"PO Box 11, Lytton  , British Columbia, Canada","title":"Stein Mountain Farm"}},{"type":"Feature","geometry":{"type":"Point","coordinates":[-122.139,49.0649]},"properties":{"url:moreinfo":"http:\/\/foodtree.com\/sources\/102","address":"3556 Marion Rd, Abbotsford  , British Columbia, Canada","title":"Sandhu Produce Growers"}},{"type":"Feature","geometry":{"type":"Point","coordinates":[-119.729,49.0781]},"properties":{"url:moreinfo":"http:\/\/foodtree.com\/sources\/111","address":"1050 Chopaka Rd, Cawston  , British Columbia, Canada","title":"Snowy Mountain Organics"}},{"type":"Feature","geometry":{"type":"Point","coordinates":[-122.007,49.1192]},"properties":{"url:moreinfo":"http:\/\/foodtree.com\/sources\/77","address":"5685 Lickman Road, Sardis  , British Columbia, Canada","title":"Lowland Herb Farm"}},{"type":"Feature","geometry":{"type":"Point","coordinates":[-123.07,49.2444]},"properties":{"url:moreinfo":"http:\/\/foodtree.com\/sources\/72","address":"4529 Welwyn St, Vancouver , British Columbia, Canada","title":"Kalley Kandy"}},{"type":"Feature","geometry":{"type":"Point","coordinates":[-124.366,49.3296]},"properties":{"url:moreinfo":"http:\/\/foodtree.com\/sources\/76","address":"403 Lowry's Road, Parksville  , British Columbia, Canada","title":"Little Qualicum Cheeseworks"}},{"type":"Feature","geometry":{"type":"Point","coordinates":[-123.021,49.3035]},"properties":{"url:moreinfo":"http:\/\/foodtree.com\/sources\/34","address":"101 Riverside Drive West, North Vancouver, British Columbia, Canada","title":"Copper Pot Preserves"}},{"type":"Feature","geometry":{"type":"Point","coordinates":[-122.779,49.0984]},"properties":{"url:moreinfo":"http:\/\/foodtree.com\/sources\/29","address":"5276 - 160th Street, Cloverdale, Surrey, British Columbia, Canada","title":"Capella Farm"}},{"type":"Feature","geometry":{"type":"Point","coordinates":[-122.228,49.017]},"properties":{"url:moreinfo":"http:\/\/foodtree.com\/sources\/49","address":"35805 Vye Road, Abbotsford  , British Columbia, Canada","title":"Gelderman Farms Ltd"}},{"type":"Feature","geometry":{"type":"Point","coordinates":[-122.828,49.1059]},"properties":{"url:moreinfo":"http:\/\/foodtree.com\/sources\/45","address":"2690 Larch Street\u00a0at 10th\u00a0Avenue, Surrey  , British Columbia, Canada","title":"Fresh Off The Boat"}},{"type":"Feature","geometry":{"type":"Point","coordinates":[-123.134,49.2054]},"properties":{"url:moreinfo":"http:\/\/foodtree.com\/sources\/27","address":"8815 Selkirk St., Vancouver, British Columbia, Canada","title":"Blackberry Hill Farm"}},{"type":"Feature","geometry":{"type":"Point","coordinates":[-122.316,49.0089]},"properties":{"url:moreinfo":"http:\/\/foodtree.com\/sources\/18","address":"333 Gladwin Road, Abbotsford  , British Columbia, Canada","title":"Apple Barn Pumpkin Farm"}},{"type":"Feature","geometry":{"type":"Point","coordinates":[-123.087,49.2802]},"properties":{"url:moreinfo":"http:\/\/foodtree.com\/sources\/112","address":"399 Hawks Ave, Vancouver, British Columbia, Canada","title":"SOLEFood"}},{"type":"Feature","geometry":{"type":"Point","coordinates":[-123.018,49.2002]},"properties":{"url:moreinfo":"http:\/\/foodtree.com\/sources\/122","address":"8980 Fraserwood Court, Burnaby, British Columbia, Canada","title":"Tarragon Foods"}},{"type":"Feature","geometry":{"type":"Point","coordinates":[-122.537,49.0302]},"properties":{"url:moreinfo":"http:\/\/foodtree.com\/sources\/114","address":"1569 248 Street, South Langley, British Columbia, Canada","title":"South Grove Nursery"}},{"type":"Feature","geometry":{"type":"Point","coordinates":[-122.285,49.0568]},"properties":{"url:moreinfo":"http:\/\/foodtree.com\/sources\/89","address":"Abbotsford  , British Columbia, Canada","title":"Paul's Produce"}},{"type":"Feature","geometry":{"type":"Point","coordinates":[-127.648,53.7267]},"properties":{"url:moreinfo":"http:\/\/foodtree.com\/sources\/69","address":"White Rock  , British Columbia, Canada","title":"Jane's Honey Bees"}},{"type":"Feature","geometry":{"type":"Point","coordinates":[-119.757,49.1894]},"properties":{"url:moreinfo":"http:\/\/foodtree.com\/sources\/73","address":"2200 Ferko Rd., Cawston  , British Columbia, Canada","title":"Klippers Organic Acres"}},{"type":"Feature","geometry":{"type":"Point","coordinates":[-123.11,49.064]},"properties":{"url:moreinfo":"http:\/\/foodtree.com\/sources\/50","address":"3330 41B Street, Delta, British Columbia, Canada","title":"Gipaanda Greenhouses"}},{"type":"Feature","geometry":{"type":"Point","coordinates":[-122.471,49.058]},"properties":{"url:moreinfo":"http:\/\/foodtree.com\/sources\/75","address":"Victoria Dr & E 15 Ave, Aldergrove, British Columbia, Canada","title":"Langley Organic Growers"}},{"type":"Feature","geometry":{"type":"Point","coordinates":[-122.517,49.1077]},"properties":{"url:moreinfo":"http:\/\/foodtree.com\/sources\/58","address":"25456 58 Ave, Aldergrove, British Columbia, Canada","title":"Goldwing"}},{"type":"Feature","geometry":{"type":"Point","coordinates":[-122.338,49.0142]},"properties":{"url:moreinfo":"http:\/\/foodtree.com\/sources\/6023","address":"611 Clearbrook Road, Abbotsford, British Columbia, Canada","title":"Reimer's Corn Patch"}},{"type":"Feature","geometry":{"type":"Point","coordinates":[-122.273,49.0893]},"properties":{"url:moreinfo":"http:\/\/foodtree.com\/sources\/98","address":"34205 Townshipline Road , Abbotsford, British Columbia, Canada","title":"Rockweld Farm"}},{"type":"Feature","geometry":{"type":"Point","coordinates":[-122.728,49.0746]},"properties":{"url:moreinfo":"http:\/\/foodtree.com\/sources\/115","address":"17885 40th Ave., Surrey  , British Columbia, Canada","title":"Southern Acres Nursery and Farm"}},{"type":"Feature","geometry":{"type":"Point","coordinates":[-122.053,49.082]},"properties":{"url:moreinfo":"http:\/\/foodtree.com\/sources\/138","address":"42312 Yarrow Central Road, Chilliwack , British Columbia, Canada","title":"Yarrow Eco Village Farm"}},{"type":"Feature","geometry":{"type":"Point","coordinates":[-127.648,53.7267]},"properties":{"url:moreinfo":"http:\/\/foodtree.com\/sources\/127","address":"1100 comox street, Roberts Creek, British Columbia, Canada","title":"The Flour Peddler"}},{"type":"Feature","geometry":{"type":"Point","coordinates":[-119.551,49.1828]},"properties":{"url:moreinfo":"http:\/\/foodtree.com\/sources\/64","address":"Oliver  , British Columbia, Canada","title":"Hill Top Farm"}},{"type":"Feature","geometry":{"type":"Point","coordinates":[-121.821,49.209]},"properties":{"url:moreinfo":"http:\/\/foodtree.com\/sources\/26","address":"11380 Gill Rd, Rosedale  , British Columbia, Canada","title":"Berry Tyme"}},{"type":"Feature","geometry":{"type":"Point","coordinates":[-122.917,49.2101]},"properties":{"url:moreinfo":"http:\/\/foodtree.com\/sources\/20","address":"W 10 Ave & Larch St, New Westminster  , British Columbia, Canada","title":"Arila Apiary"}},{"type":"Feature","geometry":{"type":"Point","coordinates":[-122.139,52.1342]},"properties":{"url:moreinfo":"http:\/\/foodtree.com\/sources\/41","address":"Box 4281, Williams Lake  , British Columbia, Canada","title":"Empire Valley Beef"}},{"type":"Feature","geometry":{"type":"Point","coordinates":[-122.068,49.076]},"properties":{"url:moreinfo":"http:\/\/foodtree.com\/sources\/109","address":"4170 Stewart Rd., Yarrow, British Columbia, Canada","title":"Sleeping Mountain Organic Farm"}},{"type":"Feature","geometry":{"type":"Point","coordinates":[-121.577,50.225]},"properties":{"url:moreinfo":"http:\/\/foodtree.com\/sources\/103","address":"Victoria Dr & E 15 Ave, Lytton  , British Columbia, Canada","title":"Sapo Bravo"}},{"type":"Feature","geometry":{"type":"Point","coordinates":[-122.621,49.2232]},"properties":{"url:moreinfo":"http:\/\/foodtree.com\/sources\/133","address":"21651 Mountainview Crescent, Maple Ridge  , British Columbia, Canada","title":"Vlad's Apiary"}},{"type":"Feature","geometry":{"type":"Point","coordinates":[-123.71,49.4545]},"properties":{"url:moreinfo":"http:\/\/foodtree.com\/sources\/128","address":"2158 Field Road , Sechelt, British Columbia, Canada","title":"The Promised Land Farm"}},{"type":"Feature","geometry":{"type":"Point","coordinates":[-123.114,49.2612]},"properties":{"url:moreinfo":"http:\/\/foodtree.com\/sources\/126","address":"Vancouver , British Columbia, Canada","title":"The Bean Buggy"}},{"type":"Feature","geometry":{"type":"Point","coordinates":[-121.577,50.225]},"properties":{"url:moreinfo":"http:\/\/foodtree.com\/sources\/91","address":"Lytton, British Columbia, Canada","title":"Planting Seeds Project"}},{"type":"Feature","geometry":{"type":"Point","coordinates":[-122.974,49.2489]},"properties":{"url:moreinfo":"http:\/\/foodtree.com\/sources\/15","address":"Burnaby, British Columbia, Canada","title":"Albert's Herbs and Nursery"}},{"type":"Feature","geometry":{"type":"Point","coordinates":[-122.862,49.1212]},"properties":{"url:moreinfo":"http:\/\/foodtree.com\/sources\/31","address":"6524 130th St, Surrey, British Columbia, Canada","title":"Celyddon Farm"}},{"type":"Feature","geometry":{"type":"Point","coordinates":[-122.974,49.2489]},"properties":{"url:moreinfo":"http:\/\/foodtree.com\/sources\/25","address":"Burnaby, British Columbia, Canada","title":"BeerBrats Sausage"}},{"type":"Feature","geometry":{"type":"Point","coordinates":[-123.114,49.2612]},"properties":{"url:moreinfo":"http:\/\/foodtree.com\/sources\/36","address":"Vancouver , British Columbia, Canada","title":"Creperie La Boheme"}},{"type":"Feature","geometry":{"type":"Point","coordinates":[-121.86,49.1472]},"properties":{"url:moreinfo":"http:\/\/foodtree.com\/sources\/44","address":"49350 Prairie Central rd, Chilliwack , British Columbia, Canada","title":"Forstbauer Family Natural Food Farm"}},{"type":"Feature","geometry":{"type":"Point","coordinates":[-123.162,49.263]},"properties":{"url:moreinfo":"http:\/\/foodtree.com\/sources\/28","address":"W 10 Ave & Larch St, Vancouver  , British Columbia, Canada","title":"Blue Comet Seafoods"}},{"type":"Feature","geometry":{"type":"Point","coordinates":[-123.157,49.2637]},"properties":{"url:moreinfo":"http:\/\/foodtree.com\/sources\/172","address":"2280 West Broadway, Vancouver, British Columbia, Canada","title":"Edible Flours"}},{"type":"Feature","geometry":{"type":"Point","coordinates":[-122.586,49.1627]},"properties":{"url:moreinfo":"http:\/\/foodtree.com\/sources\/33","address":"200th Street, Fort Langley, British Columbia, Canada","title":"Christina's Garden"}},{"type":"Feature","geometry":{"type":"Point","coordinates":[-123.099,49.2744]},"properties":{"url:moreinfo":"http:\/\/foodtree.com\/sources\/1073","address":"1100 Station Street, Vancouver, British Columbia, Canada","title":"Icy Freshpops"}},{"type":"Feature","geometry":{"type":"Point","coordinates":[-119.729,49.0781]},"properties":{"url:moreinfo":"http:\/\/foodtree.com\/sources\/61","address":"1050 Chopaka Rd.,, Cawston  , British Columbia, Canada","title":"Harvey's Orchards"}},{"type":"Feature","geometry":{"type":"Point","coordinates":[-122.504,49.1186]},"properties":{"url:moreinfo":"http:\/\/foodtree.com\/sources\/53","address":"25922 64 Ave, Aldergrove, British Columbia, Canada","title":"Gloucester Green Nursery"}},{"type":"Feature","geometry":{"type":"Point","coordinates":[-127.648,53.7267]},"properties":{"url:moreinfo":"http:\/\/foodtree.com\/sources\/71","address":"15438 Old Mission Rd., Oyama  , British Columbia, Canada","title":"Jobsthof Orchard"}},{"type":"Feature","geometry":{"type":"Point","coordinates":[-127.648,53.7267]},"properties":{"url:moreinfo":"http:\/\/foodtree.com\/sources\/168","address":"British Columbia, Canada","title":"Golda's Finest Foods"}},{"type":"Feature","geometry":{"type":"Point","coordinates":[-123.062,49.2563]},"properties":{"url:moreinfo":"http:\/\/foodtree.com\/sources\/1","address":"Trout Lake, North end of John Hendry Park, Vancouver, British Columbia, Canada","title":"East Van Trout Lake"}}],"properties":{"title":"East Van Trout Lake - connections"}}