{"type":"FeatureCollection","features":[{"type":"Feature","geometry":{"type":"Point","coordinates":[-122.068,49.076]},"properties":{"url:moreinfo":"http:\/\/foodtree.com\/sources\/109","address":"4170 Stewart Rd., Yarrow, British Columbia, Canada","title":"Sleeping Mountain Organic Farm"}},{"type":"Feature","geometry":{"type":"Point","coordinates":[-123.127,49.2032]},"properties":{"url:moreinfo":"http:\/\/foodtree.com\/sources\/79","address":"2-9059 Shaughnessy Street, Vancouver , British Columbia, Canada","title":"Maison Cote"}},{"type":"Feature","geometry":{"type":"Point","coordinates":[-122.65,49.096]},"properties":{"url:moreinfo":"http:\/\/foodtree.com\/sources\/119","address":"207th St, Langley  , British Columbia, Canada","title":"Sull Farm"}},{"type":"Feature","geometry":{"type":"Point","coordinates":[-123.114,49.2612]},"properties":{"url:moreinfo":"http:\/\/foodtree.com\/sources\/126","address":"Vancouver , British Columbia, Canada","title":"The Bean Buggy"}},{"type":"Feature","geometry":{"type":"Point","coordinates":[-123.1,49.2629]},"properties":{"url:moreinfo":"http:\/\/foodtree.com\/sources\/174","address":"235 East Broadway, Vancouver, British Columbia, Canada","title":"My Goodness! gluten & wheat free kitchen"}},{"type":"Feature","geometry":{"type":"Point","coordinates":[-122.817,50.3384]},"properties":{"url:moreinfo":"http:\/\/foodtree.com\/sources\/100","address":"8425 Pemberton Meadows Road, Pemberton, British Columbia, Canada","title":"Rootdown Farm"}},{"type":"Feature","geometry":{"type":"Point","coordinates":[-122.537,49.0973]},"properties":{"url:moreinfo":"http:\/\/foodtree.com\/sources\/66","address":"5268-248th Street, Aldergrove, British Columbia, Canada","title":"Hui's Farm"}},{"type":"Feature","geometry":{"type":"Point","coordinates":[-127.648,53.7267]},"properties":{"url:moreinfo":"http:\/\/foodtree.com\/sources\/168","address":"British Columbia, Canada","title":"Golda's Finest Foods"}},{"type":"Feature","geometry":{"type":"Point","coordinates":[-127.648,53.7267]},"properties":{"url:moreinfo":"http:\/\/foodtree.com\/sources\/71","address":"15438 Old Mission Rd., Oyama  , British Columbia, Canada","title":"Jobsthof Orchard"}},{"type":"Feature","geometry":{"type":"Point","coordinates":[-127.648,53.7267]},"properties":{"url:moreinfo":"http:\/\/foodtree.com\/sources\/69","address":"White Rock  , British Columbia, Canada","title":"Jane's Honey Bees"}},{"type":"Feature","geometry":{"type":"Point","coordinates":[-119.729,49.0781]},"properties":{"url:moreinfo":"http:\/\/foodtree.com\/sources\/61","address":"1050 Chopaka Rd.,, Cawston  , British Columbia, Canada","title":"Harvey's Orchards"}},{"type":"Feature","geometry":{"type":"Point","coordinates":[-123.114,49.2612]},"properties":{"url:moreinfo":"http:\/\/foodtree.com\/sources\/30","address":"Vancouver, British Columbia, Canada","title":"Carole's Country Kitchen"}},{"type":"Feature","geometry":{"type":"Point","coordinates":[-123.114,49.2612]},"properties":{"url:moreinfo":"http:\/\/foodtree.com\/sources\/36","address":"Vancouver , British Columbia, Canada","title":"Creperie La Boheme"}},{"type":"Feature","geometry":{"type":"Point","coordinates":[-125.217,50.1006]},"properties":{"url:moreinfo":"http:\/\/foodtree.com\/sources\/104","address":"Box 233, Heriot Bay, British Columbia, Canada","title":"Sawmill Bay Shelfish Company"}},{"type":"Feature","geometry":{"type":"Point","coordinates":[-122.18,49.0566]},"properties":{"url:moreinfo":"http:\/\/foodtree.com\/sources\/107","address":"Sumas River Bridge, Abbotsford  , British Columbia, Canada","title":"Skeeter Farm"}},{"type":"Feature","geometry":{"type":"Point","coordinates":[-123.15,49.276]},"properties":{"url:moreinfo":"http:\/\/foodtree.com\/sources\/96","address":"1118 Maple Street, Vancouver, British Columbia, Canada","title":"Rise Artisan Breads"}},{"type":"Feature","geometry":{"type":"Point","coordinates":[-123.114,49.2612]},"properties":{"url:moreinfo":"http:\/\/foodtree.com\/sources\/124","address":"Vancouver, British Columbia, Canada","title":"Thai Princess Enterprises LTD"}},{"type":"Feature","geometry":{"type":"Point","coordinates":[-123.116,49.3169]},"properties":{"url:moreinfo":"http:\/\/foodtree.com\/sources\/347","address":"107 Bowser Avenue, North Vancouver, British Columbia, Canada","title":"Granola King"}},{"type":"Feature","geometry":{"type":"Point","coordinates":[-122.228,49.017]},"properties":{"url:moreinfo":"http:\/\/foodtree.com\/sources\/49","address":"35805 Vye Road, Abbotsford  , British Columbia, Canada","title":"Gelderman Farms Ltd"}},{"type":"Feature","geometry":{"type":"Point","coordinates":[-123.134,49.2054]},"properties":{"url:moreinfo":"http:\/\/foodtree.com\/sources\/27","address":"8815 Selkirk St., Vancouver, British Columbia, Canada","title":"Blackberry Hill Farm"}},{"type":"Feature","geometry":{"type":"Point","coordinates":[-123.021,49.3035]},"properties":{"url:moreinfo":"http:\/\/foodtree.com\/sources\/34","address":"101 Riverside Drive West, North Vancouver, British Columbia, Canada","title":"Copper Pot Preserves"}},{"type":"Feature","geometry":{"type":"Point","coordinates":[-122.316,49.0089]},"properties":{"url:moreinfo":"http:\/\/foodtree.com\/sources\/18","address":"333 Gladwin Road, Abbotsford  , British Columbia, Canada","title":"Apple Barn Pumpkin Farm"}},{"type":"Feature","geometry":{"type":"Point","coordinates":[-119.751,49.1801]},"properties":{"url:moreinfo":"http:\/\/foodtree.com\/sources\/43","address":"2095 Ritchie Dr, Cawston  , British Columbia, Canada","title":"Forrest Nelson Certified Organic Produce"}},{"type":"Feature","geometry":{"type":"Point","coordinates":[-123.07,49.2444]},"properties":{"url:moreinfo":"http:\/\/foodtree.com\/sources\/72","address":"4529 Welwyn St, Vancouver , British Columbia, Canada","title":"Kalley Kandy"}},{"type":"Feature","geometry":{"type":"Point","coordinates":[-122.515,49.0249]},"properties":{"url:moreinfo":"http:\/\/foodtree.com\/sources\/330","address":"1374 - 256th St, Aldergrove, British Columbia, Canada","title":"Glorious Organics Co-op"}},{"type":"Feature","geometry":{"type":"Point","coordinates":[-122.581,49.0842]},"properties":{"url:moreinfo":"http:\/\/foodtree.com\/sources\/130","address":"4533 232 St., Langley  , British Columbia, Canada","title":"Twin Oaks Herb Farm"}},{"type":"Feature","geometry":{"type":"Point","coordinates":[-123.114,49.2612]},"properties":{"url:moreinfo":"http:\/\/foodtree.com\/sources\/113","address":"Vancouver, British Columbia, Canada","title":"Solstice Coffee Roasters"}},{"type":"Feature","geometry":{"type":"Point","coordinates":[-122.033,49.0167]},"properties":{"url:moreinfo":"http:\/\/foodtree.com\/sources\/106","address":"Columbia Valley, British Columbia, Canada","title":"Shalefield Organic Gardens"}},{"type":"Feature","geometry":{"type":"Point","coordinates":[-123.341,48.4224]},"properties":{"url:moreinfo":"http:\/\/foodtree.com\/sources\/67","address":"S2 C4 Green Rd, Pemberton , British Columbia, Canada","title":"Ice Cap Organics"}},{"type":"Feature","geometry":{"type":"Point","coordinates":[-122.303,49.1336]},"properties":{"url:moreinfo":"http:\/\/foodtree.com\/sources\/60","address":"Box 3022, Mission , British Columbia, Canada","title":"Hannah Brook Farm"}},{"type":"Feature","geometry":{"type":"Point","coordinates":[-119.634,49.5734]},"properties":{"url:moreinfo":"http:\/\/foodtree.com\/sources\/173","address":"6200 Miltimore Ave, Summerland  , British Columbia, Canada","title":"Golden West Farms"}},{"type":"Feature","geometry":{"type":"Point","coordinates":[-122.8,50.321]},"properties":{"url:moreinfo":"http:\/\/foodtree.com\/sources\/63","address":"S1 C6 Erickson Rd, Pemberton , British Columbia, Canada","title":"Helmer's Organic Farm"}},{"type":"Feature","geometry":{"type":"Point","coordinates":[-121.577,50.225]},"properties":{"url:moreinfo":"http:\/\/foodtree.com\/sources\/117","address":"PO Box 11, Lytton  , British Columbia, Canada","title":"Stein Mountain Farm"}},{"type":"Feature","geometry":{"type":"Point","coordinates":[-123.114,49.2612]},"properties":{"url:moreinfo":"http:\/\/foodtree.com\/sources\/97","address":"West Georgia Street, at Thurlow and Burrard, Vancouver, British Columbia, Canada","title":"Roaming Dragon"}},{"type":"Feature","geometry":{"type":"Point","coordinates":[-122.515,49.0249]},"properties":{"url:moreinfo":"http:\/\/foodtree.com\/sources\/86","address":"1374-256 Street, Aldergrove, British Columbia, Canada","title":"Organic Farm Connection, The"}},{"type":"Feature","geometry":{"type":"Point","coordinates":[-122.311,49.1337]},"properties":{"url:moreinfo":"http:\/\/foodtree.com\/sources\/131","address":"Mission, British Columbia, Canada","title":"Valley Gold Bee Company"}},{"type":"Feature","geometry":{"type":"Point","coordinates":[-122.082,49.0023]},"properties":{"url:moreinfo":"http:\/\/foodtree.com\/sources\/105","address":"41381 Henderson Road, Lindell Beach  , British Columbia, Canada","title":"Shalefield Gardens"}},{"type":"Feature","geometry":{"type":"Point","coordinates":[-127.648,53.7267]},"properties":{"url:moreinfo":"http:\/\/foodtree.com\/sources\/127","address":"1100 comox street, Roberts Creek, British Columbia, Canada","title":"The Flour Peddler"}},{"type":"Feature","geometry":{"type":"Point","coordinates":[-121.744,49.2344]},"properties":{"url:moreinfo":"http:\/\/foodtree.com\/sources\/93","address":"1611 Tranmer Rd, Agassiz  , British Columbia, Canada","title":"Poplar Grove Arbour"}},{"type":"Feature","geometry":{"type":"Point","coordinates":[-124.366,49.3296]},"properties":{"url:moreinfo":"http:\/\/foodtree.com\/sources\/76","address":"403 Lowry's Road, Parksville  , British Columbia, Canada","title":"Little Qualicum Cheeseworks"}},{"type":"Feature","geometry":{"type":"Point","coordinates":[-122.653,49.1128]},"properties":{"url:moreinfo":"http:\/\/foodtree.com\/sources\/13","address":"20560 Langley Bypass, Unit 309, Langley, British Columbia, Canada","title":"A Bread Affair"}},{"type":"Feature","geometry":{"type":"Point","coordinates":[-122.053,49.1305]},"properties":{"url:moreinfo":"http:\/\/foodtree.com\/sources\/47","address":"42385 Yale Rd W, Chilliwack , British Columbia, Canada","title":"Garden Back to Eden"}},{"type":"Feature","geometry":{"type":"Point","coordinates":[-122.139,52.1342]},"properties":{"url:moreinfo":"http:\/\/foodtree.com\/sources\/41","address":"Box 4281, Williams Lake  , British Columbia, Canada","title":"Empire Valley Beef"}},{"type":"Feature","geometry":{"type":"Point","coordinates":[-123.068,49.3196]},"properties":{"url:moreinfo":"http:\/\/foodtree.com\/sources\/17","address":"North Vancouver, British Columbia, Canada","title":"Anne's Preserves"}},{"type":"Feature","geometry":{"type":"Point","coordinates":[-122.139,49.0649]},"properties":{"url:moreinfo":"http:\/\/foodtree.com\/sources\/102","address":"3556 Marion Rd, Abbotsford  , British Columbia, Canada","title":"Sandhu Produce Growers"}},{"type":"Feature","geometry":{"type":"Point","coordinates":[-123.105,49.2473]},"properties":{"url:moreinfo":"http:\/\/foodtree.com\/sources\/85","address":"Ontario & 27th Avenue, Vancouver, British Columbia, Canada","title":"Off the Wagon"}},{"type":"Feature","geometry":{"type":"Point","coordinates":[-119.463,49.8178]},"properties":{"url:moreinfo":"http:\/\/foodtree.com\/sources\/118","address":"1085 Crawford Rd, Kelowna, British Columbia, Canada","title":"Stoney Paradise Produce"}},{"type":"Feature","geometry":{"type":"Point","coordinates":[-122.285,49.0568]},"properties":{"url:moreinfo":"http:\/\/foodtree.com\/sources\/89","address":"Abbotsford  , British Columbia, Canada","title":"Paul's Produce"}},{"type":"Feature","geometry":{"type":"Point","coordinates":[-123.087,49.2802]},"properties":{"url:moreinfo":"http:\/\/foodtree.com\/sources\/112","address":"399 Hawks Ave, Vancouver, British Columbia, Canada","title":"SOLEFood"}},{"type":"Feature","geometry":{"type":"Point","coordinates":[-123.099,49.2744]},"properties":{"url:moreinfo":"http:\/\/foodtree.com\/sources\/1073","address":"1100 Station Street, Vancouver, British Columbia, Canada","title":"Icy Freshpops"}},{"type":"Feature","geometry":{"type":"Point","coordinates":[-122.517,49.1077]},"properties":{"url:moreinfo":"http:\/\/foodtree.com\/sources\/58","address":"25456 58 Ave, Aldergrove, British Columbia, Canada","title":"Goldwing"}},{"type":"Feature","geometry":{"type":"Point","coordinates":[-123.114,49.2612]},"properties":{"url:moreinfo":"http:\/\/foodtree.com\/sources\/56","address":"Vancouver, British Columbia, Canada","title":"Gogo Java Ltd."}},{"type":"Feature","geometry":{"type":"Point","coordinates":[-122.45,49.147]},"properties":{"url:moreinfo":"http:\/\/foodtree.com\/sources\/51","address":"28182 Marsh McCormick Road, Abbotsford  , British Columbia, Canada","title":"Glen Valley Farms"}},{"type":"Feature","geometry":{"type":"Point","coordinates":[-122.471,49.058]},"properties":{"url:moreinfo":"http:\/\/foodtree.com\/sources\/75","address":"Victoria Dr & E 15 Ave, Aldergrove, British Columbia, Canada","title":"Langley Organic Growers"}},{"type":"Feature","geometry":{"type":"Point","coordinates":[-119.757,49.1894]},"properties":{"url:moreinfo":"http:\/\/foodtree.com\/sources\/73","address":"2200 Ferko Rd., Cawston  , British Columbia, Canada","title":"Klippers Organic Acres"}},{"type":"Feature","geometry":{"type":"Point","coordinates":[-123.162,49.263]},"properties":{"url:moreinfo":"http:\/\/foodtree.com\/sources\/28","address":"W 10 Ave & Larch St, Vancouver  , British Columbia, Canada","title":"Blue Comet Seafoods"}},{"type":"Feature","geometry":{"type":"Point","coordinates":[-123.11,49.063]},"properties":{"url:moreinfo":"http:\/\/foodtree.com\/sources\/37","address":"3310 41B St, Delta  , British Columbia, Canada","title":"Cropthorne Farm"}},{"type":"Feature","geometry":{"type":"Point","coordinates":[-122.862,49.1212]},"properties":{"url:moreinfo":"http:\/\/foodtree.com\/sources\/31","address":"6524 130th St, Surrey, British Columbia, Canada","title":"Celyddon Farm"}},{"type":"Feature","geometry":{"type":"Point","coordinates":[-121.86,49.1472]},"properties":{"url:moreinfo":"http:\/\/foodtree.com\/sources\/44","address":"49350 Prairie Central rd, Chilliwack , British Columbia, Canada","title":"Forstbauer Family Natural Food Farm"}},{"type":"Feature","geometry":{"type":"Point","coordinates":[-122.974,49.2489]},"properties":{"url:moreinfo":"http:\/\/foodtree.com\/sources\/82","address":"Burnaby, British Columbia, Canada","title":"Momma Nellie's Goodies"}},{"type":"Feature","geometry":{"type":"Point","coordinates":[-123.04,50.0879]},"properties":{"url:moreinfo":"http:\/\/foodtree.com\/sources\/170","address":"1-1040 Millar Creek Road, Whistler, British Columbia, Canada","title":"Purebread"}},{"type":"Feature","geometry":{"type":"Point","coordinates":[-119.762,49.1759]},"properties":{"url:moreinfo":"http:\/\/foodtree.com\/sources\/87","address":"440 VLA Rd, Cawston  , British Columbia, Canada","title":"Osprey Organic Farm"}},{"type":"Feature","geometry":{"type":"Point","coordinates":[-119.594,49.5976]},"properties":{"url:moreinfo":"http:\/\/foodtree.com\/sources\/46","address":"RR#1, Site 16, Comp. 17, Naramata  , British Columbia, Canada","title":"Fruit Guy, The"}},{"type":"Feature","geometry":{"type":"Point","coordinates":[-127.648,53.7267]},"properties":{"url:moreinfo":"http:\/\/foodtree.com\/sources\/78","address":"790 McKenzie Road, Abbotsford  , British Columbia, Canada","title":"Maan Farms"}},{"type":"Feature","geometry":{"type":"Point","coordinates":[-119.764,49.1962]},"properties":{"url:moreinfo":"http:\/\/foodtree.com\/sources\/65","address":"2305 Ferko Rd, Cawston  , British Columbia, Canada","title":"Honest Food Farm"}},{"type":"Feature","geometry":{"type":"Point","coordinates":[-123.162,49.263]},"properties":{"url:moreinfo":"http:\/\/foodtree.com\/sources\/2","address":"W 10 Ave & Larch St, Vancouver, British Columbia, Canada","title":"Kitsilano Farmers Market"}}],"properties":{"title":"Kitsilano Farmers Market - Connections"}}