{"type":"FeatureCollection","features":[{"type":"Feature","geometry":{"type":"Point","coordinates":[-123.06955,49.274263]},"properties":{"url:moreinfo":"http:\/\/foodtree.com\/sources\/12811","address":"Unit 2, 1163 Commercial Drive, Vancouver, BC, V5L 3X3","title":"Vancouver Farmers Markets"}},{"type":"Feature","geometry":{"type":"Point","coordinates":[-123.093002,49.2757]},"properties":{"url:moreinfo":"http:\/\/foodtree.com\/sources\/83","address":"618 Malkin Avenue, Vancouver  , British Columbia, Canada","title":"My Urban Farm"}},{"type":"Feature","geometry":{"type":"Point","coordinates":[-127.648003,53.7267]},"properties":{"url:moreinfo":"http:\/\/foodtree.com\/sources\/127","address":"1100 comox street, Roberts Creek, British Columbia, Canada","title":"The Flour Peddler"}},{"type":"Feature","geometry":{"type":"Point","coordinates":[-119.728996,49.078098]},"properties":{"url:moreinfo":"http:\/\/foodtree.com\/sources\/61","address":"1050 Chopaka Rd.,, Cawston  , British Columbia, Canada","title":"Harvey's Orchards"}},{"type":"Feature","geometry":{"type":"Point","coordinates":[-123.709999,49.454498]},"properties":{"url:moreinfo":"http:\/\/foodtree.com\/sources\/128","address":"2158 Field Road , Sechelt, British Columbia, Canada","title":"The Promised Land Farm"}},{"type":"Feature","geometry":{"type":"Point","coordinates":[-122.727997,49.0746]},"properties":{"url:moreinfo":"http:\/\/foodtree.com\/sources\/115","address":"17885 40th Ave., Surrey  , British Columbia, Canada","title":"Southern Acres Nursery and Farm"}},{"type":"Feature","geometry":{"type":"Point","coordinates":[-123.113998,49.2612]},"properties":{"url:moreinfo":"http:\/\/foodtree.com\/sources\/124","address":"Vancouver, British Columbia, Canada","title":"Thai Princess Enterprises LTD"}},{"type":"Feature","geometry":{"type":"Point","coordinates":[-119.462997,49.817799]},"properties":{"url:moreinfo":"http:\/\/foodtree.com\/sources\/118","address":"1085 Crawford Rd, Kelowna, British Columbia, Canada","title":"Stoney Paradise Produce"}},{"type":"Feature","geometry":{"type":"Point","coordinates":[-122.537003,49.030201]},"properties":{"url:moreinfo":"http:\/\/foodtree.com\/sources\/114","address":"1569 248 Street, South Langley, British Columbia, Canada","title":"South Grove Nursery"}},{"type":"Feature","geometry":{"type":"Point","coordinates":[-123.017998,49.200199]},"properties":{"url:moreinfo":"http:\/\/foodtree.com\/sources\/122","address":"8980 Fraserwood Court, Burnaby, British Columbia, Canada","title":"Tarragon Foods"}},{"type":"Feature","geometry":{"type":"Point","coordinates":[-123.113998,49.2612]},"properties":{"url:moreinfo":"http:\/\/foodtree.com\/sources\/32","address":"Vancouver, British Columbia, Canada","title":"Chili Tank"}},{"type":"Feature","geometry":{"type":"Point","coordinates":[-121.860001,49.147202]},"properties":{"url:moreinfo":"http:\/\/foodtree.com\/sources\/44","address":"49350 Prairie Central rd, Chilliwack , British Columbia, Canada","title":"Forstbauer Family Natural Food Farm"}},{"type":"Feature","geometry":{"type":"Point","coordinates":[-121.577003,50.224998]},"properties":{"url:moreinfo":"http:\/\/foodtree.com\/sources\/91","address":"Lytton, British Columbia, Canada","title":"Planting Seeds Project"}},{"type":"Feature","geometry":{"type":"Point","coordinates":[-123.150002,49.276001]},"properties":{"url:moreinfo":"http:\/\/foodtree.com\/sources\/96","address":"1118 Maple Street, Vancouver, British Columbia, Canada","title":"Rise Artisan Breads"}},{"type":"Feature","geometry":{"type":"Point","coordinates":[-122.514999,49.024899]},"properties":{"url:moreinfo":"http:\/\/foodtree.com\/sources\/330","address":"1374 - 256th St, Aldergrove, British Columbia, Canada","title":"Glorious Organics Co-op"}},{"type":"Feature","geometry":{"type":"Point","coordinates":[-122.285004,49.056801]},"properties":{"url:moreinfo":"http:\/\/foodtree.com\/sources\/89","address":"Abbotsford  , British Columbia, Canada","title":"Paul's Produce"}},{"type":"Feature","geometry":{"type":"Point","coordinates":[-123.113998,49.2612]},"properties":{"url:moreinfo":"http:\/\/foodtree.com\/sources\/126","address":"Vancouver , British Columbia, Canada","title":"The Bean Buggy"}},{"type":"Feature","geometry":{"type":"Point","coordinates":[-122.503998,49.118599]},"properties":{"url:moreinfo":"http:\/\/foodtree.com\/sources\/53","address":"25922 64 Ave, Aldergrove, British Columbia, Canada","title":"Gloucester Green Nursery"}},{"type":"Feature","geometry":{"type":"Point","coordinates":[-123.113998,49.2612]},"properties":{"url:moreinfo":"http:\/\/foodtree.com\/sources\/36","address":"Vancouver , British Columbia, Canada","title":"Creperie La Boheme"}},{"type":"Feature","geometry":{"type":"Point","coordinates":[-127.648003,53.7267]},"properties":{"url:moreinfo":"http:\/\/foodtree.com\/sources\/69","address":"White Rock  , British Columbia, Canada","title":"Jane's Honey Bees"}},{"type":"Feature","geometry":{"type":"Point","coordinates":[-122.032997,49.016701]},"properties":{"url:moreinfo":"http:\/\/foodtree.com\/sources\/106","address":"Columbia Valley, British Columbia, Canada","title":"Shalefield Organic Gardens"}},{"type":"Feature","geometry":{"type":"Point","coordinates":[-122.581001,49.084202]},"properties":{"url:moreinfo":"http:\/\/foodtree.com\/sources\/130","address":"4533 232 St., Langley  , British Columbia, Canada","title":"Twin Oaks Herb Farm"}},{"type":"Feature","geometry":{"type":"Point","coordinates":[-125.217003,50.100601]},"properties":{"url:moreinfo":"http:\/\/foodtree.com\/sources\/104","address":"Box 233, Heriot Bay, British Columbia, Canada","title":"Sawmill Bay Shellfish Company"}},{"type":"Feature","geometry":{"type":"Point","coordinates":[-123.113998,49.2612]},"properties":{"url:moreinfo":"http:\/\/foodtree.com\/sources\/113","address":"Vancouver, British Columbia, Canada","title":"Solstice Coffee Roasters"}},{"type":"Feature","geometry":{"type":"Point","coordinates":[-122.778999,49.0984]},"properties":{"url:moreinfo":"http:\/\/foodtree.com\/sources\/29","address":"5276 - 160th Street, Cloverdale, Surrey, British Columbia, Canada","title":"Capella Farm"}},{"type":"Feature","geometry":{"type":"Point","coordinates":[-122.367996,49.085999]},"properties":{"url:moreinfo":"http:\/\/foodtree.com\/sources\/55","address":"30854 Olund Road, Abbotsford  , British Columbia, Canada","title":"Goat's Pride Dairy"}},{"type":"Feature","geometry":{"type":"Point","coordinates":[-122.338997,49.049301]},"properties":{"url:moreinfo":"http:\/\/foodtree.com\/sources\/60","address":"Box 3022, Mission , British Columbia, Canada, V2V 4J3","title":"Hannah Brook Farm"}},{"type":"Feature","geometry":{"type":"Point","coordinates":[-122.053001,49.082001]},"properties":{"url:moreinfo":"http:\/\/foodtree.com\/sources\/138","address":"42312 Yarrow Central Road, Chilliwack , British Columbia, Canada","title":"Yarrow Eco Village Farm"}},{"type":"Feature","geometry":{"type":"Point","coordinates":[-123.086998,49.280201]},"properties":{"url:moreinfo":"http:\/\/foodtree.com\/sources\/112","address":"399 Hawks Ave, Vancouver, British Columbia, Canada","title":"SOLEFood"}},{"type":"Feature","geometry":{"type":"Point","coordinates":[-123.021004,49.303501]},"properties":{"url:moreinfo":"http:\/\/foodtree.com\/sources\/34","address":"101 Riverside Drive West, North Vancouver, British Columbia, Canada","title":"Copper Pot Preserves"}},{"type":"Feature","geometry":{"type":"Point","coordinates":[-121.577003,50.224998]},"properties":{"url:moreinfo":"http:\/\/foodtree.com\/sources\/103","address":"Victoria Dr & E 15 Ave, Lytton  , British Columbia, Canada","title":"Sapo Bravo"}},{"type":"Feature","geometry":{"type":"Point","coordinates":[-127.648003,53.7267]},"properties":{"url:moreinfo":"http:\/\/foodtree.com\/sources\/71","address":"15438 Old Mission Rd., Oyama  , British Columbia, Canada","title":"Jobsthof Orchard"}},{"type":"Feature","geometry":{"type":"Point","coordinates":[-121.820999,49.209]},"properties":{"url:moreinfo":"http:\/\/foodtree.com\/sources\/26","address":"11380 Gill Rd, Rosedale  , British Columbia, Canada","title":"Berry Tyme"}},{"type":"Feature","geometry":{"type":"Point","coordinates":[-122.621002,49.223202]},"properties":{"url:moreinfo":"http:\/\/foodtree.com\/sources\/133","address":"21651 Mountainview Crescent, Maple Ridge  , British Columbia, Canada","title":"Vlad's Apiary"}},{"type":"Feature","geometry":{"type":"Point","coordinates":[-123.162003,49.263]},"properties":{"url:moreinfo":"http:\/\/foodtree.com\/sources\/28","address":"W 10 Ave & Larch St, Vancouver  , British Columbia, Canada","title":"Blue Comet Seafoods"}},{"type":"Feature","geometry":{"type":"Point","coordinates":[-122.139,49.064899]},"properties":{"url:moreinfo":"http:\/\/foodtree.com\/sources\/102","address":"3556 Marion Rd, Abbotsford  , British Columbia, Canada","title":"Sandhu Produce Growers"}},{"type":"Feature","geometry":{"type":"Point","coordinates":[-122.316002,49.0089]},"properties":{"url:moreinfo":"http:\/\/foodtree.com\/sources\/18","address":"333 Gladwin Road, Abbotsford  , British Columbia, Canada","title":"Apple Barn Pumpkin Farm"}},{"type":"Feature","geometry":{"type":"Point","coordinates":[-122.227997,49.016998]},"properties":{"url:moreinfo":"http:\/\/foodtree.com\/sources\/49","address":"35805 Vye Road, Abbotsford  , British Columbia, Canada","title":"Gelderman Farms Ltd"}},{"type":"Feature","geometry":{"type":"Point","coordinates":[-122.082001,49.0023]},"properties":{"url:moreinfo":"http:\/\/foodtree.com\/sources\/105","address":"41381 Henderson Road, Lindell Beach  , British Columbia, Canada","title":"Shalefield Gardens"}},{"type":"Feature","geometry":{"type":"Point","coordinates":[-123.134003,49.205399]},"properties":{"url:moreinfo":"http:\/\/foodtree.com\/sources\/27","address":"8815 Selkirk St., Vancouver, British Columbia, Canada","title":"Blackberry Hill Farm"}},{"type":"Feature","geometry":{"type":"Point","coordinates":[-122.694,49.269501]},"properties":{"url:moreinfo":"http:\/\/foodtree.com\/sources\/62","address":"19049 McQuarrie Road, Pitt Meadows  , British Columbia, Canada","title":"Heimat Farm"}},{"type":"Feature","geometry":{"type":"Point","coordinates":[-123.098999,49.274399]},"properties":{"url:moreinfo":"http:\/\/foodtree.com\/sources\/1073","address":"1100 Station Street, Vancouver, British Columbia, Canada, V6A 2X7","title":"Icy Freshpops"}},{"type":"Feature","geometry":{"type":"Point","coordinates":[-123.156998,49.263699]},"properties":{"url:moreinfo":"http:\/\/foodtree.com\/sources\/172","address":"2280 West Broadway, Vancouver, British Columbia, Canada","title":"Edible Flours"}},{"type":"Feature","geometry":{"type":"Point","coordinates":[-123.113998,49.2612]},"properties":{"url:moreinfo":"http:\/\/foodtree.com\/sources\/97","address":"West Georgia Street, at Thurlow and Burrard, Vancouver, British Columbia, Canada","title":"Roaming Dragon"}},{"type":"Feature","geometry":{"type":"Point","coordinates":[-122.497002,49.114899]},"properties":{"url:moreinfo":"http:\/\/foodtree.com\/sources\/116","address":"26227 62nd Ave, Aldergrove, British Columbia, Canada","title":"Richmond Specialty Mushroom Farms Ltd"}},{"type":"Feature","geometry":{"type":"Point","coordinates":[-122.875,49.0541]},"properties":{"url:moreinfo":"http:\/\/foodtree.com\/sources\/45","address":"12555 Crescent Rd, Surrey  , British Columbia, Canada, V4A 2V3","title":"Fresh Off The Boat"}},{"type":"Feature","geometry":{"type":"Point","coordinates":[-121.744003,49.234402]},"properties":{"url:moreinfo":"http:\/\/foodtree.com\/sources\/93","address":"1611 Tranmer Rd, Agassiz  , British Columbia, Canada","title":"Poplar Grove Arbour"}},{"type":"Feature","geometry":{"type":"Point","coordinates":[-122.514999,49.024899]},"properties":{"url:moreinfo":"http:\/\/foodtree.com\/sources\/86","address":"1374-256 Street, Aldergrove, British Columbia, Canada","title":"Organic Farm Connection, The"}},{"type":"Feature","geometry":{"type":"Point","coordinates":[-121.577003,50.224998]},"properties":{"url:moreinfo":"http:\/\/foodtree.com\/sources\/117","address":"PO Box 11, Lytton  , British Columbia, Canada","title":"Stein Mountain Farm"}},{"type":"Feature","geometry":{"type":"Point","coordinates":[-122.973999,49.248901]},"properties":{"url:moreinfo":"http:\/\/foodtree.com\/sources\/25","address":"Burnaby, British Columbia, Canada","title":"BeerBrats Sausage"}},{"type":"Feature","geometry":{"type":"Point","coordinates":[-122.18,49.056599]},"properties":{"url:moreinfo":"http:\/\/foodtree.com\/sources\/107","address":"Sumas River Bridge, Abbotsford  , British Columbia, Canada","title":"Skeeter Farm"}},{"type":"Feature","geometry":{"type":"Point","coordinates":[-119.634003,49.573399]},"properties":{"url:moreinfo":"http:\/\/foodtree.com\/sources\/173","address":"6200 Miltimore Ave, Summerland  , British Columbia, Canada","title":"Golden West Farms"}},{"type":"Feature","geometry":{"type":"Point","coordinates":[-119.551003,49.1828]},"properties":{"url:moreinfo":"http:\/\/foodtree.com\/sources\/64","address":"Oliver  , British Columbia, Canada","title":"Hill Top Farm"}},{"type":"Feature","geometry":{"type":"Point","coordinates":[-122.800003,50.320999]},"properties":{"url:moreinfo":"http:\/\/foodtree.com\/sources\/63","address":"S1 C6 Erickson Rd, Pemberton , British Columbia, Canada","title":"Helmer's Organic Farm"}},{"type":"Feature","geometry":{"type":"Point","coordinates":[-123.113998,49.2612]},"properties":{"url:moreinfo":"http:\/\/foodtree.com\/sources\/38","address":"Vancouver, British Columbia, Canada","title":"Dessert-First"}},{"type":"Feature","geometry":{"type":"Point","coordinates":[-119.728996,49.078098]},"properties":{"url:moreinfo":"http:\/\/foodtree.com\/sources\/111","address":"1050 Chopaka Rd, Cawston  , British Columbia, Canada","title":"Snowy Mountain Organics"}},{"type":"Feature","geometry":{"type":"Point","coordinates":[-122.956001,50.117199]},"properties":{"url:moreinfo":"http:\/\/foodtree.com\/sources\/136","address":"36-4314 Main St RR 4, Whistler, Vancouver, British Columbia, Canada","title":"Whistler Wood Fired Pizza Company"}},{"type":"Feature","geometry":{"type":"Point","coordinates":[-122.248001,49.208599]},"properties":{"url:moreinfo":"http:\/\/foodtree.com\/sources\/23","address":"11424 Farms Road, Mission , British Columbia, Canada","title":"Beckmann Berry Farm"}},{"type":"Feature","geometry":{"type":"Point","coordinates":[-122.973999,49.248901]},"properties":{"url:moreinfo":"http:\/\/foodtree.com\/sources\/15","address":"Burnaby, British Columbia, Canada","title":"Albert's Herbs and Nursery"}},{"type":"Feature","geometry":{"type":"Point","coordinates":[-127.648003,53.7267]},"properties":{"url:moreinfo":"http:\/\/foodtree.com\/sources\/168","address":"British Columbia, Canada","title":"Golda's Finest Foods"}},{"type":"Feature","geometry":{"type":"Point","coordinates":[-119.762001,49.1759]},"properties":{"url:moreinfo":"http:\/\/foodtree.com\/sources\/87","address":"440 VLA Rd, Cawston  , British Columbia, Canada","title":"Osprey Organic Farm"}},{"type":"Feature","geometry":{"type":"Point","coordinates":[-123.113998,49.2612]},"properties":{"url:moreinfo":"http:\/\/foodtree.com\/sources\/80","address":"Vancouver , British Columbia, Canada","title":"Maples Sugar Shack"}},{"type":"Feature","geometry":{"type":"Point","coordinates":[-122.942001,49.224998]},"properties":{"url:moreinfo":"http:\/\/foodtree.com\/sources\/84","address":"4949 Canada Way, Richmond , British Columbia, Canada","title":"Natural Village"}},{"type":"Feature","geometry":{"type":"Point","coordinates":[-122.007004,49.119202]},"properties":{"url:moreinfo":"http:\/\/foodtree.com\/sources\/77","address":"5685 Lickman Road, Sardis  , British Columbia, Canada","title":"Lowland Herb Farm"}},{"type":"Feature","geometry":{"type":"Point","coordinates":[-123.115997,49.316898]},"properties":{"url:moreinfo":"http:\/\/foodtree.com\/sources\/347","address":"107 Bowser Avenue, North Vancouver, British Columbia, Canada","title":"Granola King"}},{"type":"Feature","geometry":{"type":"Point","coordinates":[-122.471001,49.057999]},"properties":{"url:moreinfo":"http:\/\/foodtree.com\/sources\/75","address":"Victoria Dr & E 15 Ave, Aldergrove, British Columbia, Canada","title":"Langley Organic Growers"}},{"type":"Feature","geometry":{"type":"Point","coordinates":[-123.113998,49.2612]},"properties":{"url:moreinfo":"http:\/\/foodtree.com\/sources\/30","address":"Vancouver, British Columbia, Canada","title":"Carole's Country Kitchen"}},{"type":"Feature","geometry":{"type":"Point","coordinates":[-122.957001,49.087502]},"properties":{"url:moreinfo":"http:\/\/foodtree.com\/sources\/31","address":"3885 - 96th Street Delta, Delta, British Columbia, Canada, V4K 3N3","title":"Celyddon Farm"}},{"type":"Feature","geometry":{"type":"Point","coordinates":[-123.07,49.2444]},"properties":{"url:moreinfo":"http:\/\/foodtree.com\/sources\/72","address":"4529 Welwyn St, Vancouver , British Columbia, Canada","title":"Kalley Kandy"}},{"type":"Feature","geometry":{"type":"Point","coordinates":[-124.365997,49.329601]},"properties":{"url:moreinfo":"http:\/\/foodtree.com\/sources\/76","address":"403 Lowry's Road, Parksville  , British Columbia, Canada","title":"Little Qualicum Cheeseworks"}},{"type":"Feature","geometry":{"type":"Point","coordinates":[-122.143997,52.127998]},"properties":{"url:moreinfo":"http:\/\/foodtree.com\/sources\/41","address":"Box 4281, Williams Lake  , British Columbia, Canada","title":"Empire Valley Premium Beef"}},{"type":"Feature","geometry":{"type":"Point","coordinates":[-123.110001,49.063999]},"properties":{"url:moreinfo":"http:\/\/foodtree.com\/sources\/50","address":"3330 41B Street, Delta, British Columbia, Canada","title":"Gipaanda Greenhouses"}},{"type":"Feature","geometry":{"type":"Point","coordinates":[-123.113998,49.2612]},"properties":{"url:moreinfo":"http:\/\/foodtree.com\/sources\/110","address":"Vancouver, British Columbia, Canada","title":"Small Pleasures"}},{"type":"Feature","geometry":{"type":"Point","coordinates":[-122.653,49.112801]},"properties":{"url:moreinfo":"http:\/\/foodtree.com\/sources\/13","address":"20560 Langley Bypass, Unit 309, Langley, British Columbia, Canada","title":"A Bread Affair"}},{"type":"Feature","geometry":{"type":"Point","coordinates":[-122.337997,49.014198]},"properties":{"url:moreinfo":"http:\/\/foodtree.com\/sources\/6023","address":"611 Clearbrook Road, Abbotsford, British Columbia, Canada, V2T 5X2","title":"Reimer's Corn Patch"}},{"type":"Feature","geometry":{"type":"Point","coordinates":[-122.068001,49.076]},"properties":{"url:moreinfo":"http:\/\/foodtree.com\/sources\/109","address":"4170 Stewart Rd., Yarrow, British Columbia, Canada","title":"Sleeping Mountain Organic Farm"}},{"type":"Feature","geometry":{"type":"Point","coordinates":[-122.516998,49.1077]},"properties":{"url:moreinfo":"http:\/\/foodtree.com\/sources\/58","address":"25456 58 Ave, Aldergrove, British Columbia, Canada","title":"Goldwing"}},{"type":"Feature","geometry":{"type":"Point","coordinates":[-123.113998,49.2612]},"properties":{"url:moreinfo":"http:\/\/foodtree.com\/sources\/22","address":"Vancouver, British Columbia, Canada","title":"Bean Boy Creations"}},{"type":"Feature","geometry":{"type":"Point","coordinates":[-123.181,49.334599]},"properties":{"url:moreinfo":"http:\/\/foodtree.com\/sources\/39","address":"2454 Marine Dr, West Vancouver, British Columbia, Canada","title":"Dundarave Olive Company"}},{"type":"Feature","geometry":{"type":"Point","coordinates":[-122.746002,49.153801]},"properties":{"url:moreinfo":"http:\/\/foodtree.com\/sources\/371","address":"8390 172 St, Surrey, British Columbia, Canada","title":"Rondriso Farms"}},{"type":"Feature","geometry":{"type":"Point","coordinates":[-119.757004,49.1894]},"properties":{"url:moreinfo":"http:\/\/foodtree.com\/sources\/73","address":"2200 Ferko Rd., Cawston  , British Columbia, Canada, V0X 1C2","title":"Klippers Organic Acres"}},{"type":"Feature","geometry":{"type":"Point","coordinates":[-122.917,49.210098]},"properties":{"url:moreinfo":"http:\/\/foodtree.com\/sources\/20","address":"W 10 Ave & Larch St, New Westminster  , British Columbia, Canada","title":"Arila Apiary"}},{"type":"Feature","geometry":{"type":"Point","coordinates":[-123.341003,48.422401]},"properties":{"url:moreinfo":"http:\/\/foodtree.com\/sources\/67","address":"S2 C4 Green Rd, Pemberton , British Columbia, Canada","title":"Ice Cap Organics"}},{"type":"Feature","geometry":{"type":"Point","coordinates":[-122.273003,49.089298]},"properties":{"url:moreinfo":"http:\/\/foodtree.com\/sources\/98","address":"34205 Townshipline Road , Abbotsford, British Columbia, Canada","title":"Rockweld Farm"}},{"type":"Feature","geometry":{"type":"Point","coordinates":[-122.585999,49.162701]},"properties":{"url:moreinfo":"http:\/\/foodtree.com\/sources\/33","address":"200th Street, Fort Langley, British Columbia, Canada","title":"Christina's Garden"}},{"type":"Feature","geometry":{"type":"Point","coordinates":[-123.061996,49.256302]},"properties":{"url:moreinfo":"http:\/\/foodtree.com\/sources\/1","address":"Trout Lake, North end of John Hendry Park, Vancouver, British Columbia, Canada","title":"Trout Lake Farmers Market"}}],"properties":{"title":"Trout Lake Farmers Market"}}