{"type":"FeatureCollection","features":[{"type":"Feature","geometry":{"type":"Point","coordinates":[-123.06955,49.274263]},"properties":{"url:moreinfo":"http:\/\/foodtree.com\/sources\/12811","address":"Unit 2, 1163 Commercial Drive, Vancouver, BC, V5L 3X3","title":"Vancouver Farmers Markets"}},{"type":"Feature","geometry":{"type":"Point","coordinates":[-119.757004,49.1894]},"properties":{"url:moreinfo":"http:\/\/foodtree.com\/sources\/73","address":"2200 Ferko Rd., Cawston  , British Columbia, Canada, V0X 1C2","title":"Klippers Organic Acres"}},{"type":"Feature","geometry":{"type":"Point","coordinates":[-123.040001,50.087898]},"properties":{"url:moreinfo":"http:\/\/foodtree.com\/sources\/170","address":"1-1040 Millar Creek Road, Whistler, British Columbia, Canada","title":"Purebread"}},{"type":"Feature","geometry":{"type":"Point","coordinates":[-122.139,49.064899]},"properties":{"url:moreinfo":"http:\/\/foodtree.com\/sources\/102","address":"3556 Marion Rd, Abbotsford  , British Columbia, Canada","title":"Sandhu Produce Growers"}},{"type":"Feature","geometry":{"type":"Point","coordinates":[-123.181,49.334599]},"properties":{"url:moreinfo":"http:\/\/foodtree.com\/sources\/39","address":"2454 Marine Dr, West Vancouver, British Columbia, Canada","title":"Dundarave Olive Company"}},{"type":"Feature","geometry":{"type":"Point","coordinates":[-122.471001,49.057999]},"properties":{"url:moreinfo":"http:\/\/foodtree.com\/sources\/75","address":"Victoria Dr & E 15 Ave, Aldergrove, British Columbia, Canada","title":"Langley Organic Growers"}},{"type":"Feature","geometry":{"type":"Point","coordinates":[-123.113998,49.2612]},"properties":{"url:moreinfo":"http:\/\/foodtree.com\/sources\/126","address":"Vancouver , British Columbia, Canada","title":"The Bean Buggy"}},{"type":"Feature","geometry":{"type":"Point","coordinates":[-123.139999,49.2714]},"properties":{"url:moreinfo":"http:\/\/foodtree.com\/sources\/108","address":"1505 West 1st Ave, Vancouver  , British Columbia, Canada","title":"Skipper Otto's Wild British Columbia Salmon"}},{"type":"Feature","geometry":{"type":"Point","coordinates":[-123.110001,49.063]},"properties":{"url:moreinfo":"http:\/\/foodtree.com\/sources\/37","address":"3310 41B St, Delta  , British Columbia, Canada","title":"Cropthorne Farm"}},{"type":"Feature","geometry":{"type":"Point","coordinates":[-123.134003,49.205399]},"properties":{"url:moreinfo":"http:\/\/foodtree.com\/sources\/27","address":"8815 Selkirk St., Vancouver, British Columbia, Canada","title":"Blackberry Hill Farm"}},{"type":"Feature","geometry":{"type":"Point","coordinates":[-121.744003,49.234402]},"properties":{"url:moreinfo":"http:\/\/foodtree.com\/sources\/93","address":"1611 Tranmer Rd, Agassiz  , British Columbia, Canada","title":"Poplar Grove Arbour"}},{"type":"Feature","geometry":{"type":"Point","coordinates":[-123.140999,49.208199]},"properties":{"url:moreinfo":"http:\/\/foodtree.com\/sources\/135","address":"Suite 118-8623 Granville Street, Vancouver, British Columbia, Canada","title":"West Best Coffee Distribution Corp"}},{"type":"Feature","geometry":{"type":"Point","coordinates":[-123.110001,49.279598]},"properties":{"url:moreinfo":"http:\/\/foodtree.com\/sources\/40","address":"Stadium Skytrain Station, Vancouver, British Columbia, Canada","title":"Eli's Serious Sausage"}},{"type":"Feature","geometry":{"type":"Point","coordinates":[-122.957001,49.087502]},"properties":{"url:moreinfo":"http:\/\/foodtree.com\/sources\/31","address":"3885 - 96th Street Delta, Delta, British Columbia, Canada, V4K 3N3","title":"Celyddon Farm"}},{"type":"Feature","geometry":{"type":"Point","coordinates":[-122.653,49.112801]},"properties":{"url:moreinfo":"http:\/\/foodtree.com\/sources\/13","address":"20560 Langley Bypass, Unit 309, Langley, British Columbia, Canada","title":"A Bread Affair"}},{"type":"Feature","geometry":{"type":"Point","coordinates":[-122.18,49.056599]},"properties":{"url:moreinfo":"http:\/\/foodtree.com\/sources\/107","address":"Sumas River Bridge, Abbotsford  , British Columbia, Canada","title":"Skeeter Farm"}},{"type":"Feature","geometry":{"type":"Point","coordinates":[-122.032997,49.016701]},"properties":{"url:moreinfo":"http:\/\/foodtree.com\/sources\/106","address":"Columbia Valley, British Columbia, Canada","title":"Shalefield Organic Gardens"}},{"type":"Feature","geometry":{"type":"Point","coordinates":[-122.973999,49.248901]},"properties":{"url:moreinfo":"http:\/\/foodtree.com\/sources\/82","address":"Burnaby, British Columbia, Canada","title":"Momma Nellie's Goodies"}},{"type":"Feature","geometry":{"type":"Point","coordinates":[-122.285004,49.056801]},"properties":{"url:moreinfo":"http:\/\/foodtree.com\/sources\/89","address":"Abbotsford  , British Columbia, Canada","title":"Paul's Produce"}},{"type":"Feature","geometry":{"type":"Point","coordinates":[-122.516998,49.1077]},"properties":{"url:moreinfo":"http:\/\/foodtree.com\/sources\/58","address":"25456 58 Ave, Aldergrove, British Columbia, Canada","title":"Goldwing"}},{"type":"Feature","geometry":{"type":"Point","coordinates":[-122.537003,49.097301]},"properties":{"url:moreinfo":"http:\/\/foodtree.com\/sources\/66","address":"5268-248th Street, Aldergrove, British Columbia, Canada","title":"Hui's Farm"}},{"type":"Feature","geometry":{"type":"Point","coordinates":[-122.095001,49.0924]},"properties":{"url:moreinfo":"http:\/\/foodtree.com\/sources\/21","address":"5115 Tolmie Rd, Abbotsford, British Columbia, Canada","title":"Arkesteyn-Vogler Family Farm"}},{"type":"Feature","geometry":{"type":"Point","coordinates":[-122.598999,49.219101]},"properties":{"url:moreinfo":"http:\/\/foodtree.com\/sources\/121","address":"Maple Ridge  , British Columbia, Canada","title":"T & J Bison and Grains"}},{"type":"Feature","geometry":{"type":"Point","coordinates":[-122.082001,49.0023]},"properties":{"url:moreinfo":"http:\/\/foodtree.com\/sources\/105","address":"41381 Henderson Road, Lindell Beach  , British Columbia, Canada","title":"Shalefield Gardens"}},{"type":"Feature","geometry":{"type":"Point","coordinates":[-123.341003,48.422401]},"properties":{"url:moreinfo":"http:\/\/foodtree.com\/sources\/67","address":"S2 C4 Green Rd, Pemberton , British Columbia, Canada","title":"Ice Cap Organics"}},{"type":"Feature","geometry":{"type":"Point","coordinates":[-122.068001,49.076]},"properties":{"url:moreinfo":"http:\/\/foodtree.com\/sources\/109","address":"4170 Stewart Rd., Yarrow, British Columbia, Canada","title":"Sleeping Mountain Organic Farm"}},{"type":"Feature","geometry":{"type":"Point","coordinates":[-122.973999,49.248901]},"properties":{"url:moreinfo":"http:\/\/foodtree.com\/sources\/123","address":"Burnaby, British Columbia, Canada","title":"Tea Time"}},{"type":"Feature","geometry":{"type":"Point","coordinates":[-122.650002,49.096001]},"properties":{"url:moreinfo":"http:\/\/foodtree.com\/sources\/119","address":"207th St, Langley  , British Columbia, Canada","title":"Sull Farm"}},{"type":"Feature","geometry":{"type":"Point","coordinates":[-127.648003,53.7267]},"properties":{"url:moreinfo":"http:\/\/foodtree.com\/sources\/78","address":"790 McKenzie Road, Abbotsford  , British Columbia, Canada","title":"Maan Farms"}},{"type":"Feature","geometry":{"type":"Point","coordinates":[-119.728996,49.078098]},"properties":{"url:moreinfo":"http:\/\/foodtree.com\/sources\/111","address":"1050 Chopaka Rd, Cawston  , British Columbia, Canada","title":"Snowy Mountain Organics"}},{"type":"Feature","geometry":{"type":"Point","coordinates":[-121.860001,49.147202]},"properties":{"url:moreinfo":"http:\/\/foodtree.com\/sources\/44","address":"49350 Prairie Central rd, Chilliwack , British Columbia, Canada","title":"Forstbauer Family Natural Food Farm"}},{"type":"Feature","geometry":{"type":"Point","coordinates":[-123.017998,49.200199]},"properties":{"url:moreinfo":"http:\/\/foodtree.com\/sources\/122","address":"8980 Fraserwood Court, Burnaby, British Columbia, Canada","title":"Tarragon Foods"}},{"type":"Feature","geometry":{"type":"Point","coordinates":[-123.086998,49.280201]},"properties":{"url:moreinfo":"http:\/\/foodtree.com\/sources\/112","address":"399 Hawks Ave, Vancouver, British Columbia, Canada","title":"SOLEFood"}},{"type":"Feature","geometry":{"type":"Point","coordinates":[-119.750999,49.180099]},"properties":{"url:moreinfo":"http:\/\/foodtree.com\/sources\/43","address":"2095 Ritchie Dr, Cawston  , British Columbia, Canada","title":"Forrest Nelson Certified Organic Produce"}},{"type":"Feature","geometry":{"type":"Point","coordinates":[-122.621002,49.223202]},"properties":{"url:moreinfo":"http:\/\/foodtree.com\/sources\/133","address":"21651 Mountainview Crescent, Maple Ridge  , British Columbia, Canada","title":"Vlad's Apiary"}},{"type":"Feature","geometry":{"type":"Point","coordinates":[-124.365997,49.329601]},"properties":{"url:moreinfo":"http:\/\/foodtree.com\/sources\/76","address":"403 Lowry's Road, Parksville  , British Columbia, Canada","title":"Little Qualicum Cheeseworks"}},{"type":"Feature","geometry":{"type":"Point","coordinates":[-123.113998,49.2612]},"properties":{"url:moreinfo":"http:\/\/foodtree.com\/sources\/56","address":"Vancouver, British Columbia, Canada","title":"Gogo Java Ltd."}},{"type":"Feature","geometry":{"type":"Point","coordinates":[-121.577003,50.224998]},"properties":{"url:moreinfo":"http:\/\/foodtree.com\/sources\/91","address":"Lytton, British Columbia, Canada","title":"Planting Seeds Project"}},{"type":"Feature","geometry":{"type":"Point","coordinates":[-122.875999,49.0355]},"properties":{"url:moreinfo":"http:\/\/foodtree.com\/sources\/14","address":"P.O. Box 45040, PRO Ocean Park, Surrey, British Columbia, Canada","title":"Aji Gourmet Products"}},{"type":"Feature","geometry":{"type":"Point","coordinates":[-119.634003,49.573399]},"properties":{"url:moreinfo":"http:\/\/foodtree.com\/sources\/173","address":"6200 Miltimore Ave, Summerland  , British Columbia, Canada","title":"Golden West Farms"}},{"type":"Feature","geometry":{"type":"Point","coordinates":[-73.226946,42.792313]},"properties":{"url:moreinfo":"http:\/\/foodtree.com\/sources\/64","address":" Pownal, Vermont, USA","title":"Hill Top Farm"}},{"type":"Feature","geometry":{"type":"Point","coordinates":[-123.128998,49.281799]},"properties":{"url:moreinfo":"http:\/\/foodtree.com\/sources\/3","address":"1100 Comox Street, Vancouver, British Columbia, Canada","title":"West End Farmers Market"}}],"properties":{"title":"West End Farmers Market"}}