{"type":"FeatureCollection","features":[{"type":"Feature","geometry":{"type":"Point","coordinates":[-123.06955,49.274263]},"properties":{"url:moreinfo":"http:\/\/foodtree.com\/sources\/12811","address":"Unit 2, 1163 Commercial Drive, Vancouver, BC, V5L 3X3","title":"Vancouver Farmers Markets"}},{"type":"Feature","geometry":{"type":"Point","coordinates":[-123.098999,49.274399]},"properties":{"url:moreinfo":"http:\/\/foodtree.com\/sources\/6030","address":"1100 Station Street, Vancouver, British Columbia, Canada","title":"Take a Fancy Chocolates"}},{"type":"Feature","geometry":{"type":"Point","coordinates":[-122.711998,49.2533]},"properties":{"url:moreinfo":"http:\/\/foodtree.com\/sources\/35","address":"13672 Reichenbach Road, Maple Ridge  , British Columbia, Canada","title":"Cranberry Meadows"}},{"type":"Feature","geometry":{"type":"Point","coordinates":[-122.778999,49.0984]},"properties":{"url:moreinfo":"http:\/\/foodtree.com\/sources\/29","address":"5276 - 160th Street, Cloverdale, Surrey, British Columbia, Canada","title":"Capella Farm"}},{"type":"Feature","geometry":{"type":"Point","coordinates":[-122.248001,49.208599]},"properties":{"url:moreinfo":"http:\/\/foodtree.com\/sources\/23","address":"11424 Farms Road, Mission , British Columbia, Canada","title":"Beckmann Berry Farm"}},{"type":"Feature","geometry":{"type":"Point","coordinates":[-123.139999,49.2714]},"properties":{"url:moreinfo":"http:\/\/foodtree.com\/sources\/108","address":"1505 West 1st Ave, Vancouver  , British Columbia, Canada","title":"Skipper Otto's Wild British Columbia Salmon"}},{"type":"Feature","geometry":{"type":"Point","coordinates":[-123.113998,49.2612]},"properties":{"url:moreinfo":"http:\/\/foodtree.com\/sources\/124","address":"Vancouver, British Columbia, Canada","title":"Thai Princess Enterprises LTD"}},{"type":"Feature","geometry":{"type":"Point","coordinates":[-122.942001,49.224998]},"properties":{"url:moreinfo":"http:\/\/foodtree.com\/sources\/84","address":"4949 Canada Way, Richmond , British Columbia, Canada","title":"Natural Village"}},{"type":"Feature","geometry":{"type":"Point","coordinates":[-119.757004,49.1894]},"properties":{"url:moreinfo":"http:\/\/foodtree.com\/sources\/73","address":"2200 Ferko Rd., Cawston  , British Columbia, Canada, V0X 1C2","title":"Klippers Organic Acres"}},{"type":"Feature","geometry":{"type":"Point","coordinates":[-123.086998,49.280201]},"properties":{"url:moreinfo":"http:\/\/foodtree.com\/sources\/112","address":"399 Hawks Ave, Vancouver, British Columbia, Canada","title":"SOLEFood"}},{"type":"Feature","geometry":{"type":"Point","coordinates":[-123.341003,48.422401]},"properties":{"url:moreinfo":"http:\/\/foodtree.com\/sources\/67","address":"S2 C4 Green Rd, Pemberton , British Columbia, Canada","title":"Ice Cap Organics"}},{"type":"Feature","geometry":{"type":"Point","coordinates":[-122.585999,49.162701]},"properties":{"url:moreinfo":"http:\/\/foodtree.com\/sources\/33","address":"200th Street, Fort Langley, British Columbia, Canada","title":"Christina's Garden"}},{"type":"Feature","geometry":{"type":"Point","coordinates":[-121.744003,49.234402]},"properties":{"url:moreinfo":"http:\/\/foodtree.com\/sources\/93","address":"1611 Tranmer Rd, Agassiz  , British Columbia, Canada","title":"Poplar Grove Arbour"}},{"type":"Feature","geometry":{"type":"Point","coordinates":[-122.007004,49.089699]},"properties":{"url:moreinfo":"http:\/\/foodtree.com\/sources\/92","address":"4843 Giesbrecht Road, Chilliwack, British Columbia, Canada","title":"Polderside Farms"}},{"type":"Feature","geometry":{"type":"Point","coordinates":[-122.598999,49.219101]},"properties":{"url:moreinfo":"http:\/\/foodtree.com\/sources\/121","address":"Maple Ridge  , British Columbia, Canada","title":"T & J Bison and Grains"}},{"type":"Feature","geometry":{"type":"Point","coordinates":[-123.113998,49.2612]},"properties":{"url:moreinfo":"http:\/\/foodtree.com\/sources\/56","address":"Vancouver, British Columbia, Canada","title":"Gogo Java Ltd."}},{"type":"Feature","geometry":{"type":"Point","coordinates":[-122.032997,49.016701]},"properties":{"url:moreinfo":"http:\/\/foodtree.com\/sources\/106","address":"Columbia Valley, British Columbia, Canada","title":"Shalefield Organic Gardens"}},{"type":"Feature","geometry":{"type":"Point","coordinates":[-123.093002,49.2757]},"properties":{"url:moreinfo":"http:\/\/foodtree.com\/sources\/83","address":"618 Malkin Avenue, Vancouver  , British Columbia, Canada","title":"My Urban Farm"}},{"type":"Feature","geometry":{"type":"Point","coordinates":[-122.227997,49.016998]},"properties":{"url:moreinfo":"http:\/\/foodtree.com\/sources\/49","address":"35805 Vye Road, Abbotsford  , British Columbia, Canada","title":"Gelderman Farms Ltd"}},{"type":"Feature","geometry":{"type":"Point","coordinates":[-122.875,49.0541]},"properties":{"url:moreinfo":"http:\/\/foodtree.com\/sources\/45","address":"12555 Crescent Rd, Surrey  , British Columbia, Canada, V4A 2V3","title":"Fresh Off The Boat"}},{"type":"Feature","geometry":{"type":"Point","coordinates":[-122.581001,49.084202]},"properties":{"url:moreinfo":"http:\/\/foodtree.com\/sources\/130","address":"4533 232 St., Langley  , British Columbia, Canada","title":"Twin Oaks Herb Farm"}},{"type":"Feature","geometry":{"type":"Point","coordinates":[-123.103996,49.283298]},"properties":{"url:moreinfo":"http:\/\/foodtree.com\/sources\/448","address":"6 Powell Street, Vancouver, British Columbia, Canada, V6A 1E7","title":"The Diamond"}},{"type":"Feature","geometry":{"type":"Point","coordinates":[-127.648003,53.7267]},"properties":{"url:moreinfo":"http:\/\/foodtree.com\/sources\/78","address":"790 McKenzie Road, Abbotsford  , British Columbia, Canada","title":"Maan Farms"}},{"type":"Feature","geometry":{"type":"Point","coordinates":[-123.040001,50.087898]},"properties":{"url:moreinfo":"http:\/\/foodtree.com\/sources\/170","address":"1-1040 Millar Creek Road, Whistler, British Columbia, Canada","title":"Purebread"}},{"type":"Feature","geometry":{"type":"Point","coordinates":[-123.150002,49.276001]},"properties":{"url:moreinfo":"http:\/\/foodtree.com\/sources\/96","address":"1118 Maple Street, Vancouver, British Columbia, Canada","title":"Rise Artisan Breads"}},{"type":"Feature","geometry":{"type":"Point","coordinates":[-124.365997,49.329601]},"properties":{"url:moreinfo":"http:\/\/foodtree.com\/sources\/76","address":"403 Lowry's Road, Parksville  , British Columbia, Canada","title":"Little Qualicum Cheeseworks"}},{"type":"Feature","geometry":{"type":"Point","coordinates":[-127.648003,53.7267]},"properties":{"url:moreinfo":"http:\/\/foodtree.com\/sources\/69","address":"White Rock  , British Columbia, Canada","title":"Jane's Honey Bees"}},{"type":"Feature","geometry":{"type":"Point","coordinates":[-122.727997,49.0746]},"properties":{"url:moreinfo":"http:\/\/foodtree.com\/sources\/115","address":"17885 40th Ave., Surrey  , British Columbia, Canada","title":"Southern Acres Nursery and Farm"}},{"type":"Feature","geometry":{"type":"Point","coordinates":[-123.113998,49.2612]},"properties":{"url:moreinfo":"http:\/\/foodtree.com\/sources\/110","address":"Vancouver, British Columbia, Canada","title":"Small Pleasures"}},{"type":"Feature","geometry":{"type":"Point","coordinates":[-122.653,49.112801]},"properties":{"url:moreinfo":"http:\/\/foodtree.com\/sources\/13","address":"20560 Langley Bypass, Unit 309, Langley, British Columbia, Canada","title":"A Bread Affair"}},{"type":"Feature","geometry":{"type":"Point","coordinates":[-123.134003,49.205399]},"properties":{"url:moreinfo":"http:\/\/foodtree.com\/sources\/27","address":"8815 Selkirk St., Vancouver, British Columbia, Canada","title":"Blackberry Hill Farm"}},{"type":"Feature","geometry":{"type":"Point","coordinates":[-123.098999,49.274399]},"properties":{"url:moreinfo":"http:\/\/foodtree.com\/sources\/1073","address":"1100 Station Street, Vancouver, British Columbia, Canada, V6A 2X7","title":"Icy Freshpops"}},{"type":"Feature","geometry":{"type":"Point","coordinates":[-122.305,49.134602]},"properties":{"url:moreinfo":"http:\/\/foodtree.com\/sources\/131","address":"33191 1st Ave, Mission, British Columbia, Canada, V2V 1G5","title":"Valley Gold Bee Company"}},{"type":"Feature","geometry":{"type":"Point","coordinates":[-123.110001,49.063]},"properties":{"url:moreinfo":"http:\/\/foodtree.com\/sources\/37","address":"3310 41B St, Delta  , British Columbia, Canada","title":"Cropthorne Farm"}},{"type":"Feature","geometry":{"type":"Point","coordinates":[-122.139,49.064899]},"properties":{"url:moreinfo":"http:\/\/foodtree.com\/sources\/102","address":"3556 Marion Rd, Abbotsford  , British Columbia, Canada","title":"Sandhu Produce Growers"}},{"type":"Feature","geometry":{"type":"Point","coordinates":[-119.634003,49.573399]},"properties":{"url:moreinfo":"http:\/\/foodtree.com\/sources\/173","address":"6200 Miltimore Ave, Summerland  , British Columbia, Canada","title":"Golden West Farms"}},{"type":"Feature","geometry":{"type":"Point","coordinates":[-122.316002,49.0089]},"properties":{"url:moreinfo":"http:\/\/foodtree.com\/sources\/18","address":"333 Gladwin Road, Abbotsford  , British Columbia, Canada","title":"Apple Barn Pumpkin Farm"}},{"type":"Feature","geometry":{"type":"Point","coordinates":[-122.957001,49.087502]},"properties":{"url:moreinfo":"http:\/\/foodtree.com\/sources\/31","address":"3885 - 96th Street Delta, Delta, British Columbia, Canada, V4K 3N3","title":"Celyddon Farm"}},{"type":"Feature","geometry":{"type":"Point","coordinates":[-123.110001,49.279598]},"properties":{"url:moreinfo":"http:\/\/foodtree.com\/sources\/40","address":"Stadium Skytrain Station, Vancouver, British Columbia, Canada","title":"Eli's Serious Sausage"}},{"type":"Feature","geometry":{"type":"Point","coordinates":[-123.105003,49.247299]},"properties":{"url:moreinfo":"http:\/\/foodtree.com\/sources\/85","address":"Ontario & 27th Avenue, Vancouver, British Columbia, Canada, V5V3G8","title":"Off the Wagon"}},{"type":"Feature","geometry":{"type":"Point","coordinates":[-122.082001,49.0023]},"properties":{"url:moreinfo":"http:\/\/foodtree.com\/sources\/105","address":"41381 Henderson Road, Lindell Beach  , British Columbia, Canada","title":"Shalefield Gardens"}},{"type":"Feature","geometry":{"type":"Point","coordinates":[-119.384003,49.842899]},"properties":{"url:moreinfo":"http:\/\/foodtree.com\/sources\/1074","address":"3885 Gallaghers Grange, Kelowna, British Columbia, Canada, V1W 3Z9","title":"Mikuni Wild Harvest"}},{"type":"Feature","geometry":{"type":"Point","coordinates":[-122.650002,49.096001]},"properties":{"url:moreinfo":"http:\/\/foodtree.com\/sources\/119","address":"207th St, Langley  , British Columbia, Canada","title":"Sull Farm"}},{"type":"Feature","geometry":{"type":"Point","coordinates":[-122.053001,49.082001]},"properties":{"url:moreinfo":"http:\/\/foodtree.com\/sources\/138","address":"42312 Yarrow Central Road, Chilliwack , British Columbia, Canada","title":"Yarrow Eco Village Farm"}},{"type":"Feature","geometry":{"type":"Point","coordinates":[-122.281998,49.016499]},"properties":{"url:moreinfo":"http:\/\/foodtree.com\/sources\/370","address":"790 McKenzie Rd, Abbotsford, British Columbia, Canada","title":"Mann Farms"}},{"type":"Feature","geometry":{"type":"Point","coordinates":[-122.471001,49.057999]},"properties":{"url:moreinfo":"http:\/\/foodtree.com\/sources\/75","address":"Victoria Dr & E 15 Ave, Aldergrove, British Columbia, Canada","title":"Langley Organic Growers"}},{"type":"Feature","geometry":{"type":"Point","coordinates":[-123.113998,49.2612]},"properties":{"url:moreinfo":"http:\/\/foodtree.com\/sources\/80","address":"Vancouver , British Columbia, Canada","title":"Maples Sugar Shack"}},{"type":"Feature","geometry":{"type":"Point","coordinates":[-121.820999,49.209]},"properties":{"url:moreinfo":"http:\/\/foodtree.com\/sources\/26","address":"11380 Gill Rd, Rosedale  , British Columbia, Canada","title":"Berry Tyme"}},{"type":"Feature","geometry":{"type":"Point","coordinates":[-123.098999,49.274399]},"properties":{"url:moreinfo":"http:\/\/foodtree.com\/sources\/4","address":"1100 Station Street, Vancouver, British Columbia, Canada","title":"Main Street Farmers Market"}}],"properties":{"title":"Main Street Farmers Market"}}