{"type":"FeatureCollection","features":[{"type":"Feature","geometry":{"type":"Point","coordinates":[-105.051003,40.589199]},"properties":{"url:moreinfo":"http:\/\/foodtree.com\/sources\/412","address":"1401 Duff Drive #300, Fort Collins, Colorado, USA","title":"Mouco Cheese Company"}},{"type":"Feature","geometry":{"type":"Point","coordinates":[-105.281998,40.017502]},"properties":{"url:moreinfo":"http:\/\/foodtree.com\/sources\/7785","address":"1048 Pearl Street , Suite 1, Boulder, Colorado, United States, 80302","title":"Bhakti Chai"}},{"type":"Feature","geometry":{"type":"Point","coordinates":[-105.234001,40.040199]},"properties":{"url:moreinfo":"http:\/\/foodtree.com\/sources\/693","address":"5163 Independence Rd., Boulder , CO, USA, 80301","title":"Beyond Organic Farm"}},{"type":"Feature","geometry":{"type":"Point","coordinates":[-105.123001,40.116199]},"properties":{"url:moreinfo":"http:\/\/foodtree.com\/sources\/202","address":"10145 Oxford Rd , Longmont, Colorado, United States","title":"Abbondanza Organic Seeds & Produce"}},{"type":"Feature","geometry":{"type":"Point","coordinates":[-105.280998,40.047501]},"properties":{"url:moreinfo":"http:\/\/foodtree.com\/sources\/517","address":"3960 Broadway Street, Boulder, CO, USA, 80304","title":"Lucky's Market"}}],"properties":{"title":"Lucky's Market"}}