{"type":"FeatureCollection","features":[{"type":"Feature","geometry":{"type":"Point","coordinates":[-123.167,49.133701]},"properties":{"url:moreinfo":"http:\/\/foodtree.com\/sources\/268","urltitle:moreinfo":"Please visit Dao Tea on Foodtree","address":"5211 Steveston Highway, Richmond, British Columbia, Canada","title":"Dao Tea"}},{"type":"Feature","geometry":{"type":"Point","coordinates":[-123.107002,49.283501]},"properties":{"url:moreinfo":"http:\/\/foodtree.com\/sources\/297","urltitle:moreinfo":"Please visit Inner Space Yoga on Foodtree","address":"Suite 100, 247 Abbot Street, Vancouver, British Columbia, Canada","title":"Inner Space Yoga"}},{"type":"Feature","geometry":{"type":"Point","coordinates":[-123.167,49.133701]},"properties":{"url:moreinfo":"http:\/\/foodtree.com\/sources\/291","urltitle:moreinfo":"Please visit Dao Tea Online Shop on Foodtree","address":"5211 Steveston Highway, Richmond, British Columbia, Canada","title":"Dao Tea Online Shop"}},{"type":"Feature","geometry":{"type":"Point","coordinates":[-123.056999,49.280998]},"properties":{"url:moreinfo":"http:\/\/foodtree.com\/sources\/292","urltitle:moreinfo":"Please visit Donald's Market on Foodtree","address":"2342 East Hastings Street, Vancouver, British Columbia, Canada","title":"Donald's Market"}},{"type":"Feature","geometry":{"type":"Point","coordinates":[-123.078003,49.310398]},"properties":{"url:moreinfo":"http:\/\/foodtree.com\/sources\/280","urltitle:moreinfo":"Please visit Cafe for Contemporary Arts on Foodtree","address":"140 East Esplanade, North Vancouver, British Columbia, Canada, V7M 1A2","title":"Cafe for Contemporary Arts"}},{"type":"Feature","geometry":{"type":"Point","coordinates":[120.153999,30.266199]},"properties":{"url:moreinfo":"http:\/\/foodtree.com\/sources\/5982","urltitle:moreinfo":"Please visit Zhan Zemei on Foodtree","address":"Qiao Ban Village , Qiao Ban Village , Zhejiang Province , CHINA","title":"Zhan Zemei"}}],"properties":{"title":"Zhan Zemei - connections"}}