{"type":"FeatureCollection","features":[{"type":"Feature","geometry":{"type":"Point","coordinates":[-122.199202,48.759823]},"properties":{"url:moreinfo":"http:\/\/foodtree.com\/sources\/30111","urltitle:moreinfo":"Please visit Moon Valley Organics on Foodtree","address":"3288 Valley Hwy 9, Deming, WA, USA, 98244","title":"Moon Valley Organics"}},{"type":"Feature","geometry":{"type":"Point","coordinates":[-122.356769,47.639745]},"properties":{"url:moreinfo":"http:\/\/foodtree.com\/sources\/29771","urltitle:moreinfo":"Please visit Eat Local - Queen Anne on Foodtree","address":"2400 Queen Anne Ave N, Seattle, WA, USA","title":"Eat Local - Queen Anne"}},{"type":"Feature","geometry":{"type":"Point","coordinates":[-122.34492,47.467698]},"properties":{"url:moreinfo":"http:\/\/foodtree.com\/sources\/29761","urltitle:moreinfo":"Please visit Eat Local Burien on Foodtree","address":"810 SW 151st St , Burien, WA, USA","title":"Eat Local Burien"}},{"type":"Feature","geometry":{"type":"Point","coordinates":[-122.792999,48.1022]},"properties":{"url:moreinfo":"http:\/\/foodtree.com\/sources\/6897","urltitle:moreinfo":"Please visit Mt Townsend Creamery on Foodtree","address":"338 Sherman Street, Port Townsend, Washington, USA, 98368","title":"Mt Townsend Creamery"}},{"type":"Feature","geometry":{"type":"Point","coordinates":[-120.731003,46.687901]},"properties":{"url:moreinfo":"http:\/\/foodtree.com\/sources\/7162","urltitle:moreinfo":"Please visit Tieton Farm & Creamery on Foodtree","address":"18796 Summitview Rd, Tieton, Washington, USA, 98947","title":"Tieton Farm & Creamery"}},{"type":"Feature","geometry":{"type":"Point","coordinates":[-122.285337,47.558413]},"properties":{"url:moreinfo":"http:\/\/foodtree.com\/sources\/15421","urltitle:moreinfo":"Please visit La Medusa Restaurant on Foodtree","address":"4857 Rainier Ave S, Seattle, WA, USA, 98118","title":"La Medusa Restaurant"}},{"type":"Feature","geometry":{"type":"Point","coordinates":[-122.34158,47.662602]},"properties":{"url:moreinfo":"http:\/\/foodtree.com\/sources\/11951","urltitle:moreinfo":"Please visit 'Zaw Pizza - Wallingford on Foodtree","address":"4612 Stone Way. N, Seattle, Washington, USA, 98103","title":"'Zaw Pizza - Wallingford"}},{"type":"Feature","geometry":{"type":"Point","coordinates":[-122.330295,47.623051]},"properties":{"url:moreinfo":"http:\/\/foodtree.com\/sources\/11921","urltitle:moreinfo":"Please visit 'Zaw Pizza - South Lake Union on Foodtree","address":"434 Yale Ave. N, Seattle, Washington, USA, 98109","title":"'Zaw Pizza - South Lake Union"}},{"type":"Feature","geometry":{"type":"Point","coordinates":[-122.357059,47.634737]},"properties":{"url:moreinfo":"http:\/\/foodtree.com\/sources\/11941","urltitle:moreinfo":"Please visit 'Zaw Pizza - Queen Anne on Foodtree","address":"1635 Queen Anne Ave. N, Seattle, Washington, USA, 98109","title":"'Zaw Pizza - Queen Anne"}},{"type":"Feature","geometry":{"type":"Point","coordinates":[-122.237087,47.586721]},"properties":{"url:moreinfo":"http:\/\/foodtree.com\/sources\/11931","urltitle:moreinfo":"Please visit 'Zaw Pizza - Mercer Island on Foodtree","address":"7635 SE 27th Street , Mercer Island, Washington, USA, 98040","title":"'Zaw Pizza - Mercer Island"}},{"type":"Feature","geometry":{"type":"Point","coordinates":[-122.290281,47.681979]},"properties":{"url:moreinfo":"http:\/\/foodtree.com\/sources\/11961","urltitle:moreinfo":"Please visit 'Zaw Pizza - Wedgwood on Foodtree","address":"7320 35th Ave NE, Seattle, Washington, USA, 98115","title":"'Zaw Pizza - Wedgwood"}},{"type":"Feature","geometry":{"type":"Point","coordinates":[-122.312981,47.615469]},"properties":{"url:moreinfo":"http:\/\/foodtree.com\/sources\/11911","urltitle:moreinfo":"Please visit 'Zaw Pizza - Capitol Hill on Foodtree","address":"1424 E. Pine St, Seattle, Washington, USA","title":"'Zaw Pizza - Capitol Hill"}},{"type":"Feature","geometry":{"type":"Point","coordinates":[-122.357002,47.635502]},"properties":{"url:moreinfo":"http:\/\/foodtree.com\/sources\/6900","urltitle:moreinfo":"Please visit emmer&rye on Foodtree","address":"1825 Queen Anne Avenue North, Seattle, Washington, USA, 98109","title":"emmer&rye"}},{"type":"Feature","geometry":{"type":"Point","coordinates":[-122.294998,47.6241]},"properties":{"url:moreinfo":"http:\/\/foodtree.com\/sources\/6944","urltitle:moreinfo":"Please visit Cafe Flora on Foodtree","address":"2901 E. Madison St, Seattle, Washington, USA, 98112","title":"Cafe Flora"}},{"type":"Feature","geometry":{"type":"Point","coordinates":[-123.156998,49.268299]},"properties":{"url:moreinfo":"http:\/\/foodtree.com\/sources\/339","urltitle:moreinfo":"Please visit Capers (Kitsilano) on Foodtree","address":"2285 West 4th Avenue , Vancouver, British Columbia, Canada","title":"Capers (Kitsilano)"}},{"type":"Feature","geometry":{"type":"Point","coordinates":[-122.332001,47.606201]},"properties":{"url:moreinfo":"http:\/\/foodtree.com\/sources\/2571","urltitle:moreinfo":"Please visit Seattle - Broadway Farmers Market on Foodtree","address":"Broadway & Pine, Seattle Central CC, Seattle, Washington, United States, 98102","title":"Seattle - Broadway Farmers Market"}},{"type":"Feature","geometry":{"type":"Point","coordinates":[-122.696999,47.644501]},"properties":{"url:moreinfo":"http:\/\/foodtree.com\/sources\/6932","urltitle:moreinfo":"Please visit Monica's Waterfront Bakery & Cafe on Foodtree","address":"3472 Northwest Byron Street, Silverdale, Washington, USA, 98383","title":"Monica's Waterfront Bakery & Cafe"}},{"type":"Feature","geometry":{"type":"Point","coordinates":[-122.337997,47.607201]},"properties":{"url:moreinfo":"http:\/\/foodtree.com\/sources\/6954","urltitle:moreinfo":"Please visit Taste at Seattle Art Museum on Foodtree","address":"1300 1st Avenue, Seattle, Washington, USA, 98101","title":"Taste at Seattle Art Museum"}},{"type":"Feature","geometry":{"type":"Point","coordinates":[-123.114998,49.264]},"properties":{"url:moreinfo":"http:\/\/foodtree.com\/sources\/346","urltitle:moreinfo":"Please visit Whole Foods Market Cambie on Foodtree","address":"510 West 8th Avenue , Vancouver, British Columbia, Canada","title":"Whole Foods Market Cambie"}},{"type":"Feature","geometry":{"type":"Point","coordinates":[-122.357002,47.637199]},"properties":{"url:moreinfo":"http:\/\/foodtree.com\/sources\/2569","urltitle:moreinfo":"Please visit Seattle Queen Anne Farmers Market on Foodtree","address":"West Crockett Street & Queen Anne Avenue North, King, Seattle, WASHINGTON, USA, 98109","title":"Seattle Queen Anne Farmers Market"}},{"type":"Feature","geometry":{"type":"Point","coordinates":[-122.355003,47.678398]},"properties":{"url:moreinfo":"http:\/\/foodtree.com\/sources\/6955","urltitle:moreinfo":"Please visit Stumbling Goat Bistro on Foodtree","address":"6722 Greenwood Avenue North, Seattle, Washington, USA, 98103","title":"Stumbling Goat Bistro"}},{"type":"Feature","geometry":{"type":"Point","coordinates":[-122.382004,47.665501]},"properties":{"url:moreinfo":"http:\/\/foodtree.com\/sources\/2570","urltitle:moreinfo":"Please visit Ballard Sunday Farmers Market on Foodtree","address":"Ballard Avenue NW & 20th NW, Seattle, Washington, United States, 98107","title":"Ballard Sunday Farmers Market"}},{"type":"Feature","geometry":{"type":"Point","coordinates":[-122.379997,47.663601]},"properties":{"url:moreinfo":"http:\/\/foodtree.com\/sources\/6947","urltitle:moreinfo":"Please visit the Walrus and the Carpenter on Foodtree","address":"4743 Ballard Ave NW, Seattle, Washington, USA, 98107","title":"the Walrus and the Carpenter"}},{"type":"Feature","geometry":{"type":"Point","coordinates":[-122.362999,47.668598]},"properties":{"url:moreinfo":"http:\/\/foodtree.com\/sources\/6953","urltitle:moreinfo":"Please visit Le Gourmand on Foodtree","address":"425 N.W. Market Street, Seattle, Washington, USA, 98107","title":"Le Gourmand"}},{"type":"Feature","geometry":{"type":"Point","coordinates":[-122.347,47.642899]},"properties":{"url:moreinfo":"http:\/\/foodtree.com\/sources\/6956","urltitle:moreinfo":"Please visit Canlis Restaurant on Foodtree","address":"2576 Aurora Avenue North, Seattle, Washington, USA, 98109","title":"Canlis Restaurant"}},{"type":"Feature","geometry":{"type":"Point","coordinates":[-105.074997,39.973598]},"properties":{"url:moreinfo":"http:\/\/foodtree.com\/sources\/1244","urltitle:moreinfo":"Please visit Door To Door Organics on Foodtree","address":"1215 Rock Creek Cir, Lafayette, CO, USA, 80026","title":"Door To Door Organics"}},{"type":"Feature","geometry":{"type":"Point","coordinates":[-123.113998,49.2612]},"properties":{"url:moreinfo":"http:\/\/foodtree.com\/sources\/296","urltitle:moreinfo":"Please visit Inevitable Table on Foodtree","address":"Vancouver, British Columbia, Canada","title":"Inevitable Table"}},{"type":"Feature","geometry":{"type":"Point","coordinates":[-121.912003,47.6157]},"properties":{"url:moreinfo":"http:\/\/foodtree.com\/sources\/329","urltitle:moreinfo":"Please visit Full Circle Farm on Foodtree","address":"31904 NE 8th Street, Carnation, Washington, USA, 98014","title":"Full Circle Farm"}}],"properties":{"title":"Full Circle Farm - connections"}}