{"type":"FeatureCollection","features":[{"type":"Feature","geometry":{"type":"Point","coordinates":[-122.482002,49.1036]},"properties":{"url:moreinfo":"http:\/\/foodtree.com\/sources\/4309","urltitle:moreinfo":"Please visit Seasonal 56 on Foodtree","address":"26730 56th Avenue, #201, Langley, British Columbia, Canada, V4W3X5","title":"Seasonal 56"}},{"type":"Feature","geometry":{"type":"Point","coordinates":[-123.162003,49.263]},"properties":{"url:moreinfo":"http:\/\/foodtree.com\/sources\/2","urltitle:moreinfo":"Please visit Kitsilano Farmers Market on Foodtree","address":"W 10 Ave & Larch St, Vancouver, British Columbia, Canada","title":"Kitsilano Farmers Market"}},{"type":"Feature","geometry":{"type":"Point","coordinates":[-122.646004,49.109501]},"properties":{"url:moreinfo":"http:\/\/foodtree.com\/sources\/1076","urltitle:moreinfo":"Please visit The Langley Community Farmers Market on Foodtree","address":"20901 Langley Bypass, Langley, BC, Canada, V1M 2Y2","title":"The Langley Community Farmers Market"}},{"type":"Feature","geometry":{"type":"Point","coordinates":[-123.147003,49.270599]},"properties":{"url:moreinfo":"http:\/\/foodtree.com\/sources\/8378","urltitle:moreinfo":"Please visit Rocky Mountain Flatbread Co - Kitsilano on Foodtree","address":"1876 W 1st Avenue, Vancouver, British Columbia, Canada, V6J 1G5","title":"Rocky Mountain Flatbread Co - Kitsilano"}},{"type":"Feature","geometry":{"type":"Point","coordinates":[-123.057999,49.281399]},"properties":{"url:moreinfo":"http:\/\/foodtree.com\/sources\/281","urltitle:moreinfo":"Please visit Campagnolo Roma on Foodtree","address":"2297 East Hastings Street, Vancouver, British Columbia, Canada, V5L1V3","title":"Campagnolo Roma"}},{"type":"Feature","geometry":{"type":"Point","coordinates":[-123.154999,49.268299]},"properties":{"url:moreinfo":"http:\/\/foodtree.com\/sources\/278","urltitle:moreinfo":"Please visit Bishop's Fine Dining Restaurant on Foodtree","address":"2183 West 4th Avenue , Kitsilano, Vancouver, British Columbia, Canada","title":"Bishop's Fine Dining Restaurant"}},{"type":"Feature","geometry":{"type":"Point","coordinates":[-122.514999,49.024899]},"properties":{"url:moreinfo":"http:\/\/foodtree.com\/sources\/86","urltitle:moreinfo":"Please visit Organic Farm Connection, The on Foodtree","address":"1374-256 Street, Aldergrove, British Columbia, Canada","title":"Organic Farm Connection, The"}},{"type":"Feature","geometry":{"type":"Point","coordinates":[-123.100998,49.247799]},"properties":{"url:moreinfo":"http:\/\/foodtree.com\/sources\/8379","urltitle:moreinfo":"Please visit Rocky Mountain Flatbread Co - Main Street on Foodtree","address":"4186 Main Street, Vancouver, British Columbia, Canada, V5V 3P6","title":"Rocky Mountain Flatbread Co - Main Street"}},{"type":"Feature","geometry":{"type":"Point","coordinates":[-123.061996,49.256302]},"properties":{"url:moreinfo":"http:\/\/foodtree.com\/sources\/1","urltitle:moreinfo":"Please visit Trout Lake Farmers Market on Foodtree","address":"Trout Lake, North end of John Hendry Park, Vancouver, British Columbia, Canada","title":"Trout Lake Farmers Market"}},{"type":"Feature","geometry":{"type":"Point","coordinates":[-123.089996,49.249599]},"properties":{"url:moreinfo":"http:\/\/foodtree.com\/sources\/5988","urltitle:moreinfo":"Please visit Savoury City on Foodtree","address":"3925 Fraser St, Vancouver, British Columbia, Canada, V5V4E5","title":"Savoury City"}},{"type":"Feature","geometry":{"type":"Point","coordinates":[-122.514999,49.024899]},"properties":{"url:moreinfo":"http:\/\/foodtree.com\/sources\/330","urltitle:moreinfo":"Please visit Glorious Organics Co-op on Foodtree","address":"1374 - 256th St, Aldergrove, British Columbia, Canada","title":"Glorious Organics Co-op"}}],"properties":{"title":"Glorious Organics Co-op - connections"}}