{"type":"FeatureCollection","features":[{"type":"Feature","geometry":{"type":"Point","coordinates":[-123.179001,49.220402]},"properties":{"url:moreinfo":"http:\/\/foodtree.com\/sources\/10","address":"7226 Blenheim Street, Vancouver, British Columbia, Canada","title":"KJM Southlands Farmers Market"}},{"type":"Feature","geometry":{"type":"Point","coordinates":[-123.127998,49.226601]},"properties":{"url:moreinfo":"http:\/\/foodtree.com\/sources\/11","address":"Oak Street and 49th Avenue, Vancouver, British Columbia, Canada","title":"Oak Street Farmers Market"}},{"type":"Feature","geometry":{"type":"Point","coordinates":[-123.147003,49.270599]},"properties":{"url:moreinfo":"http:\/\/foodtree.com\/sources\/8378","address":"1876 W 1st Avenue, Vancouver, British Columbia, Canada, V6J 1G5","title":"Rocky Mountain Flatbread Co - Kitsilano"}},{"type":"Feature","geometry":{"type":"Point","coordinates":[-123.100998,49.247799]},"properties":{"url:moreinfo":"http:\/\/foodtree.com\/sources\/8379","address":"4186 Main Street, Vancouver, British Columbia, Canada, V5V 3P6","title":"Rocky Mountain Flatbread Co - Main Street"}},{"type":"Feature","geometry":{"type":"Point","coordinates":[-123.150002,49.219501]},"properties":{"url:moreinfo":"http:\/\/foodtree.com\/sources\/336","address":"West 57th and East Blvd, Vancouver, British Columbia, Canada","title":"The World in a Garden"}}],"properties":{"title":"The World in a Garden"}}