{"type":"FeatureCollection","features":[{"type":"Feature","geometry":{"type":"Point","coordinates":[-124.365997,49.329601]},"properties":{"url:moreinfo":"http:\/\/foodtree.com\/sources\/76","address":"403 Lowry's Road, Parksville  , British Columbia, Canada","title":"Little Qualicum Cheeseworks"}},{"type":"Feature","geometry":{"type":"Point","coordinates":[-122.957001,49.087502]},"properties":{"url:moreinfo":"http:\/\/foodtree.com\/sources\/31","address":"3885 - 96th Street Delta, Delta, British Columbia, Canada, V4K 3N3","title":"Celyddon Farm"}},{"type":"Feature","geometry":{"type":"Point","coordinates":[-123.082001,49.250099]},"properties":{"url:moreinfo":"http:\/\/foodtree.com\/sources\/180","address":"Metro Vancouver, BC, Canada","title":"Felix Farm"}},{"type":"Feature","geometry":{"type":"Point","coordinates":[-122.598999,49.219101]},"properties":{"url:moreinfo":"http:\/\/foodtree.com\/sources\/94","address":"Lynn Valley Road, Maple Ridge  , British Columbia, Canada","title":"Red Barn Produce & Plants"}},{"type":"Feature","geometry":{"type":"Point","coordinates":[-122.973999,49.248901]},"properties":{"url:moreinfo":"http:\/\/foodtree.com\/sources\/82","address":"Burnaby, British Columbia, Canada","title":"Momma Nellie's Goodies"}},{"type":"Feature","geometry":{"type":"Point","coordinates":[-122.922997,49.214901]},"properties":{"url:moreinfo":"http:\/\/foodtree.com\/sources\/6028","address":"304-720 6th Street, New Westminster, British Columbia, Canada, V3L 3C5","title":"Felix & Guichon Farms"}},{"type":"Feature","geometry":{"type":"Point","coordinates":[-127.648003,53.7267]},"properties":{"url:moreinfo":"http:\/\/foodtree.com\/sources\/78","address":"790 McKenzie Road, Abbotsford  , British Columbia, Canada","title":"Maan Farms"}},{"type":"Feature","geometry":{"type":"Point","coordinates":[-123.110001,49.279598]},"properties":{"url:moreinfo":"http:\/\/foodtree.com\/sources\/40","address":"Stadium Skytrain Station, Vancouver, British Columbia, Canada","title":"Eli's Serious Sausage"}},{"type":"Feature","geometry":{"type":"Point","coordinates":[-122.273003,49.089298]},"properties":{"url:moreinfo":"http:\/\/foodtree.com\/sources\/98","address":"34205 Townshipline Road , Abbotsford, British Columbia, Canada","title":"Rockweld Farm"}},{"type":"Feature","geometry":{"type":"Point","coordinates":[-122.718002,49.0312]},"properties":{"url:moreinfo":"http:\/\/foodtree.com\/sources\/198","address":"18232 16th Avenue, Surrey, British Columbia, Canada","title":"Training Wheels Farm"}},{"type":"Feature","geometry":{"type":"Point","coordinates":[-122.828003,49.1059]},"properties":{"url:moreinfo":"http:\/\/foodtree.com\/sources\/191","address":"Surrey, BC, Canada","title":"Outwest Ranches"}},{"type":"Feature","geometry":{"type":"Point","coordinates":[-123.113998,49.2612]},"properties":{"url:moreinfo":"http:\/\/foodtree.com\/sources\/56","address":"Vancouver, British Columbia, Canada","title":"Gogo Java Ltd."}},{"type":"Feature","geometry":{"type":"Point","coordinates":[-122.711998,49.2533]},"properties":{"url:moreinfo":"http:\/\/foodtree.com\/sources\/35","address":"13672 Reichenbach Road, Maple Ridge  , British Columbia, Canada","title":"Cranberry Meadows"}},{"type":"Feature","geometry":{"type":"Point","coordinates":[-122.653,49.112801]},"properties":{"url:moreinfo":"http:\/\/foodtree.com\/sources\/13","address":"20560 Langley Bypass, Unit 309, Langley, British Columbia, Canada","title":"A Bread Affair"}},{"type":"Feature","geometry":{"type":"Point","coordinates":[-122.429001,49.161301]},"properties":{"url:moreinfo":"http:\/\/foodtree.com\/sources\/767","address":"8550 Bradner Road, Abbotsford , BC, Canada, V4X 2H5","title":"Glen Valley Organic Farm Co-Operative"}},{"type":"Feature","geometry":{"type":"Point","coordinates":[-127.648003,53.7267]},"properties":{"url:moreinfo":"http:\/\/foodtree.com\/sources\/379","address":"British Columbia, Canada","title":"Simply Delish Soup Company"}},{"type":"Feature","geometry":{"type":"Point","coordinates":[-122.942001,49.224998]},"properties":{"url:moreinfo":"http:\/\/foodtree.com\/sources\/84","address":"4949 Canada Way, Richmond , British Columbia, Canada","title":"Natural Village"}},{"type":"Feature","geometry":{"type":"Point","coordinates":[-122.072998,49.118301]},"properties":{"url:moreinfo":"http:\/\/foodtree.com\/sources\/187","address":"6386 Chadsey Road, Chilliwack, BC, Canada","title":"Greendale Herb & Vine"}},{"type":"Feature","geometry":{"type":"Point","coordinates":[-123.061996,49.200199]},"properties":{"url:moreinfo":"http:\/\/foodtree.com\/sources\/193","address":"115-1711 Valmont Way, Richmond, BC, Canada","title":"Port Hardy Seafoods"}},{"type":"Feature","geometry":{"type":"Point","coordinates":[-123.134003,49.205399]},"properties":{"url:moreinfo":"http:\/\/foodtree.com\/sources\/27","address":"8815 Selkirk St., Vancouver, British Columbia, Canada","title":"Blackberry Hill Farm"}},{"type":"Feature","geometry":{"type":"Point","coordinates":[-122.922997,49.214901]},"properties":{"url:moreinfo":"http:\/\/foodtree.com\/sources\/6029","address":"304-720 6th Street, New Westminster, British Columbia, Canada, V3L 3C5","title":"Gary's Kettlecorn"}},{"type":"Feature","geometry":{"type":"Point","coordinates":[-123.080002,49.155602]},"properties":{"url:moreinfo":"http:\/\/foodtree.com\/sources\/176","address":"13051 Blundell Road, Richmond, BC, Canada","title":"Canwest Farms Ltd"}},{"type":"Feature","geometry":{"type":"Point","coordinates":[-127.648003,53.7267]},"properties":{"url:moreinfo":"http:\/\/foodtree.com\/sources\/69","address":"White Rock  , British Columbia, Canada","title":"Jane's Honey Bees"}},{"type":"Feature","geometry":{"type":"Point","coordinates":[-122.316002,49.0089]},"properties":{"url:moreinfo":"http:\/\/foodtree.com\/sources\/18","address":"333 Gladwin Road, Abbotsford  , British Columbia, Canada","title":"Apple Barn Pumpkin Farm"}},{"type":"Feature","geometry":{"type":"Point","coordinates":[-123.113998,49.2612]},"properties":{"url:moreinfo":"http:\/\/foodtree.com\/sources\/80","address":"Vancouver , British Columbia, Canada","title":"Maples Sugar Shack"}},{"type":"Feature","geometry":{"type":"Point","coordinates":[-122.875999,49.0355]},"properties":{"url:moreinfo":"http:\/\/foodtree.com\/sources\/14","address":"P.O. Box 45040, PRO Ocean Park, Surrey, British Columbia, Canada","title":"Aji Gourmet Products"}},{"type":"Feature","geometry":{"type":"Point","coordinates":[-127.648003,53.7267]},"properties":{"url:moreinfo":"http:\/\/foodtree.com\/sources\/372","address":"British Columbia, Canada","title":"Sweet Thea"}},{"type":"Feature","geometry":{"type":"Point","coordinates":[-121.860001,49.147202]},"properties":{"url:moreinfo":"http:\/\/foodtree.com\/sources\/44","address":"49350 Prairie Central rd, Chilliwack , British Columbia, Canada","title":"Forstbauer Family Natural Food Farm"}},{"type":"Feature","geometry":{"type":"Point","coordinates":[-119.634003,49.573399]},"properties":{"url:moreinfo":"http:\/\/foodtree.com\/sources\/173","address":"6200 Miltimore Ave, Summerland  , British Columbia, Canada","title":"Golden West Farms"}},{"type":"Feature","geometry":{"type":"Point","coordinates":[-122.912003,49.200199]},"properties":{"url:moreinfo":"http:\/\/foodtree.com\/sources\/165","address":"810 Quayside Drive, New Westminster, British Columbia, Canada, V3M 6Z6","title":"Royal City Farmers Market"}}],"properties":{"title":"Royal City Farmers Market"}}