{"type":"FeatureCollection","features":[{"type":"Feature","geometry":{"type":"Point","coordinates":[-123,49]},"properties":{"url:moreinfo":"http:\/\/foodtree.com\/sources\/87","address":"789 Drake St., Vancouver, British Columbia, Canada","title":"Old McDonalds Farm number 87"}},{"type":"Feature","geometry":{"type":"Point","coordinates":[-123,49]},"properties":{"url:moreinfo":"http:\/\/foodtree.com\/sources\/86","address":"789 Drake St., Vancouver, British Columbia, Canada","title":"Old McDonalds Farm number 86"}},{"type":"Feature","geometry":{"type":"Point","coordinates":[-123,49]},"properties":{"url:moreinfo":"http:\/\/foodtree.com\/sources\/85","address":"789 Drake St., Vancouver, British Columbia, Canada","title":"Old McDonalds Farm number 85"}},{"type":"Feature","geometry":{"type":"Point","coordinates":[-123,49]},"properties":{"url:moreinfo":"http:\/\/foodtree.com\/sources\/84","address":"789 Drake St., Vancouver, British Columbia, Canada","title":"Old McDonalds Farm number 84"}},{"type":"Feature","geometry":{"type":"Point","coordinates":[-123,49]},"properties":{"url:moreinfo":"http:\/\/foodtree.com\/sources\/83","address":"789 Drake St., Vancouver, British Columbia, Canada","title":"Old McDonalds Farm number 83"}},{"type":"Feature","geometry":{"type":"Point","coordinates":[-123,49]},"properties":{"url:moreinfo":"http:\/\/foodtree.com\/sources\/82","address":"789 Drake St., Vancouver, British Columbia, Canada","title":"Old McDonalds Farm number 82"}},{"type":"Feature","geometry":{"type":"Point","coordinates":[-123,49]},"properties":{"url:moreinfo":"http:\/\/foodtree.com\/sources\/81","address":"789 Drake St., Vancouver, British Columbia, Canada","title":"Old McDonalds Farm number 81"}},{"type":"Feature","geometry":{"type":"Point","coordinates":[-123,49]},"properties":{"url:moreinfo":"http:\/\/foodtree.com\/sources\/80","address":"789 Drake St., Vancouver, British Columbia, Canada","title":"Old McDonalds Farm number 80"}},{"type":"Feature","geometry":{"type":"Point","coordinates":[-123,49]},"properties":{"url:moreinfo":"http:\/\/foodtree.com\/sources\/79","address":"789 Drake St., Vancouver, British Columbia, Canada","title":"Old McDonalds Farm number 79"}},{"type":"Feature","geometry":{"type":"Point","coordinates":[-123,49]},"properties":{"url:moreinfo":"http:\/\/foodtree.com\/sources\/78","address":"789 Drake St., Vancouver, British Columbia, Canada","title":"Old McDonalds Farm number 78"}},{"type":"Feature","geometry":{"type":"Point","coordinates":[-123,49]},"properties":{"url:moreinfo":"http:\/\/foodtree.com\/sources\/77","address":"789 Drake St., Vancouver, British Columbia, Canada","title":"Old McDonalds Farm number 77"}}],"properties":{"title":"Red Beard's 5 Treasure Map"}}