{"type":"FeatureCollection","features":[{"type":"Feature","geometry":{"type":"Point","coordinates":[-87.6285,41.9059]},"properties":{"url:moreinfo":"http:\/\/foodtree.com\/sources\/7474","address":"1301 N State Parkway, Chicago, Illinois, USA","title":"Pump Room"}},{"type":"Feature","geometry":{"type":"Point","coordinates":[-87.6306,41.9032]},"properties":{"url:moreinfo":"http:\/\/foodtree.com\/sources\/7468","address":"52 W. Elm Street, Chicago, Illinois, USA","title":"Table Fifty-Two Restaurant"}},{"type":"Feature","geometry":{"type":"Point","coordinates":[-87.6346,41.9155]},"properties":{"url:moreinfo":"http:\/\/foodtree.com\/sources\/7096","address":"1800 N Lincoln Avenue, Chicago, Illinois, USA","title":"Perennial Virant"}},{"type":"Feature","geometry":{"type":"Point","coordinates":[-87.6258,41.8931]},"properties":{"url:moreinfo":"http:\/\/foodtree.com\/sources\/7487","address":"616 North Rush Street, Chicago, Illinois, USA","title":"David Burke's Primehouse"}},{"type":"Feature","geometry":{"type":"Point","coordinates":[-87.6245,41.8638]},"properties":{"url:moreinfo":"http:\/\/foodtree.com\/sources\/7481","address":"1400 South Michigan, Chicago, Illinois, USA","title":"Waffles Chicago"}},{"type":"Feature","geometry":{"type":"Point","coordinates":[-87.6229,41.8989]},"properties":{"url:moreinfo":"http:\/\/foodtree.com\/sources\/7475","address":"875 North Michigan Avenue, Chicago, Illinois, USA","title":"Signature Room at the 95th"}},{"type":"Feature","geometry":{"type":"Point","coordinates":[-87.6226,41.8976]},"properties":{"url:moreinfo":"http:\/\/foodtree.com\/sources\/7469","address":"160 E Pearson Street, Chicago, Illinois, USA","title":"Deca Restaurant + Bar"}},{"type":"Feature","geometry":{"type":"Point","coordinates":[-87.9003,41.8085]},"properties":{"url:moreinfo":"http:\/\/foodtree.com\/sources\/7098","address":"4471 Lawn Avenue, Chicago, Illinois, USA","title":"Vie Restaurant Chicago"}},{"type":"Feature","geometry":{"type":"Point","coordinates":[-87.8025,41.8868]},"properties":{"url:moreinfo":"http:\/\/foodtree.com\/sources\/7194","address":"100 S. Marion Street, Oak Park, Illinois, USA","title":"Marion Street Cheese Market"}},{"type":"Feature","geometry":{"type":"Point","coordinates":[-87.6266,41.8889]},"properties":{"url:moreinfo":"http:\/\/foodtree.com\/sources\/7488","address":"401 N. Wabash Avenue, Chicago, Illinois, USA","title":"Sixteen at Trump International Hotel"}},{"type":"Feature","geometry":{"type":"Point","coordinates":[-87.6432,41.9328]},"properties":{"url:moreinfo":"http:\/\/foodtree.com\/sources\/7482","address":"553 W. Diversey, Chicago, Illinois, USA","title":"2Sparrows"}},{"type":"Feature","geometry":{"type":"Point","coordinates":[-87.6252,41.8992]},"properties":{"url:moreinfo":"http:\/\/foodtree.com\/sources\/7476","address":"120 East Delaware Place, Chicago, Illinois, USA","title":"Seasons Restaurant at the Four Seasons"}},{"type":"Feature","geometry":{"type":"Point","coordinates":[-87.6274,41.8986]},"properties":{"url:moreinfo":"http:\/\/foodtree.com\/sources\/7470","address":"20 East Chestnut Street, Chicago, Illinois, USA","title":"Cafe Des Architectes at Hotel Sofitel"}},{"type":"Feature","geometry":{"type":"Point","coordinates":[-87.6829,41.9101]},"properties":{"url:moreinfo":"http:\/\/foodtree.com\/sources\/7095","address":"2211 West North Avenue, Chicago, Illinois, USA","title":"Birchwood Kitchen"}},{"type":"Feature","geometry":{"type":"Point","coordinates":[-87.662,41.9252]},"properties":{"url:moreinfo":"http:\/\/foodtree.com\/sources\/7489","address":"1337 West Fullerton Avenue , Chicago, Illinois, USA","title":"Trotter's To Go"}},{"type":"Feature","geometry":{"type":"Point","coordinates":[-87.6592,41.9219]},"properties":{"url:moreinfo":"http:\/\/foodtree.com\/sources\/6976","address":"1220 West Webster Avenue, Chicago, Illinois, USA","title":"Floriole Cafe and Bakery"}},{"type":"Feature","geometry":{"type":"Point","coordinates":[-87.6241,41.8913]},"properties":{"url:moreinfo":"http:\/\/foodtree.com\/sources\/7477","address":"505 N. Michigan Avenue, Chicago, Illinois, USA","title":"Michael Jordan's Steakhouse Chicago"}},{"type":"Feature","geometry":{"type":"Point","coordinates":[-87.628,41.891]},"properties":{"url:moreinfo":"http:\/\/foodtree.com\/sources\/7471","address":"505 North State Street, Chicago, Illinois, USA","title":"Sable Kitchen & Bar"}},{"type":"Feature","geometry":{"type":"Point","coordinates":[-87.6309,41.8905]},"properties":{"url:moreinfo":"http:\/\/foodtree.com\/sources\/7081","address":"445 North Clark Street, Chicago, Illinois, USA","title":"Frontera Grill"}},{"type":"Feature","geometry":{"type":"Point","coordinates":[-87.6976,41.9275]},"properties":{"url:moreinfo":"http:\/\/foodtree.com\/sources\/7493","address":"2528 N. California Avenue, Chicago, Illinois, USA","title":"Provenance Food and Wine - Logan Square"}},{"type":"Feature","geometry":{"type":"Point","coordinates":[-87.6255,41.8849]},"properties":{"url:moreinfo":"http:\/\/foodtree.com\/sources\/7491","address":"66 E. Randolph St., Chicago, Illinois, USA","title":"Chicago's Downtown Farmstand"}},{"type":"Feature","geometry":{"type":"Point","coordinates":[-87.6171,41.891]},"properties":{"url:moreinfo":"http:\/\/foodtree.com\/sources\/7490","address":" \u2028401 E. Illinois, Chicago, Illinois, USA","title":"Fox & Obel Gourmet Market"}},{"type":"Feature","geometry":{"type":"Point","coordinates":[-87.6435,41.8843]},"properties":{"url:moreinfo":"http:\/\/foodtree.com\/sources\/7478","address":"619 W Randolph, Chicago, Illinois, USA","title":"Blackbird Restaurant Chicago"}},{"type":"Feature","geometry":{"type":"Point","coordinates":[-87.6577,41.8841]},"properties":{"url:moreinfo":"http:\/\/foodtree.com\/sources\/7472","address":"1235 West Randolph Street, Chicago, Illinois, USA","title":"Ina's Chicago"}},{"type":"Feature","geometry":{"type":"Point","coordinates":[-87.646,41.8346]},"properties":{"url:moreinfo":"http:\/\/foodtree.com\/sources\/7091","address":"3267 S Halsted Street, Chicago, Illinois, USA","title":"Nana Organic"}},{"type":"Feature","geometry":{"type":"Point","coordinates":[-86.1937,38.8641]},"properties":{"url:moreinfo":"http:\/\/foodtree.com\/sources\/6968","address":"8121 W County Rd. 75 South, Medora, Indiana, USA","title":"Burton's Maplewood Farm"}}],"properties":{"title":"Burton's Maplewood Farm - Connections"}}