{"type":"FeatureCollection","features":[{"type":"Feature","geometry":{"type":"Point","coordinates":[-122.480955,46.890714]},"properties":{"url:moreinfo":"http:\/\/foodtree.com\/sources\/7617","urltitle:moreinfo":"Please visit Wilcox Farms, Inc. on Foodtree","address":"40400 Harts Lake Valley Rd, Roy, WA, USA, 98580","title":"Wilcox Farms, Inc."}},{"type":"Feature","geometry":{"type":"Point","coordinates":[-118.353996,47.450199]},"properties":{"url:moreinfo":"http:\/\/foodtree.com\/sources\/7137","urltitle:moreinfo":"Please visit Shepherd's Grain Flour on Foodtree","address":"12996 Kupers Road N, Harrington, Washington, USA, 99134","title":"Shepherd's Grain Flour"}},{"type":"Feature","geometry":{"type":"Point","coordinates":[-74.451797,40.486198]},"properties":{"url:moreinfo":"http:\/\/foodtree.com\/sources\/7680","urltitle:moreinfo":"Please visit Rutgers University on Foodtree","address":"\nNew Brunswick, New Jersey, USA, 08901","title":"Rutgers University"}},{"type":"Feature","geometry":{"type":"Point","coordinates":[-76.861708,40.798983]},"properties":{"url:moreinfo":"http:\/\/foodtree.com\/sources\/10212","urltitle:moreinfo":"Please visit Emma's Food For Life on Foodtree","address":"11 s market st, Selinsgrove, PA, 17870","title":"Emma's Food For Life"}},{"type":"Feature","geometry":{"type":"Point","coordinates":[-117.939003,44.911499]},"properties":{"url:moreinfo":"http:\/\/foodtree.com\/sources\/7553","urltitle:moreinfo":"Please visit Tater, Inc. on Foodtree","address":"Haines, OR, USA, 97833","title":"Tater, Inc."}},{"type":"Feature","geometry":{"type":"Point","coordinates":[-82.092171,39.337546]},"properties":{"url:moreinfo":"http:\/\/foodtree.com\/sources\/10224","urltitle:moreinfo":"Please visit Village Bakery \/ Della Zona \/ Catalyst Cafe on Foodtree","address":"268 East State Street\u00a0\u00a0Athens, Athens, OH, 45701","title":"Village Bakery \/ Della Zona \/ Catalyst Cafe"}},{"type":"Feature","geometry":{"type":"Point","coordinates":[-122.452003,48.946499]},"properties":{"url:moreinfo":"http:\/\/foodtree.com\/sources\/7501","urltitle:moreinfo":"Please visit Enfield Farms, Inc. on Foodtree","address":"Lynden, WA, USA, 98264","title":"Enfield Farms, Inc."}},{"type":"Feature","geometry":{"type":"Point","coordinates":[-75.348227,39.9137]},"properties":{"url:moreinfo":"http:\/\/foodtree.com\/sources\/10218","urltitle:moreinfo":"Please visit Martindale's Natural Market on Foodtree","address":"1172 Baltimore Pike\u00a0\u00a0Springfield, Springfield, 19064","title":"Martindale's Natural Market"}},{"type":"Feature","geometry":{"type":"Point","coordinates":[-122.661003,45.638699]},"properties":{"url:moreinfo":"http:\/\/foodtree.com\/sources\/7650","urltitle:moreinfo":"Please visit Hearth of vancouver on Foodtree","address":"Vancouver, Washington, USA, 98660","title":"Hearth of vancouver"}},{"type":"Feature","geometry":{"type":"Point","coordinates":[-118.343002,46.064602]},"properties":{"url:moreinfo":"http:\/\/foodtree.com\/sources\/7566","urltitle:moreinfo":"Please visit Locati Farms Inc. on Foodtree","address":"Walla Walla, WA, USA, 99362","title":"Locati Farms Inc."}},{"type":"Feature","geometry":{"type":"Point","coordinates":[-117.274002,45.713902]},"properties":{"url:moreinfo":"http:\/\/foodtree.com\/sources\/7541","urltitle:moreinfo":"Please visit Dunham Ranch on Foodtree","address":"Enterprise, OR, USA, 97828","title":"Dunham Ranch"}},{"type":"Feature","geometry":{"type":"Point","coordinates":[-119.553001,47.279301]},"properties":{"url:moreinfo":"http:\/\/foodtree.com\/sources\/6794","urltitle:moreinfo":"Please visit Pure Country Pork on Foodtree","address":"2916 Rd 12.8 NW, Ephrata, Washington, USA, 98823","title":"Pure Country Pork"}},{"type":"Feature","geometry":{"type":"Point","coordinates":[-119.903,46.7379]},"properties":{"url:moreinfo":"http:\/\/foodtree.com\/sources\/7525","urltitle:moreinfo":"Please visit CFA Orchard on Foodtree","address":"Mattawa, WA, USA, 99349","title":"CFA Orchard"}},{"type":"Feature","geometry":{"type":"Point","coordinates":[-123.367996,44.5401]},"properties":{"url:moreinfo":"http:\/\/foodtree.com\/sources\/7664","urltitle:moreinfo":"Please visit Lumos Wine Company on Foodtree","address":"Philomath, Oregon, USA, 97370","title":"Lumos Wine Company"}},{"type":"Feature","geometry":{"type":"Point","coordinates":[-86.4123,42.000198]},"properties":{"url:moreinfo":"http:\/\/foodtree.com\/sources\/6994","urltitle:moreinfo":"Please visit Leaning Shed Farm on Foodtree","address":"1845 Rocky Weed Road, Berrien Springs, Michigan, USA, 49103","title":"Leaning Shed Farm"}},{"type":"Feature","geometry":{"type":"Point","coordinates":[-69.006401,44.4259]},"properties":{"url:moreinfo":"http:\/\/foodtree.com\/sources\/7622","urltitle:moreinfo":"Please visit Belfast Co-op on Foodtree","address":"Belfast, Maine, USA, 04915","title":"Belfast Co-op"}},{"type":"Feature","geometry":{"type":"Point","coordinates":[-117.230003,45.354301]},"properties":{"url:moreinfo":"http:\/\/foodtree.com\/sources\/7513","urltitle:moreinfo":"Please visit Diamond D Farm & Ranch, Inc. on Foodtree","address":"Joseph, OR, USA, 97846","title":"Diamond D Farm & Ranch, Inc."}},{"type":"Feature","geometry":{"type":"Point","coordinates":[-123.262001,44.564602]},"properties":{"url:moreinfo":"http:\/\/foodtree.com\/sources\/7656","urltitle:moreinfo":"Please visit Laughing Planet Cafe - NW 2nd on Foodtree","address":"Corvallis, Oregon, USA, 97330","title":"Laughing Planet Cafe - NW 2nd"}},{"type":"Feature","geometry":{"type":"Point","coordinates":[-122.387001,45.539299]},"properties":{"url:moreinfo":"http:\/\/foodtree.com\/sources\/7614","urltitle:moreinfo":"Please visit Tony Malatesta on Foodtree","address":"Troutdale, Oregon, USA, 97060","title":"Tony Malatesta"}},{"type":"Feature","geometry":{"type":"Point","coordinates":[-92.822197,45.056499]},"properties":{"url:moreinfo":"http:\/\/foodtree.com\/sources\/7518","urltitle:moreinfo":"Please visit Axdahl Farms on Foodtree","address":"Stillwater, MN, USA, 55082","title":"Axdahl Farms"}},{"type":"Feature","geometry":{"type":"Point","coordinates":[-122.235001,47.380901]},"properties":{"url:moreinfo":"http:\/\/foodtree.com\/sources\/7559","urltitle:moreinfo":"Please visit Food Services of America-Kent on Foodtree","address":"Kent, WA, USA, 98032","title":"Food Services of America-Kent"}},{"type":"Feature","geometry":{"type":"Point","coordinates":[-73.697899,42.395401]},"properties":{"url:moreinfo":"http:\/\/foodtree.com\/sources\/5454","urltitle:moreinfo":"Please visit Katchkie Farm on Foodtree","address":"34 Fischer Road Extension, Kinderhook, NY, USA, 12106","title":"Katchkie Farm"}},{"type":"Feature","geometry":{"type":"Point","coordinates":[-93.263802,44.98]},"properties":{"url:moreinfo":"http:\/\/foodtree.com\/sources\/7692","urltitle:moreinfo":"Please visit Wedge Community Co-op on Foodtree","address":"\nMinneapolis, Minnesota, USA, 55405","title":"Wedge Community Co-op"}},{"type":"Feature","geometry":{"type":"Point","coordinates":[-122.676003,45.523499]},"properties":{"url:moreinfo":"http:\/\/foodtree.com\/sources\/7608","urltitle:moreinfo":"Please visit Trapold Farm on Foodtree","address":"Portland, Oregon, USA, 97231","title":"Trapold Farm"}},{"type":"Feature","geometry":{"type":"Point","coordinates":[-122.674004,45.5481]},"properties":{"url:moreinfo":"http:\/\/foodtree.com\/sources\/6803","urltitle:moreinfo":"Please visit Grand Central Baking Co - Fremont on Foodtree","address":"714 N Fremont, Portland, Oregon, USA, 97227","title":"Grand Central Baking Co - Fremont"}},{"type":"Feature","geometry":{"type":"Point","coordinates":[-123.378998,44.245998]},"properties":{"url:moreinfo":"http:\/\/foodtree.com\/sources\/6781","urltitle:moreinfo":"Please visit Cattail Creek Lamb on Foodtree","address":"95363 Grimes Road, Junction City, Oregon, USA, 97448","title":"Cattail Creek Lamb"}},{"type":"Feature","geometry":{"type":"Point","coordinates":[-122.332001,47.606201]},"properties":{"url:moreinfo":"http:\/\/foodtree.com\/sources\/7627","urltitle:moreinfo":"Please visit Cameron Catering on Foodtree","address":"Seattle, Washington, USA, 89107","title":"Cameron Catering"}},{"type":"Feature","geometry":{"type":"Point","coordinates":[-122.676003,45.523499]},"properties":{"url:moreinfo":"http:\/\/foodtree.com\/sources\/7630","urltitle:moreinfo":"Please visit Charlie's Produce - Portland on Foodtree","address":"Portland, Oregon, USA, 97230","title":"Charlie's Produce - Portland"}},{"type":"Feature","geometry":{"type":"Point","coordinates":[-87.906502,43.038898]},"properties":{"url:moreinfo":"http:\/\/foodtree.com\/sources\/7666","urltitle:moreinfo":"Please visit NatureBake on Foodtree","address":"Milwaukie, Wisconsin, USA, 97213","title":"NatureBake"}},{"type":"Feature","geometry":{"type":"Point","coordinates":[-118.706001,47.758801]},"properties":{"url:moreinfo":"http:\/\/foodtree.com\/sources\/7594","urltitle:moreinfo":"Please visit Sheffels Co. on Foodtree","address":"Wilbur, WA, USA, 99185","title":"Sheffels Co."}},{"type":"Feature","geometry":{"type":"Point","coordinates":[-123.805761,39.42088]},"properties":{"url:moreinfo":"http:\/\/foodtree.com\/sources\/7648","urltitle:moreinfo":"Please visit Harvest Market on Foodtree","address":"171 Boatyard Drive, Fort Bragg, CA, USA, 95437","title":"Harvest Market"}},{"type":"Feature","geometry":{"type":"Point","coordinates":[-122.396944,48.561944]},"properties":{"url:moreinfo":"http:\/\/foodtree.com\/sources\/6914","urltitle:moreinfo":"Please visit Taylor Shellfish Farms on Foodtree","address":"130 SE Lynch Road, Bow, WA, USA, 98584","title":"Taylor Shellfish Farms"}},{"type":"Feature","geometry":{"type":"Point","coordinates":[-86.289597,42.377899]},"properties":{"url:moreinfo":"http:\/\/foodtree.com\/sources\/7008","urltitle:moreinfo":"Please visit Seedling Enterprises on Foodtree","address":"6717 11th Avenue, South Haven, Michigan, USA, 49090","title":"Seedling Enterprises"}},{"type":"Feature","geometry":{"type":"Point","coordinates":[-122.239998,47.203201]},"properties":{"url:moreinfo":"http:\/\/foodtree.com\/sources\/7635","urltitle:moreinfo":"Please visit Duck Delivery of WA, Inc. on Foodtree","address":"Sumner, Washington, USA, 98390","title":"Duck Delivery of WA, Inc."}},{"type":"Feature","geometry":{"type":"Point","coordinates":[-122.676003,45.523499]},"properties":{"url:moreinfo":"http:\/\/foodtree.com\/sources\/7670","urltitle:moreinfo":"Please visit Oregon Health & Science University on Foodtree","address":"Portland, Oregon, USA, 97239","title":"Oregon Health & Science University"}},{"type":"Feature","geometry":{"type":"Point","coordinates":[-93.909698,45.6647]},"properties":{"url:moreinfo":"http:\/\/foodtree.com\/sources\/7605","urltitle:moreinfo":"Please visit Svihel Farms, Inc. on Foodtree","address":"Foley, MN, USA, 56329","title":"Svihel Farms, Inc."}},{"type":"Feature","geometry":{"type":"Point","coordinates":[-95.320602,45.193001]},"properties":{"url:moreinfo":"http:\/\/foodtree.com\/sources\/7582","urltitle:moreinfo":"Please visit Pastures A Plenty Co. & Farm on Foodtree","address":"Kerkhoven, MN, USA, 56252","title":"Pastures A Plenty Co. & Farm"}},{"type":"Feature","geometry":{"type":"Point","coordinates":[-122.676003,45.523499]},"properties":{"url:moreinfo":"http:\/\/foodtree.com\/sources\/7636","urltitle:moreinfo":"Please visit Duck Delivery Produce, Inc. on Foodtree","address":"Portland, Oregon, USA, 97211","title":"Duck Delivery Produce, Inc."}},{"type":"Feature","geometry":{"type":"Point","coordinates":[-122.898003,45.1082]},"properties":{"url:moreinfo":"http:\/\/foodtree.com\/sources\/7576","urltitle:moreinfo":"Please visit Pearmine Farms, Inc. on Foodtree","address":"Gervais, OR, USA, 97026","title":"Pearmine Farms, Inc."}},{"type":"Feature","geometry":{"type":"Point","coordinates":[-76.989197,38.6861]},"properties":{"url:moreinfo":"http:\/\/foodtree.com\/sources\/7580","urltitle:moreinfo":"Please visit One Straw Farm, LLC on Foodtree","address":"White Hall, MD, USA, 21161","title":"One Straw Farm, LLC"}},{"type":"Feature","geometry":{"type":"Point","coordinates":[-108.542,46.445202]},"properties":{"url:moreinfo":"http:\/\/foodtree.com\/sources\/7546","urltitle:moreinfo":"Please visit Milton Ranch LLP on Foodtree","address":"Roundup, MT, USA, 59072","title":"Milton Ranch LLP"}},{"type":"Feature","geometry":{"type":"Point","coordinates":[-122.57,38.107399]},"properties":{"url:moreinfo":"http:\/\/foodtree.com\/sources\/3889","urltitle:moreinfo":"Please visit Brownstone Restaurant on Foodtree","address":"118 Victoria St, Novato, California, USA, 94945","title":"Brownstone Restaurant"}},{"type":"Feature","geometry":{"type":"Point","coordinates":[-123.086998,44.052101]},"properties":{"url:moreinfo":"http:\/\/foodtree.com\/sources\/7654","urltitle:moreinfo":"Please visit Laughing Planet Cafe - Blair Blvd on Foodtree","address":"Eugene, Oregon, USA, 97402","title":"Laughing Planet Cafe - Blair Blvd"}},{"type":"Feature","geometry":{"type":"Point","coordinates":[-122.444,47.252899]},"properties":{"url:moreinfo":"http:\/\/foodtree.com\/sources\/7672","urltitle:moreinfo":"Please visit Pacific Lutheran University Dining Services on Foodtree","address":"Tacoma, Washington, USA, 98447","title":"Pacific Lutheran University Dining Services"}},{"type":"Feature","geometry":{"type":"Point","coordinates":[-122.202003,47.979]},"properties":{"url:moreinfo":"http:\/\/foodtree.com\/sources\/7558","urltitle:moreinfo":"Please visit Food Services of America-Everett on Foodtree","address":"Everett, WA, USA, 98203","title":"Food Services of America-Everett"}},{"type":"Feature","geometry":{"type":"Point","coordinates":[-92.797888,44.819972]},"properties":{"url:moreinfo":"http:\/\/foodtree.com\/sources\/10225","urltitle:moreinfo":"Please visit Whistling Well Farm on Foodtree","address":"8973 Saint Croix Trl, Hastings, MN, 55033","title":"Whistling Well Farm"}},{"type":"Feature","geometry":{"type":"Point","coordinates":[-122.607002,45.3573]},"properties":{"url:moreinfo":"http:\/\/foodtree.com\/sources\/7588","urltitle:moreinfo":"Please visit Siri Produce, Inc on Foodtree","address":"Oregon City, OR, USA, 97045","title":"Siri Produce, Inc"}},{"type":"Feature","geometry":{"type":"Point","coordinates":[-76.788002,41.7859]},"properties":{"url:moreinfo":"http:\/\/foodtree.com\/sources\/7567","urltitle:moreinfo":"Please visit Milky Way Farms (farm) on Foodtree","address":"Troy, PA, USA, 16947","title":"Milky Way Farms (farm)"}},{"type":"Feature","geometry":{"type":"Point","coordinates":[-75.163803,39.952301]},"properties":{"url:moreinfo":"http:\/\/foodtree.com\/sources\/7637","urltitle:moreinfo":"Please visit Earth - Bread + Brewery on Foodtree","address":" \nPhiladelphia, Pennsylvania, USA, 19119","title":"Earth - Bread + Brewery"}},{"type":"Feature","geometry":{"type":"Point","coordinates":[-122.901001,47.037899]},"properties":{"url:moreinfo":"http:\/\/foodtree.com\/sources\/7530","urltitle:moreinfo":"Please visit Chelsea Farms LLC on Foodtree","address":"Olympia, WA, USA, 98502","title":"Chelsea Farms LLC"}},{"type":"Feature","geometry":{"type":"Point","coordinates":[-93.217697,44.731899]},"properties":{"url:moreinfo":"http:\/\/foodtree.com\/sources\/7581","urltitle:moreinfo":"Please visit Pahl Farms, Inc. on Foodtree","address":"Apple Valley, MN, USA, 55124","title":"Pahl Farms, Inc."}},{"type":"Feature","geometry":{"type":"Point","coordinates":[-117.237999,43.982101]},"properties":{"url:moreinfo":"http:\/\/foodtree.com\/sources\/7534","urltitle:moreinfo":"Please visit Cedar Park Grazing on Foodtree","address":"Vale, OR, USA, 97918","title":"Cedar Park Grazing"}},{"type":"Feature","geometry":{"type":"Point","coordinates":[-77.025902,42.858398]},"properties":{"url:moreinfo":"http:\/\/foodtree.com\/sources\/5538","urltitle:moreinfo":"Please visit Red Jacket Orchards on Foodtree","address":"957 Route 5, Geneva, NY, USA, 14456","title":"Red Jacket Orchards"}},{"type":"Feature","geometry":{"type":"Point","coordinates":[-122.040001,37.529701]},"properties":{"url:moreinfo":"http:\/\/foodtree.com\/sources\/7642","urltitle:moreinfo":"Please visit Full Bloom Baking Co Inc on Foodtree","address":"\nNewark, California, USA, 94560","title":"Full Bloom Baking Co Inc"}},{"type":"Feature","geometry":{"type":"Point","coordinates":[-122.676003,45.523499]},"properties":{"url:moreinfo":"http:\/\/foodtree.com\/sources\/7660","urltitle:moreinfo":"Please visit Laughing Planet Cafe - Woodstock Blvd on Foodtree","address":"Portland, Oregon, USA, 97202","title":"Laughing Planet Cafe - Woodstock Blvd"}},{"type":"Feature","geometry":{"type":"Point","coordinates":[-118.709999,44.4632]},"properties":{"url:moreinfo":"http:\/\/foodtree.com\/sources\/7502","urltitle:moreinfo":"Please visit Field's Grassfed Beef on Foodtree","address":"Prairie City, OR, USA, 97869","title":"Field's Grassfed Beef"}},{"type":"Feature","geometry":{"type":"Point","coordinates":[-123.139999,44.063099]},"properties":{"url:moreinfo":"http:\/\/foodtree.com\/sources\/6825","urltitle:moreinfo":"Please visit GloryBee Foods on Foodtree","address":"120 N. Seneca Rd, Eugene, Oregon, USA, 97402","title":"GloryBee Foods"}},{"type":"Feature","geometry":{"type":"Point","coordinates":[-117.904999,47.2015]},"properties":{"url:moreinfo":"http:\/\/foodtree.com\/sources\/7597","urltitle:moreinfo":"Please visit Swannack Enterprises, Inc. on Foodtree","address":"Lamont, WA, USA, 99017","title":"Swannack Enterprises, Inc."}},{"type":"Feature","geometry":{"type":"Point","coordinates":[-123.367996,44.5401]},"properties":{"url:moreinfo":"http:\/\/foodtree.com\/sources\/7568","urltitle:moreinfo":"Please visit Temperance Hill Vineyard on Foodtree","address":"Philomath, OR, USA, 97370","title":"Temperance Hill Vineyard"}},{"type":"Feature","geometry":{"type":"Point","coordinates":[-92.772499,45.198898]},"properties":{"url:moreinfo":"http:\/\/foodtree.com\/sources\/7570","urltitle:moreinfo":"Please visit Natura Farms, LLC on Foodtree","address":"Marine on Saint Croix, MN, USA, 55047","title":"Natura Farms, LLC"}},{"type":"Feature","geometry":{"type":"Point","coordinates":[-111.552002,45.892399]},"properties":{"url:moreinfo":"http:\/\/foodtree.com\/sources\/7693","urltitle:moreinfo":"Please visit Wheat Montana Farms & Commercial Bakery on Foodtree","address":"Three Forks, Montana, USA, 59752","title":"Wheat Montana Farms & Commercial Bakery"}},{"type":"Feature","geometry":{"type":"Point","coordinates":[-124.483162,42.820109]},"properties":{"url:moreinfo":"http:\/\/foodtree.com\/sources\/11034","urltitle:moreinfo":"Please visit Seaview Cranberries, Inc. on Foodtree","address":"Box 281, Sixes, OR, USA, 97476","title":"Seaview Cranberries, Inc."}},{"type":"Feature","geometry":{"type":"Point","coordinates":[-117.18,46.7313]},"properties":{"url:moreinfo":"http:\/\/foodtree.com\/sources\/7596","urltitle:moreinfo":"Please visit Steve & Kevin Mader, GP on Foodtree","address":"Pullman, WA, USA, 99163","title":"Steve & Kevin Mader, GP"}},{"type":"Feature","geometry":{"type":"Point","coordinates":[-122.625,45.5121]},"properties":{"url:moreinfo":"http:\/\/foodtree.com\/sources\/5952","urltitle:moreinfo":"Please visit Pastaworks Hawthorne on Foodtree","address":"3735 SE Hawthorne Blvd, Portland, Oregon, United States, 97214","title":"Pastaworks Hawthorne"}},{"type":"Feature","geometry":{"type":"Point","coordinates":[-122.607002,45.3573]},"properties":{"url:moreinfo":"http:\/\/foodtree.com\/sources\/7526","urltitle:moreinfo":"Please visit Cal Farms, LLC on Foodtree","address":"Oregon City, Oregon, USA, 97045","title":"Cal Farms, LLC"}},{"type":"Feature","geometry":{"type":"Point","coordinates":[-122.634968,45.496994]},"properties":{"url:moreinfo":"http:\/\/foodtree.com\/sources\/7651","urltitle:moreinfo":"Please visit Hopworks Urban Brewery on Foodtree","address":"2944 SE Powell Blvd, Portland, Oregon, USA, 97202","title":"Hopworks Urban Brewery"}},{"type":"Feature","geometry":{"type":"Point","coordinates":[-122.658997,45.557301]},"properties":{"url:moreinfo":"http:\/\/foodtree.com\/sources\/2557","urltitle:moreinfo":"Please visit King Portland Farmers Market on Foodtree","address":"NE 7th & Wygant, Multnomah, Portland, OREGON, USA, 97211","title":"King Portland Farmers Market"}},{"type":"Feature","geometry":{"type":"Point","coordinates":[-76.305496,40.037899]},"properties":{"url:moreinfo":"http:\/\/foodtree.com\/sources\/7685","urltitle:moreinfo":"Please visit Sodexo @ Franklin and Marshall College on Foodtree","address":"Lancaster, Pennsylvania, USA, 17603","title":"Sodexo @ Franklin and Marshall College"}},{"type":"Feature","geometry":{"type":"Point","coordinates":[-119.630997,46.901001]},"properties":{"url:moreinfo":"http:\/\/foodtree.com\/sources\/7506","urltitle:moreinfo":"Please visit Monarch Orchard on Foodtree","address":"Royal City, WA, USA, 99357","title":"Monarch Orchard"}},{"type":"Feature","geometry":{"type":"Point","coordinates":[-123.831001,46.187901]},"properties":{"url:moreinfo":"http:\/\/foodtree.com\/sources\/7641","urltitle:moreinfo":"Please visit Fulio's Pastaria, Tuscan Steak House & Delicatessan on Foodtree","address":"\nAstoria, Oregon, USA, 97103","title":"Fulio's Pastaria, Tuscan Steak House & Delicatessan"}},{"type":"Feature","geometry":{"type":"Point","coordinates":[-115.464996,42.945801]},"properties":{"url:moreinfo":"http:\/\/foodtree.com\/sources\/7543","urltitle:moreinfo":"Please visit Howard Ranch on Foodtree","address":"Hammett, ID, USA, 83627","title":"Howard Ranch"}},{"type":"Feature","geometry":{"type":"Point","coordinates":[-117.087997,46.539299]},"properties":{"url:moreinfo":"http:\/\/foodtree.com\/sources\/7600","urltitle:moreinfo":"Please visit Wolf Corporate Farms on Foodtree","address":"Uniontown, WA, USA, 99179","title":"Wolf Corporate Farms"}},{"type":"Feature","geometry":{"type":"Point","coordinates":[-122.676003,45.523499]},"properties":{"url:moreinfo":"http:\/\/foodtree.com\/sources\/7681","urltitle:moreinfo":"Please visit Safeway - Portland (Lovejoy) on Foodtree","address":"Portland, Oregon, USA, 97209","title":"Safeway - Portland (Lovejoy)"}},{"type":"Feature","geometry":{"type":"Point","coordinates":[-122.653,45.467201]},"properties":{"url:moreinfo":"http:\/\/foodtree.com\/sources\/6802","urltitle:moreinfo":"Please visit Grand Central Baking Co - Sellwood on Foodtree","address":"7897 SE 13th, Portland, Oregon, USA, 97202","title":"Grand Central Baking Co - Sellwood"}},{"type":"Feature","geometry":{"type":"Point","coordinates":[-122.676003,45.523499]},"properties":{"url:moreinfo":"http:\/\/foodtree.com\/sources\/7623","urltitle:moreinfo":"Please visit Better Bean Company on Foodtree","address":"Portland, Oregon, USA, 97201","title":"Better Bean Company"}},{"type":"Feature","geometry":{"type":"Point","coordinates":[-117.426003,47.658798]},"properties":{"url:moreinfo":"http:\/\/foodtree.com\/sources\/7665","urltitle:moreinfo":"Please visit Main Market Co-op on Foodtree","address":"Spokane, Washington, USA, 99201","title":"Main Market Co-op"}},{"type":"Feature","geometry":{"type":"Point","coordinates":[-123.035004,44.942902]},"properties":{"url:moreinfo":"http:\/\/foodtree.com\/sources\/7609","urltitle:moreinfo":"Please visit Truitt Brothers, Inc. on Foodtree","address":"Salem, Oregon, USA, 97301","title":"Truitt Brothers, Inc."}},{"type":"Feature","geometry":{"type":"Point","coordinates":[-122.324997,47.6343]},"properties":{"url:moreinfo":"http:\/\/foodtree.com\/sources\/6805","urltitle:moreinfo":"Please visit Grand Central Baking Co - Eastlake on Foodtree","address":"1616 Eastlake Avenue E, Seattle, Washington, USA, 98102","title":"Grand Central Baking Co - Eastlake"}},{"type":"Feature","geometry":{"type":"Point","coordinates":[-122.398587,37.761824]},"properties":{"url:moreinfo":"http:\/\/foodtree.com\/sources\/7601","urltitle:moreinfo":"Please visit Stone-Buhr Flour Company on Foodtree","address":"PO Box 77321, San Francisco, CA, USA, 94107","title":"Stone-Buhr Flour Company"}},{"type":"Feature","geometry":{"type":"Point","coordinates":[-122.855003,45.1437]},"properties":{"url:moreinfo":"http:\/\/foodtree.com\/sources\/7572","urltitle:moreinfo":"Please visit Fessler Farms, Inc. on Foodtree","address":"Woodburn, OR, USA, 97071","title":"Fessler Farms, Inc."}},{"type":"Feature","geometry":{"type":"Point","coordinates":[-122.324997,48.4757]},"properties":{"url:moreinfo":"http:\/\/foodtree.com\/sources\/7586","urltitle:moreinfo":"Please visit Sakuma Bros., Inc. on Foodtree","address":"Burlington, WA, USA, 98233","title":"Sakuma Bros., Inc."}},{"type":"Feature","geometry":{"type":"Point","coordinates":[-122.711998,45.467098]},"properties":{"url:moreinfo":"http:\/\/foodtree.com\/sources\/6800","urltitle:moreinfo":"Please visit Grand Central Baking Co - Multnomah on Foodtree","address":"3425 SW Multnomah Blvd, Portland, Oregon, USA, 97219","title":"Grand Central Baking Co - Multnomah"}},{"type":"Feature","geometry":{"type":"Point","coordinates":[-123.198997,45.210098]},"properties":{"url:moreinfo":"http:\/\/foodtree.com\/sources\/7531","urltitle:moreinfo":"Please visit Christensen Farms on Foodtree","address":"McMinnville, Oregon, USA, 97128","title":"Christensen Farms"}},{"type":"Feature","geometry":{"type":"Point","coordinates":[-123.059998,43.7976]},"properties":{"url:moreinfo":"http:\/\/foodtree.com\/sources\/7611","urltitle:moreinfo":"Please visit Hawley Land And Cattle Company on Foodtree","address":"Cottage Grove, Oregon, USA, 97424","title":"Hawley Land And Cattle Company"}},{"type":"Feature","geometry":{"type":"Point","coordinates":[-120.419998,46.447601]},"properties":{"url:moreinfo":"http:\/\/foodtree.com\/sources\/7678","urltitle:moreinfo":"Please visit Pride Packing Co. on Foodtree","address":"Wapato, Washington, USA, 98951","title":"Pride Packing Co."}},{"type":"Feature","geometry":{"type":"Point","coordinates":[-123.106003,44.636501]},"properties":{"url:moreinfo":"http:\/\/foodtree.com\/sources\/7514","urltitle:moreinfo":"Please visit 6 Ranch on Foodtree","address":"Albany, Oregon, USA, 97828","title":"6 Ranch"}},{"type":"Feature","geometry":{"type":"Point","coordinates":[-100.404999,48.345798]},"properties":{"url:moreinfo":"http:\/\/foodtree.com\/sources\/7554","urltitle:moreinfo":"Please visit Taylor Ranch on Foodtree","address":"Towner, ND, USA, 58788","title":"Taylor Ranch"}},{"type":"Feature","geometry":{"type":"Point","coordinates":[-120.602997,43.813599]},"properties":{"url:moreinfo":"http:\/\/foodtree.com\/sources\/7542","urltitle:moreinfo":"Please visit Hatfield's High Desert Ranch on Foodtree","address":"Brothers, OR, USA, 97712","title":"Hatfield's High Desert Ranch"}},{"type":"Feature","geometry":{"type":"Point","coordinates":[-122.676003,45.523499]},"properties":{"url:moreinfo":"http:\/\/foodtree.com\/sources\/7695","urltitle:moreinfo":"Please visit Zupan's Markets on Foodtree","address":"Portland, Oregon, USA, 97210","title":"Zupan's Markets"}},{"type":"Feature","geometry":{"type":"Point","coordinates":[-122.43,45.500099]},"properties":{"url:moreinfo":"http:\/\/foodtree.com\/sources\/7682","urltitle:moreinfo":"Please visit Scenic Fruit Company on Foodtree","address":"Gresham, Oregon, USA, 97080","title":"Scenic Fruit Company"}},{"type":"Feature","geometry":{"type":"Point","coordinates":[-92.852699,44.735199]},"properties":{"url:moreinfo":"http:\/\/foodtree.com\/sources\/7527","urltitle:moreinfo":"Please visit Carpenter St. Croix Valley Nat. Ctr. on Foodtree","address":"Hastings, MN, USA, 55033","title":"Carpenter St. Croix Valley Nat. Ctr."}},{"type":"Feature","geometry":{"type":"Point","coordinates":[-123.262001,44.564602]},"properties":{"url:moreinfo":"http:\/\/foodtree.com\/sources\/7515","urltitle:moreinfo":"Please visit A2R Farms LLC on Foodtree","address":"Corvallis, Oregon, USA, 97333","title":"A2R Farms LLC"}},{"type":"Feature","geometry":{"type":"Point","coordinates":[-93.009903,45.084702]},"properties":{"url:moreinfo":"http:\/\/foodtree.com\/sources\/7583","urltitle:moreinfo":"Please visit Pine Tree Apple Orchard on Foodtree","address":"White Bear Lake, MN, USA, 55110","title":"Pine Tree Apple Orchard"}},{"type":"Feature","geometry":{"type":"Point","coordinates":[-122.332071,47.60621]},"properties":{"url:moreinfo":"http:\/\/foodtree.com\/sources\/10213","urltitle:moreinfo":"Please visit Food Services of America - Seattle on Foodtree","address":"PO Box 3547, Seattle, WA, 98124","title":"Food Services of America - Seattle"}},{"type":"Feature","geometry":{"type":"Point","coordinates":[-122.871002,44.841]},"properties":{"url:moreinfo":"http:\/\/foodtree.com\/sources\/7574","urltitle:moreinfo":"Please visit Keudell Farms, Inc. on Foodtree","address":"Aumsville, OR, USA, 97325","title":"Keudell Farms, Inc."}},{"type":"Feature","geometry":{"type":"Point","coordinates":[-122.343002,47.4673]},"properties":{"url:moreinfo":"http:\/\/foodtree.com\/sources\/6807","urltitle:moreinfo":"Please visit Grand Central Baking Co - Burien on Foodtree","address":"626 SW 152nd STreet, Burien, Washington, USA, 98166","title":"Grand Central Baking Co - Burien"}},{"type":"Feature","geometry":{"type":"Point","coordinates":[-76.285896,36.8508]},"properties":{"url:moreinfo":"http:\/\/foodtree.com\/sources\/7683","urltitle:moreinfo":"Please visit Seven Corners Exporting on Foodtree","address":"\nNorfolk, Virginia, USA, 23508","title":"Seven Corners Exporting"}},{"type":"Feature","geometry":{"type":"Point","coordinates":[-86.435204,42.013401]},"properties":{"url:moreinfo":"http:\/\/foodtree.com\/sources\/6998","urltitle:moreinfo":"Please visit Mick Klug Farm on Foodtree","address":"5795 Scottdale Rd , St Joseph, Michigan, USA, 49085","title":"Mick Klug Farm"}},{"type":"Feature","geometry":{"type":"Point","coordinates":[-122.639,45.446201]},"properties":{"url:moreinfo":"http:\/\/foodtree.com\/sources\/7652","urltitle:moreinfo":"Please visit La Salle Catholic College Preparatory on Foodtree","address":"Milwaukie, Oregon, USA, 97222","title":"La Salle Catholic College Preparatory"}},{"type":"Feature","geometry":{"type":"Point","coordinates":[-71.371696,41.520302]},"properties":{"url:moreinfo":"http:\/\/foodtree.com\/sources\/7687","urltitle:moreinfo":"Please visit The Shack At Dutch Harbor on Foodtree","address":"Jamestown, Rhode Island, USA, 02835","title":"The Shack At Dutch Harbor"}},{"type":"Feature","geometry":{"type":"Point","coordinates":[-90.818199,46.810799]},"properties":{"url:moreinfo":"http:\/\/foodtree.com\/sources\/7561","urltitle:moreinfo":"Please visit Highland Valley Farm, Inc. on Foodtree","address":"Bayfield, WI, USA, 54814","title":"Highland Valley Farm, Inc."}},{"type":"Feature","geometry":{"type":"Point","coordinates":[-119.768997,46.206799]},"properties":{"url:moreinfo":"http:\/\/foodtree.com\/sources\/7603","urltitle:moreinfo":"Please visit Mercer Canyons, Inc. on Foodtree","address":"Prosser, WA, USA, 99350","title":"Mercer Canyons, Inc."}},{"type":"Feature","geometry":{"type":"Point","coordinates":[-122.418999,37.774899]},"properties":{"url:moreinfo":"http:\/\/foodtree.com\/sources\/7504","urltitle:moreinfo":"Please visit Hearst Ranch Beef on Foodtree","address":"San Francisco, CA, USA, 94103","title":"Hearst Ranch Beef"}},{"type":"Feature","geometry":{"type":"Point","coordinates":[-123.010002,44.719601]},"properties":{"url:moreinfo":"http:\/\/foodtree.com\/sources\/7516","urltitle:moreinfo":"Please visit AMR Farms on Foodtree","address":"Jefferson, Oregon, USA, 97352","title":"AMR Farms"}},{"type":"Feature","geometry":{"type":"Point","coordinates":[-105.084,40.5853]},"properties":{"url:moreinfo":"http:\/\/foodtree.com\/sources\/7638","urltitle:moreinfo":"Please visit FishChoice Inc. on Foodtree","address":"Fort Collins, Colorado, USA, 80522","title":"FishChoice Inc."}},{"type":"Feature","geometry":{"type":"Point","coordinates":[-123.286003,44.189602]},"properties":{"url:moreinfo":"http:\/\/foodtree.com\/sources\/7610","urltitle:moreinfo":"Please visit Eric Freepons on Foodtree","address":"Cheshire, Oregon, USA, 97419","title":"Eric Freepons"}},{"type":"Feature","geometry":{"type":"Point","coordinates":[-122.676003,45.523499]},"properties":{"url:moreinfo":"http:\/\/foodtree.com\/sources\/7667","urltitle:moreinfo":"Please visit New Seasons Market North Vancouver Ave on Foodtree","address":"Portland, Oregon, USA, 97227","title":"New Seasons Market North Vancouver Ave"}},{"type":"Feature","geometry":{"type":"Point","coordinates":[-122.900571,45.167602]},"properties":{"url:moreinfo":"http:\/\/foodtree.com\/sources\/10219","urltitle:moreinfo":"Please visit Mike Haener Farms on Foodtree","address":"7938 Crosby RD NE, Woodburn, OR, 97071","title":"Mike Haener Farms"}},{"type":"Feature","geometry":{"type":"Point","coordinates":[-88.511902,42.7537]},"properties":{"url:moreinfo":"http:\/\/foodtree.com\/sources\/6972","urltitle:moreinfo":"Please visit Dietzler Farms on Foodtree","address":"W4222 County Rd A, Elkhorn, Wisconsin, USA, 53121","title":"Dietzler Farms"}},{"type":"Feature","geometry":{"type":"Point","coordinates":[-119.630997,46.901001]},"properties":{"url:moreinfo":"http:\/\/foodtree.com\/sources\/7616","urltitle:moreinfo":"Please visit Westhill Orchard on Foodtree","address":"Royal City, WA, USA, 99357","title":"Westhill Orchard"}},{"type":"Feature","geometry":{"type":"Point","coordinates":[-122.676003,45.523499]},"properties":{"url:moreinfo":"http:\/\/foodtree.com\/sources\/7653","urltitle:moreinfo":"Please visit Laughing Planet Cafe - Belmont St on Foodtree","address":"Portland, Oregon, USA, 97214","title":"Laughing Planet Cafe - Belmont St"}},{"type":"Feature","geometry":{"type":"Point","coordinates":[-122.470001,38.505199]},"properties":{"url:moreinfo":"http:\/\/foodtree.com\/sources\/7532","urltitle:moreinfo":"Please visit Clif Family Winery and Farm on Foodtree","address":"St. Helena, CA, USA, 94558","title":"Clif Family Winery and Farm"}},{"type":"Feature","geometry":{"type":"Point","coordinates":[-123.106003,44.636501]},"properties":{"url:moreinfo":"http:\/\/foodtree.com\/sources\/7612","urltitle:moreinfo":"Please visit Tony Wahl on Foodtree","address":"Albany, Oregon, USA, 97322","title":"Tony Wahl"}},{"type":"Feature","geometry":{"type":"Point","coordinates":[-94.379303,44.8876]},"properties":{"url:moreinfo":"http:\/\/foodtree.com\/sources\/7528","urltitle:moreinfo":"Please visit Cedar Hill Orchard, LLC on Foodtree","address":"Hutchinson, MN, USA, 55350","title":"Cedar Hill Orchard, LLC"}},{"type":"Feature","geometry":{"type":"Point","coordinates":[-117.972,46.323799]},"properties":{"url:moreinfo":"http:\/\/foodtree.com\/sources\/7598","urltitle:moreinfo":"Please visit Thorn, Incorporated on Foodtree","address":"Dayton, WA, USA, 99328","title":"Thorn, Incorporated"}},{"type":"Feature","geometry":{"type":"Point","coordinates":[-73.203697,42.712002]},"properties":{"url:moreinfo":"http:\/\/foodtree.com\/sources\/7694","urltitle:moreinfo":"Please visit Williams College on Foodtree","address":" \nWilliamstown, Massachusetts, USA, 01267","title":"Williams College"}},{"type":"Feature","geometry":{"type":"Point","coordinates":[-122.690002,45.524899]},"properties":{"url:moreinfo":"http:\/\/foodtree.com\/sources\/2565","urltitle:moreinfo":"Please visit Portland Farmers Market - Northwest on Foodtree","address":"NW 19th Ave & NW Everett St, Multnomah, Portland, OREGON, USA, 97210","title":"Portland Farmers Market - Northwest"}},{"type":"Feature","geometry":{"type":"Point","coordinates":[-121.865997,42.577599]},"properties":{"url:moreinfo":"http:\/\/foodtree.com\/sources\/7555","urltitle:moreinfo":"Please visit Yamsi Ranch on Foodtree","address":"Chiloquin, OR, USA, 97624","title":"Yamsi Ranch"}},{"type":"Feature","geometry":{"type":"Point","coordinates":[-122.676003,45.523499]},"properties":{"url:moreinfo":"http:\/\/foodtree.com\/sources\/7624","urltitle:moreinfo":"Please visit Bon Appetit - Adidas on Foodtree","address":"Portland, Oregon, USA, 97217","title":"Bon Appetit - Adidas"}},{"type":"Feature","geometry":{"type":"Point","coordinates":[-122.646004,45.514301]},"properties":{"url:moreinfo":"http:\/\/foodtree.com\/sources\/2552","urltitle:moreinfo":"Please visit Portland Farmers Market - Buckman on Foodtree","address":"SE Salmon St & SE 20th Ave, Multnomah, Portland, OREGON, USA, 97214","title":"Portland Farmers Market - Buckman"}},{"type":"Feature","geometry":{"type":"Point","coordinates":[-112.842003,49.693501]},"properties":{"url:moreinfo":"http:\/\/foodtree.com\/sources\/7508","urltitle:moreinfo":"Please visit Pura Vida Farm Ltd. on Foodtree","address":"Lethbridge, AB, Canada, T1K 6Z8 ","title":"Pura Vida Farm Ltd."}},{"type":"Feature","geometry":{"type":"Point","coordinates":[-122.661003,45.638699]},"properties":{"url:moreinfo":"http:\/\/foodtree.com\/sources\/7625","urltitle:moreinfo":"Please visit Burgerville, Inc. on Foodtree","address":"Vancouver, Washington, USA, 98660","title":"Burgerville, Inc."}},{"type":"Feature","geometry":{"type":"Point","coordinates":[-122.709,42.194599]},"properties":{"url:moreinfo":"http:\/\/foodtree.com\/sources\/7639","urltitle:moreinfo":"Please visit Foggy Mountain on Foodtree","address":"Ashland, Oregon, USA, 97520","title":"Foggy Mountain"}},{"type":"Feature","geometry":{"type":"Point","coordinates":[-119.289001,45.840401]},"properties":{"url:moreinfo":"http:\/\/foodtree.com\/sources\/7503","urltitle:moreinfo":"Please visit Finley's Fresh Produce, LLC on Foodtree","address":"Hermiston, OR, USA, 97838","title":"Finley's Fresh Produce, LLC"}},{"type":"Feature","geometry":{"type":"Point","coordinates":[-122.452003,48.946499]},"properties":{"url:moreinfo":"http:\/\/foodtree.com\/sources\/7520","urltitle:moreinfo":"Please visit Bellewood Acres on Foodtree","address":"Lynden, WA, USA, 98264","title":"Bellewood Acres"}},{"type":"Feature","geometry":{"type":"Point","coordinates":[-119.528999,49.316601]},"properties":{"url:moreinfo":"http:\/\/foodtree.com\/sources\/8390","urltitle:moreinfo":"Please visit Blue Mountain Vineyard on Foodtree","address":"2385 Allendale Road, Okanagen, British Columbia, Canada, V0H1R2","title":"Blue Mountain Vineyard"}},{"type":"Feature","geometry":{"type":"Point","coordinates":[-122.142998,37.441898]},"properties":{"url:moreinfo":"http:\/\/foodtree.com\/sources\/7544","urltitle:moreinfo":"Please visit Jurassic Kahili Ranch LLC on Foodtree","address":"Palo Alto, CA, USA, 94301","title":"Jurassic Kahili Ranch LLC"}},{"type":"Feature","geometry":{"type":"Point","coordinates":[-121.464996,45.714802]},"properties":{"url:moreinfo":"http:\/\/foodtree.com\/sources\/7556","urltitle:moreinfo":"Please visit Dickey Farms on Foodtree","address":"Bingen, WA, USA, 98605","title":"Dickey Farms"}},{"type":"Feature","geometry":{"type":"Point","coordinates":[-122.676003,45.523499]},"properties":{"url:moreinfo":"http:\/\/foodtree.com\/sources\/7688","urltitle:moreinfo":"Please visit United Salad Co. on Foodtree","address":"Portland, Oregon, USA, 97211","title":"United Salad Co."}},{"type":"Feature","geometry":{"type":"Point","coordinates":[-82.101303,39.329201]},"properties":{"url:moreinfo":"http:\/\/foodtree.com\/sources\/7645","urltitle:moreinfo":"Please visit H. Brooks and Company - Athens on Foodtree","address":"Athens, Ohio, USA, 45701","title":"H. Brooks and Company - Athens"}},{"type":"Feature","geometry":{"type":"Point","coordinates":[-117.882004,46.813999]},"properties":{"url:moreinfo":"http:\/\/foodtree.com\/sources\/7589","urltitle:moreinfo":"Please visit C Farms on Foodtree","address":"LaCrosse, WA, USA, 99143","title":"C Farms"}},{"type":"Feature","geometry":{"type":"Point","coordinates":[-119.852997,47.234299]},"properties":{"url:moreinfo":"http:\/\/foodtree.com\/sources\/7629","urltitle:moreinfo":"Please visit Central Bean Company on Foodtree","address":"Quincy, Washington, USA, 98848","title":"Central Bean Company"}},{"type":"Feature","geometry":{"type":"Point","coordinates":[-82.324799,29.6516]},"properties":{"url:moreinfo":"http:\/\/foodtree.com\/sources\/7644","urltitle:moreinfo":"Please visit Gator Dining Services on Foodtree","address":"\nGainesville, Florida, USA, 32611","title":"Gator Dining Services"}},{"type":"Feature","geometry":{"type":"Point","coordinates":[-79.995903,40.440601]},"properties":{"url:moreinfo":"http:\/\/foodtree.com\/sources\/7673","urltitle:moreinfo":"Please visit Parkhurst Dining \/ Eat'n Park Hospitality on Foodtree","address":" \nPittsburgh, Pennsylvania, USA, 15230","title":"Parkhurst Dining \/ Eat'n Park Hospitality"}},{"type":"Feature","geometry":{"type":"Point","coordinates":[-123.169451,44.598514]},"properties":{"url:moreinfo":"http:\/\/foodtree.com\/sources\/7584","urltitle:moreinfo":"Please visit Rain Sheep on Foodtree","address":"35169 Riverside Dr SW, Albany, Oregon, USA, 97321","title":"Rain Sheep"}},{"type":"Feature","geometry":{"type":"Point","coordinates":[-120.547997,46.996498]},"properties":{"url:moreinfo":"http:\/\/foodtree.com\/sources\/7618","urltitle:moreinfo":"Please visit Windy N Ranch on Foodtree","address":"Ellensburg, WA, USA, 98926","title":"Windy N Ranch"}},{"type":"Feature","geometry":{"type":"Point","coordinates":[-77.100122,39.727152]},"properties":{"url:moreinfo":"http:\/\/foodtree.com\/sources\/10222","urltitle:moreinfo":"Please visit Padraic Lee on Foodtree","address":"645 Mengus Mill Rd, Littlestown, PA, 17340","title":"Padraic Lee"}},{"type":"Feature","geometry":{"type":"Point","coordinates":[-122.676003,45.523499]},"properties":{"url:moreinfo":"http:\/\/foodtree.com\/sources\/7658","urltitle:moreinfo":"Please visit Laughing Planet Cafe - Vermont St on Foodtree","address":"Portland, Oregon, USA, 97219","title":"Laughing Planet Cafe - Vermont St"}},{"type":"Feature","geometry":{"type":"Point","coordinates":[-90.223503,43.652802]},"properties":{"url:moreinfo":"http:\/\/foodtree.com\/sources\/7496","urltitle:moreinfo":"Please visit Northwood Farm on Foodtree","address":"Wonewoc, WI, USA, 53968","title":"Northwood Farm"}},{"type":"Feature","geometry":{"type":"Point","coordinates":[-116.843002,47.743401]},"properties":{"url:moreinfo":"http:\/\/foodtree.com\/sources\/7536","urltitle:moreinfo":"Please visit Aspen Valley Ranch on Foodtree","address":"Post, OR, USA, 97752","title":"Aspen Valley Ranch"}},{"type":"Feature","geometry":{"type":"Point","coordinates":[-107.163002,44.908901]},"properties":{"url:moreinfo":"http:\/\/foodtree.com\/sources\/7548","urltitle:moreinfo":"Please visit Padlock Ranch Co. on Foodtree","address":"Ranchester, WY, USA, 82839","title":"Padlock Ranch Co."}},{"type":"Feature","geometry":{"type":"Point","coordinates":[-88.625397,42.291698]},"properties":{"url:moreinfo":"http:\/\/foodtree.com\/sources\/6999","urltitle:moreinfo":"Please visit Nichols Farm & Orchard on Foodtree","address":"2602 Hawthorn Road, Marengo, Illinois, USA, 60152","title":"Nichols Farm & Orchard"}},{"type":"Feature","geometry":{"type":"Point","coordinates":[-122.670998,45.4207]},"properties":{"url:moreinfo":"http:\/\/foodtree.com\/sources\/7569","urltitle:moreinfo":"Please visit NORPAC Foods, Inc. on Foodtree","address":"Lake Oswego, OR, USA, 97035","title":"NORPAC Foods, Inc."}},{"type":"Feature","geometry":{"type":"Point","coordinates":[-122.755997,45.230999]},"properties":{"url:moreinfo":"http:\/\/foodtree.com\/sources\/7522","urltitle:moreinfo":"Please visit Big B Farm on Foodtree","address":"Aurora, Oregon, USA, 97002","title":"Big B Farm"}},{"type":"Feature","geometry":{"type":"Point","coordinates":[-117.720001,34.096699]},"properties":{"url:moreinfo":"http:\/\/foodtree.com\/sources\/7675","urltitle:moreinfo":"Please visit Pomona College Dining Services on Foodtree","address":"\nClaremont, California, USA, 91711","title":"Pomona College Dining Services"}},{"type":"Feature","geometry":{"type":"Point","coordinates":[-122.755997,45.230999]},"properties":{"url:moreinfo":"http:\/\/foodtree.com\/sources\/7562","urltitle:moreinfo":"Please visit Howard Calcagno Farms on Foodtree","address":"Aurora, OR, USA, 97002","title":"Howard Calcagno Farms"}},{"type":"Feature","geometry":{"type":"Point","coordinates":[-155.671997,20.0231]},"properties":{"url:moreinfo":"http:\/\/foodtree.com\/sources\/7549","urltitle:moreinfo":"Please visit Ponoholo Ranch, Ltd. on Foodtree","address":"Kamuela, HI, USA, 96743","title":"Ponoholo Ranch, Ltd."}},{"type":"Feature","geometry":{"type":"Point","coordinates":[-118.343002,46.064602]},"properties":{"url:moreinfo":"http:\/\/foodtree.com\/sources\/7590","urltitle:moreinfo":"Please visit DOC - Correctional Industries, WA State on Foodtree","address":"Walla Walla, WA, USA, 99362","title":"DOC - Correctional Industries, WA State"}},{"type":"Feature","geometry":{"type":"Point","coordinates":[-120.419998,46.447601]},"properties":{"url:moreinfo":"http:\/\/foodtree.com\/sources\/7509","urltitle:moreinfo":"Please visit Pride Packing Co. Orchards on Foodtree","address":"Wapato, WA, USA, 98951","title":"Pride Packing Co. Orchards"}},{"type":"Feature","geometry":{"type":"Point","coordinates":[-123.086998,44.052101]},"properties":{"url:moreinfo":"http:\/\/foodtree.com\/sources\/7659","urltitle:moreinfo":"Please visit Laughing Planet Cafe - Willamette St on Foodtree","address":"Eugene, Oregon, USA, 97405","title":"Laughing Planet Cafe - Willamette St"}},{"type":"Feature","geometry":{"type":"Point","coordinates":[-123.262001,44.564602]},"properties":{"url:moreinfo":"http:\/\/foodtree.com\/sources\/7604","urltitle:moreinfo":"Please visit Stahlbush Island Farms on Foodtree","address":"Corvallis, Oregon, USA, 97333","title":"Stahlbush Island Farms"}},{"type":"Feature","geometry":{"type":"Point","coordinates":[-86.437599,41.969601]},"properties":{"url:moreinfo":"http:\/\/foodtree.com\/sources\/6987","urltitle:moreinfo":"Please visit Hillside Orchards on Foodtree","address":"8198 Fleisher Lane, Berrien Springs, Michigan, USA, 49103","title":"Hillside Orchards"}},{"type":"Feature","geometry":{"type":"Point","coordinates":[-124.212997,47.236198]},"properties":{"url:moreinfo":"http:\/\/foodtree.com\/sources\/7668","urltitle:moreinfo":"Please visit Ocean Crest Resort on Foodtree","address":"Moclips, Washington, USA, 98562","title":"Ocean Crest Resort"}},{"type":"Feature","geometry":{"type":"Point","coordinates":[-122.920857,42.376383]},"properties":{"url:moreinfo":"http:\/\/foodtree.com\/sources\/6795","urltitle:moreinfo":"Please visit Rogue Creamery on Foodtree","address":"311 North Front Street\u00a0, Central Point, OR, USA, 97502","title":"Rogue Creamery"}},{"type":"Feature","geometry":{"type":"Point","coordinates":[-122.771004,45.431198]},"properties":{"url:moreinfo":"http:\/\/foodtree.com\/sources\/7632","urltitle:moreinfo":"Please visit DeAngelo's Catering & Events on Foodtree","address":"Tigard, Oregon, USA, 97223","title":"DeAngelo's Catering & Events"}},{"type":"Feature","geometry":{"type":"Point","coordinates":[-93.201897,45.065498]},"properties":{"url:moreinfo":"http:\/\/foodtree.com\/sources\/7646","urltitle:moreinfo":"Please visit H. Brooks and Company - New Brighton on Foodtree","address":"New Brighton, Minnesota, USA, 55112","title":"H. Brooks and Company - New Brighton"}},{"type":"Feature","geometry":{"type":"Point","coordinates":[-122.676003,45.523499]},"properties":{"url:moreinfo":"http:\/\/foodtree.com\/sources\/7674","urltitle:moreinfo":"Please visit People's Food Co-op on Foodtree","address":"Portland, Oregon, USA, 97202","title":"People's Food Co-op"}},{"type":"Feature","geometry":{"type":"Point","coordinates":[-123.189107,45.373235]},"properties":{"url:moreinfo":"http:\/\/foodtree.com\/sources\/10226","urltitle:moreinfo":"Please visit Yamhill County Mushrooms on Foodtree","address":"7246 Northwest Lilac Hill Road\u00a0\u00a0, Yamhill, OR, 97148","title":"Yamhill County Mushrooms"}},{"type":"Feature","geometry":{"type":"Point","coordinates":[-122.676003,45.523499]},"properties":{"url:moreinfo":"http:\/\/foodtree.com\/sources\/7676","urltitle:moreinfo":"Please visit Portland Public Schools on Foodtree","address":"Portland, Oregon, USA, 97227","title":"Portland Public Schools"}},{"type":"Feature","geometry":{"type":"Point","coordinates":[-119.289001,45.840401]},"properties":{"url:moreinfo":"http:\/\/foodtree.com\/sources\/7577","urltitle:moreinfo":"Please visit SBK Farms LLC on Foodtree","address":"Hermiston, OR, USA, 97838","title":"SBK Farms LLC"}},{"type":"Feature","geometry":{"type":"Point","coordinates":[-122.418999,37.774899]},"properties":{"url:moreinfo":"http:\/\/foodtree.com\/sources\/7661","urltitle:moreinfo":"Please visit Let's Be Frank on Foodtree","address":"San Francisco, California, USA, 94103","title":"Let's Be Frank"}},{"type":"Feature","geometry":{"type":"Point","coordinates":[-116.925003,46.550701]},"properties":{"url:moreinfo":"http:\/\/foodtree.com\/sources\/7510","urltitle:moreinfo":"Please visit Anderson & Sons on Foodtree","address":"Genesee, ID, USA, 83832","title":"Anderson & Sons"}},{"type":"Feature","geometry":{"type":"Point","coordinates":[-124.497002,42.745701]},"properties":{"url:moreinfo":"http:\/\/foodtree.com\/sources\/7497","urltitle:moreinfo":"Please visit Clearwater Cranberries on Foodtree","address":"Port Orford, OR, USA, 97465","title":"Clearwater Cranberries"}},{"type":"Feature","geometry":{"type":"Point","coordinates":[-71.099503,42.3876]},"properties":{"url:moreinfo":"http:\/\/foodtree.com\/sources\/7684","urltitle:moreinfo":"Please visit Sherman Market on Foodtree","address":"Somerville, Massachusetts, USA, 02143","title":"Sherman Market"}},{"type":"Feature","geometry":{"type":"Point","coordinates":[-123.262001,44.564602]},"properties":{"url:moreinfo":"http:\/\/foodtree.com\/sources\/7689","urltitle:moreinfo":"Please visit University Housing & Dining Services on Foodtree","address":"Corvallis, Oregon, USA, 97331","title":"University Housing & Dining Services"}},{"type":"Feature","geometry":{"type":"Point","coordinates":[-117.547997,45.609798]},"properties":{"url:moreinfo":"http:\/\/foodtree.com\/sources\/6774","urltitle:moreinfo":"Please visit Carman Ranch - Wallowa Valley Grassfed Beef on Foodtree","address":"67357 Promise Road, Wallowa, Oregon, USA, 97885","title":"Carman Ranch - Wallowa Valley Grassfed Beef"}},{"type":"Feature","geometry":{"type":"Point","coordinates":[-123.106003,44.636501]},"properties":{"url:moreinfo":"http:\/\/foodtree.com\/sources\/7619","urltitle:moreinfo":"Please visit 4 Seasons Farmers Market on Foodtree","address":"Albany, Oregon, USA, 97321","title":"4 Seasons Farmers Market"}},{"type":"Feature","geometry":{"type":"Point","coordinates":[-122.906998,44.536499]},"properties":{"url:moreinfo":"http:\/\/foodtree.com\/sources\/7631","urltitle:moreinfo":"Please visit Country Fair Produce on Foodtree","address":"Lebanon, Oregon, USA, 97355","title":"Country Fair Produce"}},{"type":"Feature","geometry":{"type":"Point","coordinates":[-119.903,46.7379]},"properties":{"url:moreinfo":"http:\/\/foodtree.com\/sources\/7521","urltitle:moreinfo":"Please visit Beverly Orchards on Foodtree","address":"Mattawa, WA, USA, 99349","title":"Beverly Orchards"}},{"type":"Feature","geometry":{"type":"Point","coordinates":[-123.264999,44.126801]},"properties":{"url:moreinfo":"http:\/\/foodtree.com\/sources\/7626","urltitle:moreinfo":"Please visit Camas Country Mill LLC on Foodtree","address":"Alvadore, Oregon, USA, 97409","title":"Camas Country Mill LLC"}},{"type":"Feature","geometry":{"type":"Point","coordinates":[-117.237999,43.982101]},"properties":{"url:moreinfo":"http:\/\/foodtree.com\/sources\/7538","urltitle:moreinfo":"Please visit Country Natural Beef on Foodtree","address":"Vale, OR, USA, 97918","title":"Country Natural Beef"}},{"type":"Feature","geometry":{"type":"Point","coordinates":[-122.890999,38.1646]},"properties":{"url:moreinfo":"http:\/\/foodtree.com\/sources\/1131","urltitle:moreinfo":"Please visit Hog Island Oyster Company on Foodtree","address":"320215 Highway 1, Marshall, CA, USA, 94940","title":"Hog Island Oyster Company"}},{"type":"Feature","geometry":{"type":"Point","coordinates":[-122.855003,45.1437]},"properties":{"url:moreinfo":"http:\/\/foodtree.com\/sources\/7640","urltitle:moreinfo":"Please visit Food Services of America - Portland on Foodtree","address":"Woodburn, Oregon, USA, 97071","title":"Food Services of America - Portland"}},{"type":"Feature","geometry":{"type":"Point","coordinates":[-76.850304,40.001801]},"properties":{"url:moreinfo":"http:\/\/foodtree.com\/sources\/5649","urltitle:moreinfo":"Please visit Sunnyside Farm on Foodtree","address":"27915 Budds Creek Road, Dover, PA, USA, 17315","title":"Sunnyside Farm"}},{"type":"Feature","geometry":{"type":"Point","coordinates":[-112.345001,43.190498]},"properties":{"url:moreinfo":"http:\/\/foodtree.com\/sources\/7550","urltitle:moreinfo":"Please visit Pratt Livestock on Foodtree","address":"Blackfoot, ID, USA, 83221","title":"Pratt Livestock"}},{"type":"Feature","geometry":{"type":"Point","coordinates":[-122.800003,45.067902]},"properties":{"url:moreinfo":"http:\/\/foodtree.com\/sources\/7575","urltitle:moreinfo":"Please visit Kraemer Farms LLC on Foodtree","address":"Mt. Angel, OR, USA, 97362","title":"Kraemer Farms LLC"}},{"type":"Feature","geometry":{"type":"Point","coordinates":[-76.983002,39.800701]},"properties":{"url:moreinfo":"http:\/\/foodtree.com\/sources\/7669","urltitle:moreinfo":"Please visit On The Go Cafe & Catering on Foodtree","address":"Hanover, Pennsylvania, USA, 17331","title":"On The Go Cafe & Catering"}},{"type":"Feature","geometry":{"type":"Point","coordinates":[-77.953796,40.141102]},"properties":{"url:moreinfo":"http:\/\/foodtree.com\/sources\/6709","urltitle:moreinfo":"Please visit Tuscarora Organic Growers Coop on Foodtree","address":"22275 Anderson Hollow Road, Hustontown, Pennsylvania, USA, 17229","title":"Tuscarora Organic Growers Coop"}},{"type":"Feature","geometry":{"type":"Point","coordinates":[-117.128998,46.567902]},"properties":{"url:moreinfo":"http:\/\/foodtree.com\/sources\/7591","urltitle:moreinfo":"Please visit Diamond-S Farms, Inc. on Foodtree","address":"Colton, WA, USA, 99113","title":"Diamond-S Farms, Inc."}},{"type":"Feature","geometry":{"type":"Point","coordinates":[-122.695,45.528301]},"properties":{"url:moreinfo":"http:\/\/foodtree.com\/sources\/6836","urltitle:moreinfo":"Please visit Pastaworks NW (City Market) on Foodtree","address":"735 Northwest 21st Avenue, Portland, Oregon, USA, 97209","title":"Pastaworks NW (City Market)"}},{"type":"Feature","geometry":{"type":"Point","coordinates":[-122.676003,45.523499]},"properties":{"url:moreinfo":"http:\/\/foodtree.com\/sources\/7655","urltitle:moreinfo":"Please visit Laughing Planet Cafe - Mississippi Ave on Foodtree","address":"Portland, Oregon, USA, 97227","title":"Laughing Planet Cafe - Mississippi Ave"}},{"type":"Feature","geometry":{"type":"Point","coordinates":[-123.262001,44.564602]},"properties":{"url:moreinfo":"http:\/\/foodtree.com\/sources\/7571","urltitle:moreinfo":"Please visit Agri-Industries, Inc. on Foodtree","address":"Corvallis, OR, USA, 97330","title":"Agri-Industries, Inc."}},{"type":"Feature","geometry":{"type":"Point","coordinates":[-77.128304,40.149799]},"properties":{"url:moreinfo":"http:\/\/foodtree.com\/sources\/7557","urltitle:moreinfo":"Please visit Dickinson College Farm on Foodtree","address":"Boiling Springs, PA, USA, 17007","title":"Dickinson College Farm"}},{"type":"Feature","geometry":{"type":"Point","coordinates":[-121.781998,42.224899]},"properties":{"url:moreinfo":"http:\/\/foodtree.com\/sources\/7537","urltitle:moreinfo":"Please visit Chapman Ranch on Foodtree","address":"Klamath Falls, OR, USA, 97603","title":"Chapman Ranch"}},{"type":"Feature","geometry":{"type":"Point","coordinates":[-122.683555,45.510123]},"properties":{"url:moreinfo":"http:\/\/foodtree.com\/sources\/10216","urltitle:moreinfo":"Please visit Hot Lips Pizza on Foodtree","address":"1909 Southwest 6th Avenue, Portland, OR, 97201","title":"Hot Lips Pizza"}},{"type":"Feature","geometry":{"type":"Point","coordinates":[-122.334,47.600399]},"properties":{"url:moreinfo":"http:\/\/foodtree.com\/sources\/6806","urltitle:moreinfo":"Please visit Grand Central Baking Co - Pioneer Square on Foodtree","address":"214 1st Avenue South, Seattle , Washington, USA, 98104","title":"Grand Central Baking Co - Pioneer Square"}},{"type":"Feature","geometry":{"type":"Point","coordinates":[-122.392998,37.795502]},"properties":{"url:moreinfo":"http:\/\/foodtree.com\/sources\/1132","urltitle:moreinfo":"Please visit Prather Ranch Meat Co on Foodtree","address":"1 Ferry Building, San Francisco, CA, USA, 94111","title":"Prather Ranch Meat Co"}},{"type":"Feature","geometry":{"type":"Point","coordinates":[-89.746803,43.137199]},"properties":{"url:moreinfo":"http:\/\/foodtree.com\/sources\/7529","urltitle:moreinfo":"Please visit Otter Creek Organic Farms on Foodtree","address":"Black Earth, WI , WI, USA, 53515","title":"Otter Creek Organic Farms"}},{"type":"Feature","geometry":{"type":"Point","coordinates":[-155.097,19.7939]},"properties":{"url:moreinfo":"http:\/\/foodtree.com\/sources\/7545","urltitle:moreinfo":"Please visit Kuahiwi Ranch on Foodtree","address":"Papaikou, HI, USA, 96781","title":"Kuahiwi Ranch"}},{"type":"Feature","geometry":{"type":"Point","coordinates":[-117.975998,47.300201]},"properties":{"url:moreinfo":"http:\/\/foodtree.com\/sources\/7599","urltitle:moreinfo":"Please visit West Hills Joint Venture on Foodtree","address":"Sprague, WA, USA, 99032","title":"West Hills Joint Venture"}},{"type":"Feature","geometry":{"type":"Point","coordinates":[-92.802101,44.748901]},"properties":{"url:moreinfo":"http:\/\/foodtree.com\/sources\/7578","urltitle:moreinfo":"Please visit Nesbitt's Nursery on Foodtree","address":"Prescott, WI, USA, 54021","title":"Nesbitt's Nursery"}},{"type":"Feature","geometry":{"type":"Point","coordinates":[-124.034281,44.881222]},"properties":{"url:moreinfo":"http:\/\/foodtree.com\/sources\/10223","urltitle:moreinfo":"Please visit Salishan Spa & Golf Resort on Foodtree","address":"7760 Highway North 101 Gleneden Beach, Gleneden Beach, OR, 97388","title":"Salishan Spa & Golf Resort"}},{"type":"Feature","geometry":{"type":"Point","coordinates":[-120.346001,42.188801]},"properties":{"url:moreinfo":"http:\/\/foodtree.com\/sources\/7498","urltitle:moreinfo":"Please visit Elder Ranch, Inc. on Foodtree","address":"Lakeview, OR, USA, 97630","title":"Elder Ranch, Inc."}},{"type":"Feature","geometry":{"type":"Point","coordinates":[-123.206001,44.219299]},"properties":{"url:moreinfo":"http:\/\/foodtree.com\/sources\/7563","urltitle:moreinfo":"Please visit Hunton's Farm, Inc. on Foodtree","address":"Junction City, OR, USA, 97448","title":"Hunton's Farm, Inc."}},{"type":"Feature","geometry":{"type":"Point","coordinates":[-122.281998,38.301498]},"properties":{"url:moreinfo":"http:\/\/foodtree.com\/sources\/5940","urltitle:moreinfo":"Please visit Five Dot Ranch on Foodtree","address":"610 1st St, Napa, California, USA, 94558","title":"Five Dot Ranch"}},{"type":"Feature","geometry":{"type":"Point","coordinates":[-118.425003,45.813702]},"properties":{"url:moreinfo":"http:\/\/foodtree.com\/sources\/7613","urltitle:moreinfo":"Please visit Upper Dry Creek Ranch on Foodtree","address":"Weston, Oregon, USA, 97886","title":"Upper Dry Creek Ranch"}},{"type":"Feature","geometry":{"type":"Point","coordinates":[-124.407997,43.118999]},"properties":{"url:moreinfo":"http:\/\/foodtree.com\/sources\/7585","urltitle:moreinfo":"Please visit Red Berry Farm on Foodtree","address":"Bandon, Oregon, USA, 97411","title":"Red Berry Farm"}},{"type":"Feature","geometry":{"type":"Point","coordinates":[-122.383003,37.255199]},"properties":{"url:moreinfo":"http:\/\/foodtree.com\/sources\/7505","urltitle:moreinfo":"Please visit LeftCoast Grassfed \/ TomKat Ranch on Foodtree","address":"Pescadero, CA, USA, 94060","title":"LeftCoast Grassfed \/ TomKat Ranch"}},{"type":"Feature","geometry":{"type":"Point","coordinates":[-73.42169,41.112581]},"properties":{"url:moreinfo":"http:\/\/foodtree.com\/sources\/10220","urltitle:moreinfo":"Please visit Morrison Healthcare at Norwalk Hospital on Foodtree","address":"34 Maple street\u00a0\u00a0Norwalk, Norwalk, 06850","title":"Morrison Healthcare at Norwalk Hospital"}},{"type":"Feature","geometry":{"type":"Point","coordinates":[-75.163803,39.952301]},"properties":{"url:moreinfo":"http:\/\/foodtree.com\/sources\/7691","urltitle:moreinfo":"Please visit Weavers Way Cooperative Association on Foodtree","address":"Philadelphia, Pennsylvania, USA, 19119","title":"Weavers Way Cooperative Association"}},{"type":"Feature","geometry":{"type":"Point","coordinates":[-122.676003,45.523499]},"properties":{"url:moreinfo":"http:\/\/foodtree.com\/sources\/7679","urltitle:moreinfo":"Please visit Proper Eats Market & Cafe on Foodtree","address":"Portland, Oregon, USA, 97203","title":"Proper Eats Market & Cafe"}},{"type":"Feature","geometry":{"type":"Point","coordinates":[-122.697998,45.5397]},"properties":{"url:moreinfo":"http:\/\/foodtree.com\/sources\/6804","urltitle:moreinfo":"Please visit Grand Central Baking Co - NW on Foodtree","address":"2249 NW York, Portland, Oregon, USA, 97210","title":"Grand Central Baking Co - NW"}},{"type":"Feature","geometry":{"type":"Point","coordinates":[-90.4151,41.512299]},"properties":{"url:moreinfo":"http:\/\/foodtree.com\/sources\/7552","urltitle:moreinfo":"Please visit Silvies Valley Ranch, LLC on Foodtree","address":"Silvies, OR, USA, 97873","title":"Silvies Valley Ranch, LLC"}},{"type":"Feature","geometry":{"type":"Point","coordinates":[-87.537498,41.4972]},"properties":{"url:moreinfo":"http:\/\/foodtree.com\/sources\/7009","urltitle:moreinfo":"Please visit Smits Farms on Foodtree","address":"3437 E. Sauk Trail, Chicago Heights, Illinois, USA, 60411","title":"Smits Farms"}},{"type":"Feature","geometry":{"type":"Point","coordinates":[-120.419998,46.447601]},"properties":{"url:moreinfo":"http:\/\/foodtree.com\/sources\/7564","urltitle:moreinfo":"Please visit Inaba Produce Farms, Inc. on Foodtree","address":"Wapato, WA, USA, 98951","title":"Inaba Produce Farms, Inc."}},{"type":"Feature","geometry":{"type":"Point","coordinates":[-93.156601,45.0061]},"properties":{"url:moreinfo":"http:\/\/foodtree.com\/sources\/7620","urltitle:moreinfo":"Please visit A'viands Food Service & Management on Foodtree","address":"Roseville, Minnesota, USA, 55113","title":"A'viands Food Service & Management"}},{"type":"Feature","geometry":{"type":"Point","coordinates":[-122.642998,45.5121]},"properties":{"url:moreinfo":"http:\/\/foodtree.com\/sources\/6799","urltitle:moreinfo":"Please visit Grand Central Baking Company - Hawthorne on Foodtree","address":"2230 SE Hawthorne Blvd, Portland, Oregon, USA, 97214","title":"Grand Central Baking Company - Hawthorne"}},{"type":"Feature","geometry":{"type":"Point","coordinates":[-122.200996,47.610401]},"properties":{"url:moreinfo":"http:\/\/foodtree.com\/sources\/7533","urltitle:moreinfo":"Please visit Coast Seafoods Company on Foodtree","address":"Bellevue, WA, USA, 98007","title":"Coast Seafoods Company"}},{"type":"Feature","geometry":{"type":"Point","coordinates":[-106.373001,31.687901]},"properties":{"url:moreinfo":"http:\/\/foodtree.com\/sources\/7517","urltitle:moreinfo":"Please visit Agropecuaria Del Consuelo S.A. on Foodtree","address":"Cd. Meoqui, Chihuahua, Mexico, 33130","title":"Agropecuaria Del Consuelo S.A."}},{"type":"Feature","geometry":{"type":"Point","coordinates":[-123.198716,45.210116]},"properties":{"url:moreinfo":"http:\/\/foodtree.com\/sources\/10214","urltitle:moreinfo":"Please visit Heilman Vineyard on Foodtree","address":"McMinnville, OR, 97128","title":"Heilman Vineyard"}},{"type":"Feature","geometry":{"type":"Point","coordinates":[-116.788188,46.536601]},"properties":{"url:moreinfo":"http:\/\/foodtree.com\/sources\/7593","urltitle:moreinfo":"Please visit RimRock Ranches on Foodtree","address":"17390 Gray Eagle Rd., Genesee, ID, USA, 83832","title":"RimRock Ranches"}},{"type":"Feature","geometry":{"type":"Point","coordinates":[-91.738197,45.5061]},"properties":{"url:moreinfo":"http:\/\/foodtree.com\/sources\/7579","urltitle:moreinfo":"Please visit Nuto Farm Supply on Foodtree","address":"Rice Lake, WI, USA, 54868","title":"Nuto Farm Supply"}},{"type":"Feature","geometry":{"type":"Point","coordinates":[-77.7453,43.025902]},"properties":{"url:moreinfo":"http:\/\/foodtree.com\/sources\/7523","urltitle:moreinfo":"Please visit Black Creek Farm on Foodtree","address":"Scottsville, NY, USA, 14546","title":"Black Creek Farm"}},{"type":"Feature","geometry":{"type":"Point","coordinates":[-122.676003,45.523499]},"properties":{"url:moreinfo":"http:\/\/foodtree.com\/sources\/7643","urltitle:moreinfo":"Please visit Fulton Provision on Foodtree","address":"\nPortland, Oregon, USA, 97230","title":"Fulton Provision"}},{"type":"Feature","geometry":{"type":"Point","coordinates":[-118.512001,35.051399]},"properties":{"url:moreinfo":"http:\/\/foodtree.com\/sources\/7512","urltitle:moreinfo":"Please visit G&J Farms on Foodtree","address":"Five Points, CA, USA, 93624","title":"G&J Farms"}},{"type":"Feature","geometry":{"type":"Point","coordinates":[-120.543999,46.404301]},"properties":{"url:moreinfo":"http:\/\/foodtree.com\/sources\/7511","urltitle:moreinfo":"Please visit Green Acre Farms, Inc. on Foodtree","address":"Harrah, WA, USA, 98933","title":"Green Acre Farms, Inc."}},{"type":"Feature","geometry":{"type":"Point","coordinates":[-122.663002,45.520901]},"properties":{"url:moreinfo":"http:\/\/foodtree.com\/sources\/6792","urltitle:moreinfo":"Please visit Nicky USA on Foodtree","address":"223 SE 3rd Avenue, Portland, Oregon, USA, 97214","title":"Nicky USA"}},{"type":"Feature","geometry":{"type":"Point","coordinates":[-122.737,45.514999]},"properties":{"url:moreinfo":"http:\/\/foodtree.com\/sources\/2566","urltitle:moreinfo":"Please visit Portland Farmers Market - Shemanski Park on Foodtree","address":"SW Salmon Ave & SW Main St, Multnomah, Portland, OREGON, USA, 97209","title":"Portland Farmers Market - Shemanski Park"}},{"type":"Feature","geometry":{"type":"Point","coordinates":[-122.676003,45.523499]},"properties":{"url:moreinfo":"http:\/\/foodtree.com\/sources\/7671","urltitle:moreinfo":"Please visit Pacific Coast Fruit Company on Foodtree","address":"Portland, Oregon, USA, 97232","title":"Pacific Coast Fruit Company"}},{"type":"Feature","geometry":{"type":"Point","coordinates":[-121.179001,45.594601]},"properties":{"url:moreinfo":"http:\/\/foodtree.com\/sources\/7587","urltitle:moreinfo":"Please visit Emerson Dell Farm on Foodtree","address":"The Dalles, Oregon, USA, 97058","title":"Emerson Dell Farm"}},{"type":"Feature","geometry":{"type":"Point","coordinates":[-122.676003,45.523499]},"properties":{"url:moreinfo":"http:\/\/foodtree.com\/sources\/7535","urltitle:moreinfo":"Please visit Delta Farms on Foodtree","address":"Portland, OR, USA, 97231","title":"Delta Farms"}},{"type":"Feature","geometry":{"type":"Point","coordinates":[-115.251999,36.188]},"properties":{"url:moreinfo":"http:\/\/foodtree.com\/sources\/7547","urltitle:moreinfo":"Please visit Otley Brothers, Inc. on Foodtree","address":"Diamond, OR, USA, 97722","title":"Otley Brothers, Inc."}},{"type":"Feature","geometry":{"type":"Point","coordinates":[-77.223099,39.979401]},"properties":{"url:moreinfo":"http:\/\/foodtree.com\/sources\/7607","urltitle:moreinfo":"Please visit Three Springs Fruit Farm on Foodtree","address":"Aspers, PA, USA, 17304","title":"Three Springs Fruit Farm"}},{"type":"Feature","geometry":{"type":"Point","coordinates":[-122.675003,45.554001]},"properties":{"url:moreinfo":"http:\/\/foodtree.com\/sources\/6837","urltitle:moreinfo":"Please visit Pastaworks Mississippi on Foodtree","address":"4212 North Mississippi Avenue, Portland, Oregon, USA, 97217","title":"Pastaworks Mississippi"}},{"type":"Feature","geometry":{"type":"Point","coordinates":[-122.612826,45.430633]},"properties":{"url:moreinfo":"http:\/\/foodtree.com\/sources\/10217","urltitle:moreinfo":"Please visit Joe Cereghino & Sons Farm, LLC on Foodtree","address":"4900 SE Lake Rd, Milwaukie, OR, 97222","title":"Joe Cereghino & Sons Farm, LLC"}},{"type":"Feature","geometry":{"type":"Point","coordinates":[-122.676003,45.523499]},"properties":{"url:moreinfo":"http:\/\/foodtree.com\/sources\/7657","urltitle:moreinfo":"Please visit Laughing Planet Cafe - NW 9th on Foodtree","address":"Portland, Oregon, USA, 97209","title":"Laughing Planet Cafe - NW 9th"}},{"type":"Feature","geometry":{"type":"Point","coordinates":[-116.925003,46.550701]},"properties":{"url:moreinfo":"http:\/\/foodtree.com\/sources\/7507","urltitle:moreinfo":"Please visit Pacific Northwest Farmers Cooperative on Foodtree","address":"Genesee, ID, USA, 83832","title":"Pacific Northwest Farmers Cooperative"}},{"type":"Feature","geometry":{"type":"Point","coordinates":[-105.143439,39.682216]},"properties":{"url:moreinfo":"http:\/\/foodtree.com\/sources\/10215","urltitle:moreinfo":"Please visit Hospitality Sustainability Resources, LLC on Foodtree","address":"Green Mountain, Lakewood, CO, 80228","title":"Hospitality Sustainability Resources, LLC"}},{"type":"Feature","geometry":{"type":"Point","coordinates":[-122.839996,45.356499]},"properties":{"url:moreinfo":"http:\/\/foodtree.com\/sources\/7565","urltitle:moreinfo":"Please visit Ladd Hill Orchard on Foodtree","address":"Sherwood, OR, USA, 97140","title":"Ladd Hill Orchard"}},{"type":"Feature","geometry":{"type":"Point","coordinates":[-122.676003,45.523499]},"properties":{"url:moreinfo":"http:\/\/foodtree.com\/sources\/7677","urltitle:moreinfo":"Please visit Portlandia Foods on Foodtree","address":"Portland, Oregon, USA, 97266","title":"Portlandia Foods"}},{"type":"Feature","geometry":{"type":"Point","coordinates":[-117.975998,47.300201]},"properties":{"url:moreinfo":"http:\/\/foodtree.com\/sources\/7499","urltitle:moreinfo":"Please visit Golden West Cattle Company on Foodtree","address":"Sprague, WA, USA, 99032","title":"Golden West Cattle Company"}},{"type":"Feature","geometry":{"type":"Point","coordinates":[-122.661003,45.638699]},"properties":{"url:moreinfo":"http:\/\/foodtree.com\/sources\/7606","urltitle:moreinfo":"Please visit The Neil Jones Food Company on Foodtree","address":"Vancouver, WA, USA, 98666","title":"The Neil Jones Food Company"}},{"type":"Feature","geometry":{"type":"Point","coordinates":[-124.483002,42.820099]},"properties":{"url:moreinfo":"http:\/\/foodtree.com\/sources\/7602","urltitle:moreinfo":"Please visit Bussmann Cranberries LLC on Foodtree","address":"Sixes, Oregon, USA, 97465","title":"Bussmann Cranberries LLC"}},{"type":"Feature","geometry":{"type":"Point","coordinates":[-122.676003,45.523499]},"properties":{"url:moreinfo":"http:\/\/foodtree.com\/sources\/7621","urltitle:moreinfo":"Please visit Art of Catering on Foodtree","address":"Portland, Oregon, USA, 97209","title":"Art of Catering"}},{"type":"Feature","geometry":{"type":"Point","coordinates":[-123.198997,45.210098]},"properties":{"url:moreinfo":"http:\/\/foodtree.com\/sources\/7524","urltitle:moreinfo":"Please visit Blacktail Vineyard on Foodtree","address":"McMinnville, Oregon, USA, 97128","title":"Blacktail Vineyard"}},{"type":"Feature","geometry":{"type":"Point","coordinates":[-113.612999,43.9146]},"properties":{"url:moreinfo":"http:\/\/foodtree.com\/sources\/7500","urltitle:moreinfo":"Please visit Mountain Springs Ranch on Foodtree","address":"Mackay, ID, USA, 83251","title":"Mountain Springs Ranch"}},{"type":"Feature","geometry":{"type":"Point","coordinates":[-122.676003,45.523499]},"properties":{"url:moreinfo":"http:\/\/foodtree.com\/sources\/7690","urltitle:moreinfo":"Please visit Vita Cafe on Foodtree","address":"Portland, Oregon, USA, 97211","title":"Vita Cafe"}},{"type":"Feature","geometry":{"type":"Point","coordinates":[-74.005997,40.714401]},"properties":{"url:moreinfo":"http:\/\/foodtree.com\/sources\/7662","urltitle:moreinfo":"Please visit Lindblad Expeditions - Columbia River Cruise on Foodtree","address":"New York, New York, USA, 10014","title":"Lindblad Expeditions - Columbia River Cruise"}},{"type":"Feature","geometry":{"type":"Point","coordinates":[-75.271896,39.938202]},"properties":{"url:moreinfo":"http:\/\/foodtree.com\/sources\/7647","urltitle:moreinfo":"Please visit Harvest Local Foods on Foodtree","address":"\nLasdowne, Pennsylvania, USA, 19050","title":"Harvest Local Foods"}},{"type":"Feature","geometry":{"type":"Point","coordinates":[-117.274002,45.713902]},"properties":{"url:moreinfo":"http:\/\/foodtree.com\/sources\/7551","urltitle:moreinfo":"Please visit Rock N J Properties LLC on Foodtree","address":"Enterprise, OR, USA, 97828","title":"Rock N J Properties LLC"}},{"type":"Feature","geometry":{"type":"Point","coordinates":[-123.035004,44.942902]},"properties":{"url:moreinfo":"http:\/\/foodtree.com\/sources\/7573","urltitle:moreinfo":"Please visit Jensen Family Farm LLC on Foodtree","address":"Salem, OR, USA, 97301","title":"Jensen Family Farm LLC"}},{"type":"Feature","geometry":{"type":"Point","coordinates":[-123.035004,44.942902]},"properties":{"url:moreinfo":"http:\/\/foodtree.com\/sources\/7628","urltitle:moreinfo":"Please visit Cascade Baking Company on Foodtree","address":"Salem, Oregon, USA, 97301","title":"Cascade Baking Company"}},{"type":"Feature","geometry":{"type":"Point","coordinates":[-117.767876,33.853989]},"properties":{"url:moreinfo":"http:\/\/foodtree.com\/sources\/10221","urltitle:moreinfo":"Please visit New Beginnings on Foodtree","address":"245 S. remington Ct, Anaheim, CA, 92807","title":"New Beginnings"}},{"type":"Feature","geometry":{"type":"Point","coordinates":[-122.684998,45.512402]},"properties":{"url:moreinfo":"http:\/\/foodtree.com\/sources\/2703","urltitle:moreinfo":"Please visit Portland Farmers Market - PSU on Foodtree","address":"SW Park & SW Montgomery, Portland, OR, USA, 97201","title":"Portland Farmers Market - PSU"}},{"type":"Feature","geometry":{"type":"Point","coordinates":[-122.661003,45.638699]},"properties":{"url:moreinfo":"http:\/\/foodtree.com\/sources\/7649","urltitle:moreinfo":"Please visit Hawthorn Retirement Group on Foodtree","address":"Vancouver, Washington, USA, 98662","title":"Hawthorn Retirement Group"}},{"type":"Feature","geometry":{"type":"Point","coordinates":[-122.676003,45.523499]},"properties":{"url:moreinfo":"http:\/\/foodtree.com\/sources\/7634","urltitle:moreinfo":"Please visit Dick's Kitchen on Foodtree","address":"Portland, Oregon, USA, 97214","title":"Dick's Kitchen"}},{"type":"Feature","geometry":{"type":"Point","coordinates":[-122.855003,45.1437]},"properties":{"url:moreinfo":"http:\/\/foodtree.com\/sources\/7539","urltitle:moreinfo":"Please visit Dement Ranch LLC on Foodtree","address":"Woodburn, OR, USA, 97071","title":"Dement Ranch LLC"}},{"type":"Feature","geometry":{"type":"Point","coordinates":[-117.877998,47.669601]},"properties":{"url:moreinfo":"http:\/\/foodtree.com\/sources\/7592","urltitle:moreinfo":"Please visit Lazy YJ Farms on Foodtree","address":"Reardan, WA, USA, 99029","title":"Lazy YJ Farms"}},{"type":"Feature","geometry":{"type":"Point","coordinates":[-77.870201,39.0107]},"properties":{"url:moreinfo":"http:\/\/foodtree.com\/sources\/6706","urltitle:moreinfo":"Please visit Ayreshire Farm on Foodtree","address":"21846 Trappe Road, Upperville, Virginia, USA, 20184","title":"Ayreshire Farm"}},{"type":"Feature","geometry":{"type":"Point","coordinates":[-122.683998,45.507198]},"properties":{"url:moreinfo":"http:\/\/foodtree.com\/sources\/2564","urltitle:moreinfo":"Please visit Portland Farmers Market - Pioneer Courthouse Square on Foodtree","address":"SW Broadway & SW 6th, Multnomah, Portland, OREGON, USA, 97205","title":"Portland Farmers Market - Pioneer Courthouse Square"}},{"type":"Feature","geometry":{"type":"Point","coordinates":[-91.304001,43.827999]},"properties":{"url:moreinfo":"http:\/\/foodtree.com\/sources\/7560","urltitle:moreinfo":"Please visit Fruit Acres, Inc. on Foodtree","address":"La Crescent, MN, USA, 55947","title":"Fruit Acres, Inc."}},{"type":"Feature","geometry":{"type":"Point","coordinates":[-77.248001,39.930401]},"properties":{"url:moreinfo":"http:\/\/foodtree.com\/sources\/7519","urltitle:moreinfo":"Please visit Barbour's Fruit Farm on Foodtree","address":"Biglerville, PA, USA, 17307","title":"Barbour's Fruit Farm"}},{"type":"Feature","geometry":{"type":"Point","coordinates":[-122.271004,37.804401]},"properties":{"url:moreinfo":"http:\/\/foodtree.com\/sources\/7663","urltitle:moreinfo":"Please visit Louisiana Distibutors\/FoodResellers on Foodtree","address":"Oakland, California, USA, 94609","title":"Louisiana Distibutors\/FoodResellers"}},{"type":"Feature","geometry":{"type":"Point","coordinates":[-118.789001,45.6721]},"properties":{"url:moreinfo":"http:\/\/foodtree.com\/sources\/7540","urltitle:moreinfo":"Please visit Dodge Land & Cattle Co. on Foodtree","address":"Pendleton, OR, USA, 97801","title":"Dodge Land & Cattle Co."}},{"type":"Feature","geometry":{"type":"Point","coordinates":[-122.651001,45.534302]},"properties":{"url:moreinfo":"http:\/\/foodtree.com\/sources\/6801","urltitle:moreinfo":"Please visit Grand Central Baking Co - Irvington on Foodtree","address":"1444 NE Weidler Street, Portland, Oregon, USA, 97232","title":"Grand Central Baking Co - Irvington"}},{"type":"Feature","geometry":{"type":"Point","coordinates":[-124.407997,43.118999]},"properties":{"url:moreinfo":"http:\/\/foodtree.com\/sources\/7615","urltitle:moreinfo":"Please visit Vincent Family Cranberries on Foodtree","address":"Bandon, Oregon, USA, 97411","title":"Vincent Family Cranberries"}},{"type":"Feature","geometry":{"type":"Point","coordinates":[-105.257004,40.0228]},"properties":{"url:moreinfo":"http:\/\/foodtree.com\/sources\/525","urltitle:moreinfo":"Please visit Whole Foods Market Boulder on Foodtree","address":"2905 Pearl Street, Boulder, CO, USA, 80301","title":"Whole Foods Market Boulder"}},{"type":"Feature","geometry":{"type":"Point","coordinates":[-122.676003,45.523499]},"properties":{"url:moreinfo":"http:\/\/foodtree.com\/sources\/7633","urltitle:moreinfo":"Please visit Delphina's Commercial Bakery on Foodtree","address":"Portland, Oregon, USA, 97218","title":"Delphina's Commercial Bakery"}},{"type":"Feature","geometry":{"type":"Point","coordinates":[-122.676003,45.523499]},"properties":{"url:moreinfo":"http:\/\/foodtree.com\/sources\/7686","urltitle:moreinfo":"Please visit The Old Spaghetti Factory on Foodtree","address":"Portland, Oregon, USA, 97239","title":"The Old Spaghetti Factory"}},{"type":"Feature","geometry":{"type":"Point","coordinates":[-122.646004,45.559101]},"properties":{"url:moreinfo":"http:\/\/foodtree.com\/sources\/7696","urltitle:moreinfo":"Please visit Food Alliance on Foodtree","address":"1829 NE Alberta, Suite 5, Portland, OR, US, 97211","title":"Food Alliance"}}],"properties":{"title":"Food Alliance - connections"}}