{"type":"FeatureCollection","features":[{"type":"Feature","geometry":{"type":"Point","coordinates":[-73.959494,40.652876]},"properties":{"url:moreinfo":"http:\/\/foodtree.com\/sources\/11371","urltitle:moreinfo":"Please visit McClure's Pickles on Foodtree","address":"Brooklyn, New York, USA","title":"McClure's Pickles"}},{"type":"Feature","geometry":{"type":"Point","coordinates":[-118.144997,34.1478]},"properties":{"url:moreinfo":"http:\/\/foodtree.com\/sources\/10964","urltitle:moreinfo":"Please visit Bonadea on Foodtree","address":"P.O. BOX 40398, Pasadena, 09114, United States","title":"Bonadea"}},{"type":"Feature","geometry":{"type":"Point","coordinates":[-122.357002,47.618301]},"properties":{"url:moreinfo":"http:\/\/foodtree.com\/sources\/7152","urltitle:moreinfo":"Please visit Boat Street Pickles on Foodtree","address":"3131 Western Avenue, Seattle, Washington, 98121, USA","title":"Boat Street Pickles"}},{"type":"Feature","geometry":{"type":"Point","coordinates":[-72.487099,44.1721]},"properties":{"url:moreinfo":"http:\/\/foodtree.com\/sources\/9675","urltitle:moreinfo":"Please visit Vermont Butter & Cheese Company on Foodtree","address":"40 Pitman Road,  Websterville, VT, 05678, United States","title":"Vermont Butter & Cheese Company"}},{"type":"Feature","geometry":{"type":"Point","coordinates":[-121.363998,44.1423]},"properties":{"url:moreinfo":"http:\/\/foodtree.com\/sources\/8720","urltitle:moreinfo":"Please visit Tumalo Farms on Foodtree","address":"64515 Mock Road, Bend, Oregon, 97701, USA","title":"Tumalo Farms"}},{"type":"Feature","geometry":{"type":"Point","coordinates":[-88.966003,43.2337]},"properties":{"url:moreinfo":"http:\/\/foodtree.com\/sources\/8638","urltitle:moreinfo":"Please visit Crave Brothers Farmstead Cheeses on Foodtree","address":"W11555 Torpy Road, Waterloo, Wisconsin, 53594, USA","title":"Crave Brothers Farmstead Cheeses"}},{"type":"Feature","geometry":{"type":"Point","coordinates":[-122.251999,37.8437]},"properties":{"url:moreinfo":"http:\/\/foodtree.com\/sources\/7284","urltitle:moreinfo":"Please visit Community Grains on Foodtree","address":"5625 College Avenue, Suite 203, Oakland, California, 94618, USA","title":"Community Grains"}},{"type":"Feature","geometry":{"type":"Point","coordinates":[14.622,40.7841]},"properties":{"url:moreinfo":"http:\/\/foodtree.com\/sources\/8719","urltitle:moreinfo":"Please visit Solania SRL on Foodtree","address":"Via provinciale, 36, San Valentino Torio, San Antonio, 84010, Italy","title":"Solania SRL"}},{"type":"Feature","geometry":{"type":"Point","coordinates":[-71.524902,-33.6702]},"properties":{"url:moreinfo":"http:\/\/foodtree.com\/sources\/8718","urltitle:moreinfo":"Please visit Olisol Deleyda on Foodtree","address":"Ruta 78 Km 90, Fundo San Miguel, San Antonio, 0000, Chile","title":"Olisol Deleyda"}},{"type":"Feature","geometry":{"type":"Point","coordinates":[-87.672096,41.8871]},"properties":{"url:moreinfo":"http:\/\/foodtree.com\/sources\/8716","urltitle:moreinfo":"Please visit Goose Island Beer Co on Foodtree","address":"1800 West Fulton St., Chicago, Illinois, 60612, USA","title":"Goose Island Beer Co"}},{"type":"Feature","geometry":{"type":"Point","coordinates":[-71.526398,-16.401199]},"properties":{"url:moreinfo":"http:\/\/foodtree.com\/sources\/8715","urltitle:moreinfo":"Please visit Peru World Wide on Foodtree","address":"Los Ruisenores B-7, Cayma, Arequipa, 0000, PERU","title":"Peru World Wide"}},{"type":"Feature","geometry":{"type":"Point","coordinates":[-3.90928,47.901798]},"properties":{"url:moreinfo":"http:\/\/foodtree.com\/sources\/8714","urltitle:moreinfo":"Please visit Jacques Gonidec on Foodtree","address":"2 r Henri Fabre, CONCARNEAU, Brittagne, 29900, FRANCE","title":"Jacques Gonidec"}},{"type":"Feature","geometry":{"type":"Point","coordinates":[-105.08528,39.726482]},"properties":{"url:moreinfo":"http:\/\/foodtree.com\/sources\/8711","urltitle:moreinfo":"Please visit Helliemae's Handcrafted Caramels on Foodtree","address":"7711 W 6th Ave Ste L, Lakewood, CO, 80214, US","title":"Helliemae's Handcrafted Caramels"}},{"type":"Feature","geometry":{"type":"Point","coordinates":[-122.405998,37.772598]},"properties":{"url:moreinfo":"http:\/\/foodtree.com\/sources\/8707","urltitle:moreinfo":"Please visit CleanFish on Foodtree","address":"42 Decatur Street, San Francisco, California, 94103, USA","title":"CleanFish"}},{"type":"Feature","geometry":{"type":"Point","coordinates":[-117.255997,32.854]},"properties":{"url:moreinfo":"http:\/\/foodtree.com\/sources\/8698","urltitle:moreinfo":"Please visit Whale Tails Chips on Foodtree","address":"2162 Avenida de la Playa, La Jolla, California, 92037, USA","title":"Whale Tails Chips"}},{"type":"Feature","geometry":{"type":"Point","coordinates":[-117.239375,47.673228]},"properties":{"url:moreinfo":"http:\/\/foodtree.com\/sources\/8601","urltitle:moreinfo":"Please visit Sticky Fingers Bakeries on Foodtree","address":"PO BOX 14533, Spokane Valley,  Washington, 99214,  United States\u00a0","title":"Sticky Fingers Bakeries"}},{"type":"Feature","geometry":{"type":"Point","coordinates":[-117.432999,47.653599]},"properties":{"url:moreinfo":"http:\/\/foodtree.com\/sources\/8600","urltitle:moreinfo":"Please visit Spokandy Chocolatier on Foodtree","address":"1412 West 3rd Avenue, Spokane, 99201, United States","title":"Spokandy Chocolatier"}},{"type":"Feature","geometry":{"type":"Point","coordinates":[-122.259003,47.937901]},"properties":{"url:moreinfo":"http:\/\/foodtree.com\/sources\/8599","urltitle:moreinfo":"Please visit Trident Seafoods\/Kasilof\/Port Chatham on Foodtree","address":"1930-B Merrill Creek Parkway, Everett, 98203, United States","title":"Trident Seafoods\/Kasilof\/Port Chatham"}},{"type":"Feature","geometry":{"type":"Point","coordinates":[-122.248001,47.449299]},"properties":{"url:moreinfo":"http:\/\/foodtree.com\/sources\/8598","urltitle:moreinfo":"Please visit Seattle's Favorite Gourmet Cookies & Desserts on Foodtree","address":"935 Industry Drive, Tukwila, 98188, United States","title":"Seattle's Favorite Gourmet Cookies & Desserts"}},{"type":"Feature","geometry":{"type":"Point","coordinates":[-122.253998,47.4431]},"properties":{"url:moreinfo":"http:\/\/foodtree.com\/sources\/8597","urltitle:moreinfo":"Please visit Seattle Chocolate Company on Foodtree","address":"1180 Andover Park West, Seattle, 98188, United States","title":"Seattle Chocolate Company"}},{"type":"Feature","geometry":{"type":"Point","coordinates":[-122.314003,47.613098]},"properties":{"url:moreinfo":"http:\/\/foodtree.com\/sources\/8596","urltitle:moreinfo":"Please visit Skillet Street Food Inc on Foodtree","address":"1408 East Union , Seattle, 98122, United States","title":"Skillet Street Food Inc"}},{"type":"Feature","geometry":{"type":"Point","coordinates":[-122.339996,47.614498]},"properties":{"url:moreinfo":"http:\/\/foodtree.com\/sources\/8595","urltitle:moreinfo":"Please visit Tom Douglas Rub with Love on Foodtree","address":"2030 Fifth Avenue, Seattle, 98121, United States","title":"Tom Douglas Rub with Love"}},{"type":"Feature","geometry":{"type":"Point","coordinates":[-122.116997,47.801102]},"properties":{"url:moreinfo":"http:\/\/foodtree.com\/sources\/8594","urltitle:moreinfo":"Please visit World Wide Gourmet Food Inc on Foodtree","address":"21616 87th Avenue South East, Woodinville, 98072, United States","title":"World Wide Gourmet Food Inc"}},{"type":"Feature","geometry":{"type":"Point","coordinates":[-122.245003,47.434502]},"properties":{"url:moreinfo":"http:\/\/foodtree.com\/sources\/8593","urltitle:moreinfo":"Please visit WOW Baking Company on Foodtree","address":"7032 S. 188th Street, Kent, 98032, United States","title":"WOW Baking Company"}},{"type":"Feature","geometry":{"type":"Point","coordinates":[-122.242996,47.431801]},"properties":{"url:moreinfo":"http:\/\/foodtree.com\/sources\/8592","urltitle:moreinfo":"Please visit Seattle Gourmet Foods on Foodtree","address":"19016 72nd Avenue South, Kent, 98032, United States","title":"Seattle Gourmet Foods"}},{"type":"Feature","geometry":{"type":"Point","coordinates":[-121.290001,44.031101]},"properties":{"url:moreinfo":"http:\/\/foodtree.com\/sources\/8591","urltitle:moreinfo":"Please visit The No Bake Cookie Co. on Foodtree","address":"20724 Carmen Loop, Bend, 97702, United States","title":"The No Bake Cookie Co."}},{"type":"Feature","geometry":{"type":"Point","coordinates":[-123.362999,43.2313]},"properties":{"url:moreinfo":"http:\/\/foodtree.com\/sources\/8590","urltitle:moreinfo":"Please visit Umpqua Oats, Inc. on Foodtree","address":"760 Nw Hill Avenue, Suite 104, Roseburg, 97471, United States","title":"Umpqua Oats, Inc."}},{"type":"Feature","geometry":{"type":"Point","coordinates":[-123.235001,44.539902]},"properties":{"url:moreinfo":"http:\/\/foodtree.com\/sources\/8589","urltitle:moreinfo":"Please visit Stahlbush Island Farms, DBA Farmer's Market Foods on Foodtree","address":"3122 Stahlbush Island Road, Corvallis, 97333, United States","title":"Stahlbush Island Farms, DBA Farmer's Market Foods"}},{"type":"Feature","geometry":{"type":"Point","coordinates":[-122.475998,45.536701]},"properties":{"url:moreinfo":"http:\/\/foodtree.com\/sources\/8588","urltitle:moreinfo":"Please visit The Candy Basket, Inc. on Foodtree","address":"1924 N.E. 181st Avenue, Portland, 97230, United States","title":"The Candy Basket, Inc."}},{"type":"Feature","geometry":{"type":"Point","coordinates":[-122.728996,45.510799]},"properties":{"url:moreinfo":"http:\/\/foodtree.com\/sources\/8587","urltitle:moreinfo":"Please visit Unbound Pickling on Foodtree","address":"1577 SW Highland Pkwy, Portland, 97221, United States","title":"Unbound Pickling"}},{"type":"Feature","geometry":{"type":"Point","coordinates":[-122.676003,45.523499]},"properties":{"url:moreinfo":"http:\/\/foodtree.com\/sources\/8586","urltitle:moreinfo":"Please visit Stash Tea on Foodtree","address":"P.O. Box 910, Portland, 97207, United States","title":"Stash Tea"}},{"type":"Feature","geometry":{"type":"Point","coordinates":[-123.845001,45.486401]},"properties":{"url:moreinfo":"http:\/\/foodtree.com\/sources\/8585","urltitle:moreinfo":"Please visit Tillamook County Creamery Association on Foodtree","address":"4185 Highway 101 North, Tillamook, OR, 97141, United States","title":"Tillamook County Creamery Association"}},{"type":"Feature","geometry":{"type":"Point","coordinates":[-122.804001,45.487099]},"properties":{"url:moreinfo":"http:\/\/foodtree.com\/sources\/8584","urltitle:moreinfo":"Please visit Stonemill Kitchens on Foodtree","address":"P.O. Box 8, Beaverton, 97006, United States","title":"Stonemill Kitchens"}},{"type":"Feature","geometry":{"type":"Point","coordinates":[-121.749001,39.160198]},"properties":{"url:moreinfo":"http:\/\/foodtree.com\/sources\/8583","urltitle:moreinfo":"Please visit Sutter Buttes Olive Oil Co on Foodtree","address":"2204 California Street, Sutter, 95980, United States","title":"Sutter Buttes Olive Oil Co"}},{"type":"Feature","geometry":{"type":"Point","coordinates":[-121.467003,38.653702]},"properties":{"url:moreinfo":"http:\/\/foodtree.com\/sources\/8582","urltitle:moreinfo":"Please visit Wai Lana on Foodtree","address":"4721 Kelton Way, Unit C, Sacramento, 95838, United States","title":"Wai Lana"}},{"type":"Feature","geometry":{"type":"Point","coordinates":[-121.761002,38.693699]},"properties":{"url:moreinfo":"http:\/\/foodtree.com\/sources\/8581","urltitle:moreinfo":"Please visit Z Specialty Food, LLC\/Moon Shine Trading Co. on Foodtree","address":"1250-A Harter Avenue, Woodland, 95776, United States","title":"Z Specialty Food, LLC\/Moon Shine Trading Co."}},{"type":"Feature","geometry":{"type":"Point","coordinates":[-121.987999,38.356602]},"properties":{"url:moreinfo":"http:\/\/foodtree.com\/sources\/8580","urltitle:moreinfo":"Please visit Vacaville Fruit Company, Inc. on Foodtree","address":"P.O. Box 1537, Vacaville, 95696, United States","title":"Vacaville Fruit Company, Inc."}},{"type":"Feature","geometry":{"type":"Point","coordinates":[-124.102997,40.939602]},"properties":{"url:moreinfo":"http:\/\/foodtree.com\/sources\/8579","urltitle:moreinfo":"Please visit Wild Planet Foods, Inc. on Foodtree","address":"1585 Heartwood Drive, McKinleyville, 95519, United States","title":"Wild Planet Foods, Inc."}},{"type":"Feature","geometry":{"type":"Point","coordinates":[-122.459999,38.2934]},"properties":{"url:moreinfo":"http:\/\/foodtree.com\/sources\/8578","urltitle:moreinfo":"Please visit xroads Philippine Sea Salts on Foodtree","address":"158 Church Street, Sonoma, 95476, United States","title":"xroads Philippine Sea Salts"}},{"type":"Feature","geometry":{"type":"Point","coordinates":[-122.458,38.291901]},"properties":{"url:moreinfo":"http:\/\/foodtree.com\/sources\/8577","urltitle:moreinfo":"Please visit Sonoma Syrup Co. Inc. on Foodtree","address":"P.O. Box 819, Sonoma, CA, 95476, United States","title":"Sonoma Syrup Co. Inc."}},{"type":"Feature","geometry":{"type":"Point","coordinates":[-122.443001,38.260399]},"properties":{"url:moreinfo":"http:\/\/foodtree.com\/sources\/8576","urltitle:moreinfo":"Please visit Sonoma Gourmet Inc. on Foodtree","address":"21787 8th Street East, Sonoma, 95476, United States","title":"Sonoma Gourmet Inc."}},{"type":"Feature","geometry":{"type":"Point","coordinates":[-122.851997,38.620201]},"properties":{"url:moreinfo":"http:\/\/foodtree.com\/sources\/8575","urltitle:moreinfo":"Please visit Savor California on Foodtree","address":"817 Benjamin Way, Healdsburg, 95448, United States","title":"Savor California"}},{"type":"Feature","geometry":{"type":"Point","coordinates":[-122.903,38.7075]},"properties":{"url:moreinfo":"http:\/\/foodtree.com\/sources\/8574","urltitle:moreinfo":"Please visit Terra Sonoma on Foodtree","address":"PO Box 444, Geyserville, 95441, United States","title":"Terra Sonoma"}},{"type":"Feature","geometry":{"type":"Point","coordinates":[-122.713997,38.440498]},"properties":{"url:moreinfo":"http:\/\/foodtree.com\/sources\/8573","urltitle:moreinfo":"Please visit Sensible Foods LLC on Foodtree","address":"P.O. Box 7345, Santa Rosa, 95407, United States","title":"Sensible Foods LLC"}},{"type":"Feature","geometry":{"type":"Point","coordinates":[-120.843002,37.7514]},"properties":{"url:moreinfo":"http:\/\/foodtree.com\/sources\/8572","urltitle:moreinfo":"Please visit Sconza Candy Company on Foodtree","address":"One Sconza Candy Lane, Oakdale, 95361, United States","title":"Sconza Candy Company"}},{"type":"Feature","geometry":{"type":"Point","coordinates":[-120.915001,37.556599]},"properties":{"url:moreinfo":"http:\/\/foodtree.com\/sources\/8571","urltitle:moreinfo":"Please visit Sparrow Lane on Foodtree","address":"P.O. Box 642, Keyes, California, 95328, United States","title":"Sparrow Lane"}},{"type":"Feature","geometry":{"type":"Point","coordinates":[-121.853996,37.250599]},"properties":{"url:moreinfo":"http:\/\/foodtree.com\/sources\/8570","urltitle:moreinfo":"Please visit Urbane Grain on Foodtree","address":"835 Blosson Hill Road, Suite 216, San Jose, 95123, United States","title":"Urbane Grain"}},{"type":"Feature","geometry":{"type":"Point","coordinates":[-121.747002,36.896301]},"properties":{"url:moreinfo":"http:\/\/foodtree.com\/sources\/8569","urltitle:moreinfo":"Please visit SunRidge Farms on Foodtree","address":"423 Salinas Road, Royal Oaks, 95076, United States","title":"SunRidge Farms"}},{"type":"Feature","geometry":{"type":"Point","coordinates":[-122.030998,36.980202]},"properties":{"url:moreinfo":"http:\/\/foodtree.com\/sources\/8568","urltitle:moreinfo":"Please visit Sushi Now! on Foodtree","address":"254 Potrero Street, Santa Cruz, 95060, United States","title":"Sushi Now!"}},{"type":"Feature","geometry":{"type":"Point","coordinates":[-121.943001,37.3815]},"properties":{"url:moreinfo":"http:\/\/foodtree.com\/sources\/8567","urltitle:moreinfo":"Please visit Sante Specialty Foods on Foodtree","address":"491 Laurelwood Road, Santa Clara, 95054, United States","title":"Sante Specialty Foods"}},{"type":"Feature","geometry":{"type":"Point","coordinates":[-122.072998,37.0513]},"properties":{"url:moreinfo":"http:\/\/foodtree.com\/sources\/8566","urltitle:moreinfo":"Please visit Soy Vay Enterprises, Inc. on Foodtree","address":"P.O. Box 452, Felton, 95018, United States","title":"Soy Vay Enterprises, Inc."}},{"type":"Feature","geometry":{"type":"Point","coordinates":[-122.485001,37.8591]},"properties":{"url:moreinfo":"http:\/\/foodtree.com\/sources\/8565","urltitle:moreinfo":"Please visit Spice LLC on Foodtree","address":"P.O. BOX 305, Sausalito, 94966, United States","title":"Spice LLC"}},{"type":"Feature","geometry":{"type":"Point","coordinates":[-122.502998,37.868599]},"properties":{"url:moreinfo":"http:\/\/foodtree.com\/sources\/8564","urltitle:moreinfo":"Please visit Somersault Snack Co. LLC on Foodtree","address":"429 Coloma Street, Sausalito, 94965, United States","title":"Somersault Snack Co. LLC"}},{"type":"Feature","geometry":{"type":"Point","coordinates":[-122.592003,38.229099]},"properties":{"url:moreinfo":"http:\/\/foodtree.com\/sources\/8563","urltitle:moreinfo":"Please visit Torn Ranch, Inc on Foodtree","address":"2198 South McDowell Boulevard, Petaluma, 94954, United States","title":"Torn Ranch, Inc"}},{"type":"Feature","geometry":{"type":"Point","coordinates":[-122.633003,38.232601]},"properties":{"url:moreinfo":"http:\/\/foodtree.com\/sources\/8562","urltitle:moreinfo":"Please visit Three Twins Ice Cream on Foodtree","address":"419 1st Street, Petaluma, 94952, United States","title":"Three Twins Ice Cream"}},{"type":"Feature","geometry":{"type":"Point","coordinates":[-122.514,38.0574]},"properties":{"url:moreinfo":"http:\/\/foodtree.com\/sources\/8561","urltitle:moreinfo":"Please visit The Republic of Tea on Foodtree","address":"5 Hamilton Landing, Suite 100, Novato, 94949, United States","title":"The Republic of Tea"}},{"type":"Feature","geometry":{"type":"Point","coordinates":[-122.205002,37.741199]},"properties":{"url:moreinfo":"http:\/\/foodtree.com\/sources\/8560","urltitle:moreinfo":"Please visit Snapdragon Foods on Foodtree","address":"401 Roland Way, Suite 220, Oakland, 94621, United States","title":"Snapdragon Foods"}},{"type":"Feature","geometry":{"type":"Point","coordinates":[-122.274002,37.801399]},"properties":{"url:moreinfo":"http:\/\/foodtree.com\/sources\/8559","urltitle:moreinfo":"Please visit Tres Agaves Products, Inc. on Foodtree","address":"492 9th Street , Suite B, Oakland, 94607, United States","title":"Tres Agaves Products, Inc."}},{"type":"Feature","geometry":{"type":"Point","coordinates":[-122.040001,37.601799]},"properties":{"url:moreinfo":"http:\/\/foodtree.com\/sources\/8558","urltitle:moreinfo":"Please visit Sogo Trading Inc. on Foodtree","address":"1500 Atlantic Street, Union City, 94587, United States","title":"Sogo Trading Inc."}},{"type":"Feature","geometry":{"type":"Point","coordinates":[-121.959,37.7635]},"properties":{"url:moreinfo":"http:\/\/foodtree.com\/sources\/8557","urltitle:moreinfo":"Please visit Sun Tropics, Inc. on Foodtree","address":"2682 Bishop Drive , Suite 115, San Ramon, 94583, United States","title":"Sun Tropics, Inc."}},{"type":"Feature","geometry":{"type":"Point","coordinates":[-122.154999,37.671101]},"properties":{"url:moreinfo":"http:\/\/foodtree.com\/sources\/8556","urltitle:moreinfo":"Please visit Too Good Gourmet, Inc. on Foodtree","address":"2380 Grant Avenue, San Lorenzo, 94580, United States","title":"Too Good Gourmet, Inc."}},{"type":"Feature","geometry":{"type":"Point","coordinates":[-122.195999,37.724602]},"properties":{"url:moreinfo":"http:\/\/foodtree.com\/sources\/8555","urltitle:moreinfo":"Please visit The Tea Room on Foodtree","address":"130 Doolittle Drive, Unit 2, San Leandro, 94577, United States","title":"The Tea Room"}},{"type":"Feature","geometry":{"type":"Point","coordinates":[-121.862999,37.6717]},"properties":{"url:moreinfo":"http:\/\/foodtree.com\/sources\/8554","urltitle:moreinfo":"Please visit Yaya Imports on Foodtree","address":"530 Boulder Court, Suite 105, Pleasanton, 94566, United States","title":"Yaya Imports"}},{"type":"Feature","geometry":{"type":"Point","coordinates":[-122.289001,38.2967]},"properties":{"url:moreinfo":"http:\/\/foodtree.com\/sources\/8553","urltitle:moreinfo":"Please visit Yogavive LLC on Foodtree","address":"1436 Second Street, Suite 251, Napa, 94559, United States","title":"Yogavive LLC"}},{"type":"Feature","geometry":{"type":"Point","coordinates":[-122.268997,38.222]},"properties":{"url:moreinfo":"http:\/\/foodtree.com\/sources\/8552","urltitle:moreinfo":"Please visit Wine Country Kitchens on Foodtree","address":"511 Alexis Court, Napa, 94558, United States","title":"Wine Country Kitchens"}},{"type":"Feature","geometry":{"type":"Point","coordinates":[-122.274002,38.249401]},"properties":{"url:moreinfo":"http:\/\/foodtree.com\/sources\/8551","urltitle:moreinfo":"Please visit The Perfect Puree of Napa Valley on Foodtree","address":"2700 Napa Valley Corporate Drive, Suite L, Napa, 94558, United States","title":"The Perfect Puree of Napa Valley"}},{"type":"Feature","geometry":{"type":"Point","coordinates":[-121.667999,37.9688]},"properties":{"url:moreinfo":"http:\/\/foodtree.com\/sources\/8550","urltitle:moreinfo":"Please visit Sensual Olive on Foodtree","address":"P.O. BOX 938, Knightsen, 94548, United States","title":"Sensual Olive"}},{"type":"Feature","geometry":{"type":"Point","coordinates":[-122.119003,37.647099]},"properties":{"url:moreinfo":"http:\/\/foodtree.com\/sources\/8549","urltitle:moreinfo":"Please visit Sukhi's Gourmet Indian Foods on Foodtree","address":"23682 Clawiter Road, Hayward, 94545, United States","title":"Sukhi's Gourmet Indian Foods"}},{"type":"Feature","geometry":{"type":"Point","coordinates":[-122.134003,37.657799]},"properties":{"url:moreinfo":"http:\/\/foodtree.com\/sources\/8548","urltitle:moreinfo":"Please visit Sugar Bowl Bakery on Foodtree","address":"1963 Sabre Street, Hayward, 94545, United States","title":"Sugar Bowl Bakery"}},{"type":"Feature","geometry":{"type":"Point","coordinates":[-122.241997,37.729698]},"properties":{"url:moreinfo":"http:\/\/foodtree.com\/sources\/8547","urltitle:moreinfo":"Please visit Semifreddi's on Foodtree","address":"1980 North Loop Road, Alameda, 94502, United States","title":"Semifreddi's"}},{"type":"Feature","geometry":{"type":"Point","coordinates":[-122.308998,37.5476]},"properties":{"url:moreinfo":"http:\/\/foodtree.com\/sources\/8546","urltitle:moreinfo":"Please visit Savory Creations International on Foodtree","address":"2121 S El Camino Real , Suite C210, San Mateo, 94403, United States","title":"Savory Creations International"}},{"type":"Feature","geometry":{"type":"Point","coordinates":[-122.417999,37.808998]},"properties":{"url:moreinfo":"http:\/\/foodtree.com\/sources\/8545","urltitle:moreinfo":"Please visit Scoma's Restaurant, Inc. on Foodtree","address":"Pier 47 & Al Scoma Way, San Francisco, 94133, United States","title":"Scoma's Restaurant, Inc."}},{"type":"Feature","geometry":{"type":"Point","coordinates":[-122.400002,37.744701]},"properties":{"url:moreinfo":"http:\/\/foodtree.com\/sources\/8544","urltitle:moreinfo":"Please visit Thatcher's Special Popcorn on Foodtree","address":"2200 Jerrold Avenue, Suite H, San Francisco, 94124, United States","title":"Thatcher's Special Popcorn"}},{"type":"Feature","geometry":{"type":"Point","coordinates":[-122.420998,37.757702]},"properties":{"url:moreinfo":"http:\/\/foodtree.com\/sources\/8543","urltitle:moreinfo":"Please visit Vanilla, Saffron Imports on Foodtree","address":"949 Valencia Street, San Francisco, 94110, United States","title":"Vanilla, Saffron Imports"}},{"type":"Feature","geometry":{"type":"Point","coordinates":[-122.394997,37.781898]},"properties":{"url:moreinfo":"http:\/\/foodtree.com\/sources\/8542","urltitle:moreinfo":"Please visit Two Degrees on Foodtree","address":"457 Bryant Street, San Francisco, California, 94107, USA","title":"Two Degrees"}},{"type":"Feature","geometry":{"type":"Point","coordinates":[-122.492996,37.642899]},"properties":{"url:moreinfo":"http:\/\/foodtree.com\/sources\/8541","urltitle:moreinfo":"Please visit The French Patisserie, Inc.\/Looka Patisserie on Foodtree","address":"1080 Palmetto Avenue, Pacifica, 94044, United States","title":"The French Patisserie, Inc.\/Looka Patisserie"}},{"type":"Feature","geometry":{"type":"Point","coordinates":[-119.781998,36.7314]},"properties":{"url:moreinfo":"http:\/\/foodtree.com\/sources\/8540","urltitle:moreinfo":"Please visit Valley Lahvosh Baking Company, Inc. on Foodtree","address":"502 M Street, Fresno, 93721, United States","title":"Valley Lahvosh Baking Company, Inc."}},{"type":"Feature","geometry":{"type":"Point","coordinates":[-119.736,36.830399]},"properties":{"url:moreinfo":"http:\/\/foodtree.com\/sources\/8539","urltitle:moreinfo":"Please visit Sierra Foods on Foodtree","address":"3034 East Sierra, Fresno, 93710, United States","title":"Sierra Foods"}},{"type":"Feature","geometry":{"type":"Point","coordinates":[-119.768997,36.722698]},"properties":{"url:moreinfo":"http:\/\/foodtree.com\/sources\/8538","urltitle:moreinfo":"Please visit Valley Fig Growers on Foodtree","address":"2028 South Third Street, Fresno, 93702, United States","title":"Valley Fig Growers"}},{"type":"Feature","geometry":{"type":"Point","coordinates":[-120.669998,35.244301]},"properties":{"url:moreinfo":"http:\/\/foodtree.com\/sources\/8537","urltitle:moreinfo":"Please visit The Spice Hunter, Inc. on Foodtree","address":"184 Suburban Road, San Luis Obispo, 93401, United States","title":"The Spice Hunter, Inc."}},{"type":"Feature","geometry":{"type":"Point","coordinates":[-119.237,34.4468]},"properties":{"url:moreinfo":"http:\/\/foodtree.com\/sources\/8536","urltitle:moreinfo":"Please visit Zhena's Gypsy Tea on Foodtree","address":"205 Bryant Street, Ojai, 93023, United States","title":"Zhena's Gypsy Tea"}},{"type":"Feature","geometry":{"type":"Point","coordinates":[-119.226997,34.2579]},"properties":{"url:moreinfo":"http:\/\/foodtree.com\/sources\/8535","urltitle:moreinfo":"Please visit Think Products on Foodtree","address":"1650 Palma Drive, Suite 201, Ventura, 93003, United States","title":"Think Products"}},{"type":"Feature","geometry":{"type":"Point","coordinates":[-117.987974,33.671178]},"properties":{"url:moreinfo":"http:\/\/foodtree.com\/sources\/8534","urltitle:moreinfo":"Please visit Seapoint Farms on Foodtree","address":"20042 Beach Blvd, \u00a0Suite 102, Huntington Beach,  California, \u00a092648,  United States\u00a0","title":"Seapoint Farms"}},{"type":"Feature","geometry":{"type":"Point","coordinates":[-117.897003,33.689301]},"properties":{"url:moreinfo":"http:\/\/foodtree.com\/sources\/8533","urltitle:moreinfo":"Please visit SYSPRO Impact Software, Inc. on Foodtree","address":"959 South Coast Drive, Suite 100, Costa Mesa, 92626, United States","title":"SYSPRO Impact Software, Inc."}},{"type":"Feature","geometry":{"type":"Point","coordinates":[-117.856003,33.700298]},"properties":{"url:moreinfo":"http:\/\/foodtree.com\/sources\/8532","urltitle:moreinfo":"Please visit Xan Confections, Inc. on Foodtree","address":"1202 McGaw Avenue, Irvine, 92614, United States","title":"Xan Confections, Inc."}},{"type":"Feature","geometry":{"type":"Point","coordinates":[-117.867576,33.688858]},"properties":{"url:moreinfo":"http:\/\/foodtree.com\/sources\/8531","urltitle:moreinfo":"Please visit Shonfeld's USA on Foodtree","address":"18242 Mcdurmott W Ste B, Suite B, Irvine,  California, \u00a092614,  United States\u00a0","title":"Shonfeld's USA"}},{"type":"Feature","geometry":{"type":"Point","coordinates":[-117.156998,32.715302]},"properties":{"url:moreinfo":"http:\/\/foodtree.com\/sources\/8530","urltitle:moreinfo":"Please visit Sauce Goddess Gourmet LLC on Foodtree","address":"P.O. Box 9355, San Diego, 92169, United States","title":"Sauce Goddess Gourmet LLC"}},{"type":"Feature","geometry":{"type":"Point","coordinates":[-117.079002,33.038399]},"properties":{"url:moreinfo":"http:\/\/foodtree.com\/sources\/8529","urltitle:moreinfo":"Please visit Spicy Nothings Curry Sauces on Foodtree","address":"17925 Cabela Drive, San Diego, 92127, United States","title":"Spicy Nothings Curry Sauces"}},{"type":"Feature","geometry":{"type":"Point","coordinates":[-117.605003,34.0457]},"properties":{"url:moreinfo":"http:\/\/foodtree.com\/sources\/8528","urltitle:moreinfo":"Please visit Takari International, Inc. on Foodtree","address":"2040 E. Locust Court, Ontario, 91761, United States","title":"Takari International, Inc."}},{"type":"Feature","geometry":{"type":"Point","coordinates":[-117.950996,34.012402]},"properties":{"url:moreinfo":"http:\/\/foodtree.com\/sources\/8527","urltitle:moreinfo":"Please visit Snak King Corporation on Foodtree","address":"16150 Stephens Street, Hacienda Heights, 91745, United States","title":"Snak King Corporation"}},{"type":"Feature","geometry":{"type":"Point","coordinates":[-117.821999,34.119099]},"properties":{"url:moreinfo":"http:\/\/foodtree.com\/sources\/8526","urltitle:moreinfo":"Please visit Tom Clark Confections Inc.\/ Popcorn Tree on Foodtree","address":"1193 Nicole Court, Glendora, 91740, United States","title":"Tom Clark Confections Inc.\/ Popcorn Tree"}},{"type":"Feature","geometry":{"type":"Point","coordinates":[-117.704002,33.990002]},"properties":{"url:moreinfo":"http:\/\/foodtree.com\/sources\/8525","urltitle:moreinfo":"Please visit Sundown Foods USA, Inc. on Foodtree","address":"4590 A. Eucalyptus Avenue, Suite A, Chino, 91710, United States","title":"Sundown Foods USA, Inc."}},{"type":"Feature","geometry":{"type":"Point","coordinates":[-118.557999,34.172699]},"properties":{"url:moreinfo":"http:\/\/foodtree.com\/sources\/8524","urltitle:moreinfo":"Please visit Spice Appeal\/Meldeens Coconut Oil on Foodtree","address":"19528 Ventura Boulevard, Suite 127, Tarzana, 91356, United States","title":"Spice Appeal\/Meldeens Coconut Oil"}},{"type":"Feature","geometry":{"type":"Point","coordinates":[-118.266998,34.141102]},"properties":{"url:moreinfo":"http:\/\/foodtree.com\/sources\/8523","urltitle:moreinfo":"Please visit Sugar Flowers Plus on Foodtree","address":"601 Vine Street, Glendale, 91204, United States","title":"Sugar Flowers Plus"}},{"type":"Feature","geometry":{"type":"Point","coordinates":[-118.272003,34.148201]},"properties":{"url:moreinfo":"http:\/\/foodtree.com\/sources\/8522","urltitle:moreinfo":"Please visit The Perfect Bite Co. on Foodtree","address":"747 West Wilson Avenue, Glendale, 91203, United States","title":"The Perfect Bite Co."}},{"type":"Feature","geometry":{"type":"Point","coordinates":[-118.063004,34.1609]},"properties":{"url:moreinfo":"http:\/\/foodtree.com\/sources\/8521","urltitle:moreinfo":"Please visit Sierra Madre Grocery Company on Foodtree","address":"481 Mariposa Avenue, Sierra Madre, 91024, United States","title":"Sierra Madre Grocery Company"}},{"type":"Feature","geometry":{"type":"Point","coordinates":[-118.108002,33.971901]},"properties":{"url:moreinfo":"http:\/\/foodtree.com\/sources\/8520","urltitle:moreinfo":"Please visit Zetlian Bakery, Inc on Foodtree","address":"8800 East Slauson Avenue, Pico Rivera, 90660, United States","title":"Zetlian Bakery, Inc"}},{"type":"Feature","geometry":{"type":"Point","coordinates":[-118.098,34.0056]},"properties":{"url:moreinfo":"http:\/\/foodtree.com\/sources\/8519","urltitle:moreinfo":"Please visit Sunset Olive Oil, LLC on Foodtree","address":"133 Van Norman Road, Montebello, 90640, United States","title":"Sunset Olive Oil, LLC"}},{"type":"Feature","geometry":{"type":"Point","coordinates":[-118.348999,33.8078]},"properties":{"url:moreinfo":"http:\/\/foodtree.com\/sources\/8518","urltitle:moreinfo":"Please visit Tahitian Gold Co., Inc. on Foodtree","address":"23883 Madison Street, Torrance, 90505, United States","title":"Tahitian Gold Co., Inc."}},{"type":"Feature","geometry":{"type":"Point","coordinates":[-118.489998,34.025902]},"properties":{"url:moreinfo":"http:\/\/foodtree.com\/sources\/8517","urltitle:moreinfo":"Please visit TCM International on Foodtree","address":"1223 Wilshire Blvd, Suite 945, Santa Monica, 90403, United States","title":"TCM International"}},{"type":"Feature","geometry":{"type":"Point","coordinates":[-118.206574,33.989182]},"properties":{"url:moreinfo":"http:\/\/foodtree.com\/sources\/8516","urltitle:moreinfo":"Please visit Tadin Herb & Tea Co. on Foodtree","address":"3345 E Slauson Ave, Vernon,  California, 90058,  United States\u00a0","title":"Tadin Herb & Tea Co."}},{"type":"Feature","geometry":{"type":"Point","coordinates":[-118.238998,34.011398]},"properties":{"url:moreinfo":"http:\/\/foodtree.com\/sources\/8515","urltitle:moreinfo":"Please visit Soofer Company, Inc. dba Sadaf Foods on Foodtree","address":"2828 South Alameda Street, Los Angeles, 90058, United States","title":"Soofer Company, Inc. dba Sadaf Foods"}},{"type":"Feature","geometry":{"type":"Point","coordinates":[-118.244003,34.0522]},"properties":{"url:moreinfo":"http:\/\/foodtree.com\/sources\/8514","urltitle:moreinfo":"Please visit Viola's Gourmet Goodies on Foodtree","address":"P.O. Box 351075, Los Angeles, 90035, United States","title":"Viola's Gourmet Goodies"}},{"type":"Feature","geometry":{"type":"Point","coordinates":[-118.376999,34.040501]},"properties":{"url:moreinfo":"http:\/\/foodtree.com\/sources\/8513","urltitle:moreinfo":"Please visit Victoria's Kitchen LLC on Foodtree","address":"1976 S La Cienega Boulevard, Suite 179, Los Angeles, 90034, United States","title":"Victoria's Kitchen LLC"}},{"type":"Feature","geometry":{"type":"Point","coordinates":[-118.264999,34.0648]},"properties":{"url:moreinfo":"http:\/\/foodtree.com\/sources\/8512","urltitle:moreinfo":"Please visit Sencha Naturals - Green Tea Inspired Foods on Foodtree","address":"104 N Union Ave., Los Angeles, 90026, United States","title":"Sencha Naturals - Green Tea Inspired Foods"}},{"type":"Feature","geometry":{"type":"Point","coordinates":[-93.641899,34.250401]},"properties":{"url:moreinfo":"http:\/\/foodtree.com\/sources\/8511","urltitle:moreinfo":"Please visit Sunland, Inc.\/Peanut Better on Foodtree","address":"42593 U.S. Highway 70, Portales, 88130, United States","title":"Sunland, Inc.\/Peanut Better"}},{"type":"Feature","geometry":{"type":"Point","coordinates":[-112.379997,33.455299]},"properties":{"url:moreinfo":"http:\/\/foodtree.com\/sources\/8510","urltitle:moreinfo":"Please visit Southwest Specialty Food Incorporated on Foodtree","address":"700 North Bullard Avenue, Goodyear, 85338, United States","title":"Southwest Specialty Food Incorporated"}},{"type":"Feature","geometry":{"type":"Point","coordinates":[-111.957001,33.3969]},"properties":{"url:moreinfo":"http:\/\/foodtree.com\/sources\/8509","urltitle:moreinfo":"Please visit Sun Orchard, Inc. on Foodtree","address":"1198 W Fairmont Drive, Tempe, 85282, United States","title":"Sun Orchard, Inc."}},{"type":"Feature","geometry":{"type":"Point","coordinates":[-111.816002,33.367298]},"properties":{"url:moreinfo":"http:\/\/foodtree.com\/sources\/8508","urltitle:moreinfo":"Please visit SweetLeaf Stevia Sweetener on Foodtree","address":"1203 West San Pedro Street, Gilbert, 85233, United States","title":"SweetLeaf Stevia Sweetener"}},{"type":"Feature","geometry":{"type":"Point","coordinates":[-111.842003,33.341099]},"properties":{"url:moreinfo":"http:\/\/foodtree.com\/sources\/8507","urltitle:moreinfo":"Please visit Urban Oven on Foodtree","address":"2431 N. Arizona Avenue , Suite 4, Chandler, 85225, United States","title":"Urban Oven"}},{"type":"Feature","geometry":{"type":"Point","coordinates":[-72.931503,43.610901]},"properties":{"url:moreinfo":"http:\/\/foodtree.com\/sources\/8506","urltitle:moreinfo":"Please visit Slide Ridge Honey on Foodtree","address":"474 East 250 South, Mendon, Utah, 84325, United States","title":"Slide Ridge Honey"}},{"type":"Feature","geometry":{"type":"Point","coordinates":[-111.981003,40.7467]},"properties":{"url:moreinfo":"http:\/\/foodtree.com\/sources\/8505","urltitle:moreinfo":"Please visit Sweet Candy Company on Foodtree","address":"3780 West Directors Row, Salt Lake City, 84104, United States","title":"Sweet Candy Company"}},{"type":"Feature","geometry":{"type":"Point","coordinates":[-111.892998,40.751801]},"properties":{"url:moreinfo":"http:\/\/foodtree.com\/sources\/8504","urltitle:moreinfo":"Please visit Taffy Town, Inc. on Foodtree","address":"55 West 800 South, Salt Lake City, 84101, United States","title":"Taffy Town, Inc."}},{"type":"Feature","geometry":{"type":"Point","coordinates":[-116.612,48.276699]},"properties":{"url:moreinfo":"http:\/\/foodtree.com\/sources\/8503","urltitle:moreinfo":"Please visit Surfrut on Foodtree","address":"11598 West Pine Street, Sandpoint, 83864, United States","title":"Surfrut"}},{"type":"Feature","geometry":{"type":"Point","coordinates":[-116.220001,43.616001]},"properties":{"url:moreinfo":"http:\/\/foodtree.com\/sources\/8502","urltitle:moreinfo":"Please visit Snake River Farms on Foodtree","address":"1555 Shoreline Drive, Suite 320, Boise, 83702, United States","title":"Snake River Farms"}},{"type":"Feature","geometry":{"type":"Point","coordinates":[-111.107002,43.617699]},"properties":{"url:moreinfo":"http:\/\/foodtree.com\/sources\/8501","urltitle:moreinfo":"Please visit Tram Bar LLC on Foodtree","address":"7631 Lupine Lane, Suite E, Victor, 83455, United States","title":"Tram Bar LLC"}},{"type":"Feature","geometry":{"type":"Point","coordinates":[-107.030998,39.364101]},"properties":{"url:moreinfo":"http:\/\/foodtree.com\/sources\/8500","urltitle:moreinfo":"Please visit Two Leaves and a Bud Tea Company on Foodtree","address":"23400 Two Rivers Road, Suite 45, Basalt, CO, 81621, United States","title":"Two Leaves and a Bud Tea Company"}},{"type":"Feature","geometry":{"type":"Point","coordinates":[-106.832001,40.485001]},"properties":{"url:moreinfo":"http:\/\/foodtree.com\/sources\/8499","urltitle:moreinfo":"Please visit Wing-Time, Inc. on Foodtree","address":"P.O. Box 775003, Steamboat Springs, 80477, United States","title":"Wing-Time, Inc."}},{"type":"Feature","geometry":{"type":"Point","coordinates":[-105.261002,40.0205]},"properties":{"url:moreinfo":"http:\/\/foodtree.com\/sources\/8498","urltitle:moreinfo":"Please visit Snikiddy, LLC on Foodtree","address":"2505 Walnut Street, Suite 100, Boulder, CO, 80302, United States","title":"Snikiddy, LLC"}},{"type":"Feature","geometry":{"type":"Point","coordinates":[-105.193001,40.076801]},"properties":{"url:moreinfo":"http:\/\/foodtree.com\/sources\/8497","urltitle:moreinfo":"Please visit Third Street Chai on Foodtree","address":"6880 Windchester Circle, Suite F, Boulder, 80301, United States","title":"Third Street Chai"}},{"type":"Feature","geometry":{"type":"Point","coordinates":[-105.015999,39.758499]},"properties":{"url:moreinfo":"http:\/\/foodtree.com\/sources\/8496","urltitle:moreinfo":"Please visit Teatulia Organic Single Garden Teas on Foodtree","address":"2904 Zuni Street, Denver, 80211, United States","title":"Teatulia Organic Single Garden Teas"}},{"type":"Feature","geometry":{"type":"Point","coordinates":[-97.743103,30.2672]},"properties":{"url:moreinfo":"http:\/\/foodtree.com\/sources\/8495","urltitle:moreinfo":"Please visit Stubb's Legendary Kitchen on Foodtree","address":"P.O. Box 40220, Austin, 78704, United States","title":"Stubb's Legendary Kitchen"}},{"type":"Feature","geometry":{"type":"Point","coordinates":[-98.739998,29.3703]},"properties":{"url:moreinfo":"http:\/\/foodtree.com\/sources\/8494","urltitle:moreinfo":"Please visit Twang Partners, Ltd on Foodtree","address":"6255 Wt Montgomery, San Antonio, 78252, United States","title":"Twang Partners, Ltd"}},{"type":"Feature","geometry":{"type":"Point","coordinates":[-95.3694,29.760201]},"properties":{"url:moreinfo":"http:\/\/foodtree.com\/sources\/8493","urltitle:moreinfo":"Please visit Simply 7 Snacks on Foodtree","address":"P.O. Box 710543, Houston, 77271, United States","title":"Simply 7 Snacks"}},{"type":"Feature","geometry":{"type":"Point","coordinates":[-95.399803,29.6737]},"properties":{"url:moreinfo":"http:\/\/foodtree.com\/sources\/8492","urltitle:moreinfo":"Please visit Texas Tamale Co.\/Brazos Legends on Foodtree","address":"9087 Knight Road, Houston, 77054, United States","title":"Texas Tamale Co.\/Brazos Legends"}},{"type":"Feature","geometry":{"type":"Point","coordinates":[-95.415703,29.806499]},"properties":{"url:moreinfo":"http:\/\/foodtree.com\/sources\/8491","urltitle:moreinfo":"Please visit The French Farm on Foodtree","address":"916-B West 23rd Street, Houston, 77008, United States","title":"The French Farm"}},{"type":"Feature","geometry":{"type":"Point","coordinates":[-98.719101,31.195801]},"properties":{"url:moreinfo":"http:\/\/foodtree.com\/sources\/8490","urltitle:moreinfo":"Please visit The Great San Saba River Pecan Company on Foodtree","address":"234 West Highway 190, San Saba, 76877, United States","title":"The Great San Saba River Pecan Company"}},{"type":"Feature","geometry":{"type":"Point","coordinates":[-94.963699,33.167099]},"properties":{"url:moreinfo":"http:\/\/foodtree.com\/sources\/8489","urltitle:moreinfo":"Please visit Sweet Shop USA on Foodtree","address":"1316 Industrial Boulevard, Mount Pleasant, 75455, United States","title":"Sweet Shop USA"}},{"type":"Feature","geometry":{"type":"Point","coordinates":[-96.941429,32.892419]},"properties":{"url:moreinfo":"http:\/\/foodtree.com\/sources\/8488","urltitle:moreinfo":"Please visit Xochitl, Inc. on Foodtree","address":"6020 Colwell Blvd, Suite 1240, Irving,  Texas, 75039,  United States\u00a0","title":"Xochitl, Inc."}},{"type":"Feature","geometry":{"type":"Point","coordinates":[-96.580498,33.6908]},"properties":{"url:moreinfo":"http:\/\/foodtree.com\/sources\/8487","urltitle:moreinfo":"Please visit The Ya-Hoo! Baking Company on Foodtree","address":"5302 Texoma Parkway, Sherman, 75090, United States","title":"The Ya-Hoo! Baking Company"}},{"type":"Feature","geometry":{"type":"Point","coordinates":[-96.6147,33.18]},"properties":{"url:moreinfo":"http:\/\/foodtree.com\/sources\/8486","urltitle:moreinfo":"Please visit The Squirrel Brand Co. on Foodtree","address":"113 Industrial Boulevard, Suite D, McKinney, 75069, United States","title":"The Squirrel Brand Co."}},{"type":"Feature","geometry":{"type":"Point","coordinates":[-96.819901,33.072201]},"properties":{"url:moreinfo":"http:\/\/foodtree.com\/sources\/8485","urltitle:moreinfo":"Please visit Turin Chocolates on Foodtree","address":"5720 Scruggs Way, suite 12208, Plano, 75024, United States","title":"Turin Chocolates"}},{"type":"Feature","geometry":{"type":"Point","coordinates":[-91.199898,34.8965]},"properties":{"url:moreinfo":"http:\/\/foodtree.com\/sources\/8484","urltitle:moreinfo":"Please visit Specialty Rice Inc. on Foodtree","address":"1000 West First Street, Brinkley, 72021, United States","title":"Specialty Rice Inc."}},{"type":"Feature","geometry":{"type":"Point","coordinates":[-92.286003,30.693001]},"properties":{"url:moreinfo":"http:\/\/foodtree.com\/sources\/8483","urltitle:moreinfo":"Please visit Slap Ya Mama Cajun Products on Foodtree","address":"1103 West Main Street, Ville Platte, 70586, United States","title":"Slap Ya Mama Cajun Products"}},{"type":"Feature","geometry":{"type":"Point","coordinates":[-91.904099,29.915199]},"properties":{"url:moreinfo":"http:\/\/foodtree.com\/sources\/8482","urltitle:moreinfo":"Please visit Tabasco Brand Products on Foodtree","address":"Highway 329, Avery Island, 70513, United States","title":"Tabasco Brand Products"}},{"type":"Feature","geometry":{"type":"Point","coordinates":[-94.749517,38.903988]},"properties":{"url:moreinfo":"http:\/\/foodtree.com\/sources\/8481","urltitle:moreinfo":"Please visit Wind & Willow Inc. on Foodtree","address":"14231 W 124Th St, Olathe,  Kansas, \u00a066062,  United States\u00a0","title":"Wind & Willow Inc."}},{"type":"Feature","geometry":{"type":"Point","coordinates":[-118.741997,45.676201]},"properties":{"url:moreinfo":"http:\/\/foodtree.com\/sources\/8480","urltitle:moreinfo":"Please visit Sunflower Food and Spice Company Ltd. on Foodtree","address":"4114 NW Riverside Street, Riverside, 64150, United States","title":"Sunflower Food and Spice Company Ltd."}},{"type":"Feature","geometry":{"type":"Point","coordinates":[-87.731903,41.848301]},"properties":{"url:moreinfo":"http:\/\/foodtree.com\/sources\/8479","urltitle:moreinfo":"Please visit Sparrer Sausage Co., Inc. on Foodtree","address":"4325 West Ogden Avenue, Chicago, 60623, United States","title":"Sparrer Sausage Co., Inc."}},{"type":"Feature","geometry":{"type":"Point","coordinates":[-87.673798,41.959099]},"properties":{"url:moreinfo":"http:\/\/foodtree.com\/sources\/8478","urltitle:moreinfo":"Please visit Urban Accents, Inc. on Foodtree","address":"4241 N Ravenswood, Chicago, 60613, United States","title":"Urban Accents, Inc."}},{"type":"Feature","geometry":{"type":"Point","coordinates":[-87.632401,41.888199]},"properties":{"url:moreinfo":"http:\/\/foodtree.com\/sources\/8477","urltitle:moreinfo":"Please visit Storck USA, L.P. on Foodtree","address":"325N. La Salle, Suite 400, Chicago, 60610, United States","title":"Storck USA, L.P."}},{"type":"Feature","geometry":{"type":"Point","coordinates":[-88.136189,42.153914]},"properties":{"url:moreinfo":"http:\/\/foodtree.com\/sources\/8476","urltitle:moreinfo":"Please visit Sulpice Chocolat on Foodtree","address":"P.O. Box 70, Suite 3B, Barrington,  Illinois, 60011,  United States\u00a0","title":"Sulpice Chocolat"}},{"type":"Feature","geometry":{"type":"Point","coordinates":[-87.823601,41.818001]},"properties":{"url:moreinfo":"http:\/\/foodtree.com\/sources\/8475","urltitle:moreinfo":"Please visit WA Imports on Foodtree","address":"8121 Ogden Avenue, Lyons, 60534, United States","title":"WA Imports"}},{"type":"Feature","geometry":{"type":"Point","coordinates":[-88.0159,41.700901]},"properties":{"url:moreinfo":"http:\/\/foodtree.com\/sources\/8474","urltitle:moreinfo":"Please visit Xcell International Corporation on Foodtree","address":"16400 W. 103rd Street, Lemont, 60439, United States","title":"Xcell International Corporation"}},{"type":"Feature","geometry":{"type":"Point","coordinates":[-87.6866,42.048599]},"properties":{"url:moreinfo":"http:\/\/foodtree.com\/sources\/8473","urltitle:moreinfo":"Please visit The Irish Dairy Board Holdings on Foodtree","address":"1007 Church Street, Suite 314, Evanston, 60201, United States","title":"The Irish Dairy Board Holdings"}},{"type":"Feature","geometry":{"type":"Point","coordinates":[-87.860497,42.1465]},"properties":{"url:moreinfo":"http:\/\/foodtree.com\/sources\/8472","urltitle:moreinfo":"Please visit Toffee Break Desserts on Foodtree","address":"3306 Commercial Avenue, Northbrook, 60062, United States","title":"Toffee Break Desserts"}},{"type":"Feature","geometry":{"type":"Point","coordinates":[-93.125298,44.730301]},"properties":{"url:moreinfo":"http:\/\/foodtree.com\/sources\/8471","urltitle:moreinfo":"Please visit Webb Candy on Foodtree","address":"15197 Boulder Avenue, Rosemount, 55068, United States","title":"Webb Candy"}},{"type":"Feature","geometry":{"type":"Point","coordinates":[-89.649399,42.599701]},"properties":{"url:moreinfo":"http:\/\/foodtree.com\/sources\/8470","urltitle:moreinfo":"Please visit Swiss Colony Retail Brands, LLC on Foodtree","address":"1112 7th Avenue, Monroe, 53566, United States","title":"Swiss Colony Retail Brands, LLC"}},{"type":"Feature","geometry":{"type":"Point","coordinates":[-90.634499,41.503799]},"properties":{"url:moreinfo":"http:\/\/foodtree.com\/sources\/8469","urltitle:moreinfo":"Please visit Shakespeare's Chocolates on Foodtree","address":"3840 West River Drive, Davenport, 52802, United States","title":"Shakespeare's Chocolates"}},{"type":"Feature","geometry":{"type":"Point","coordinates":[-85.6427,44.774899]},"properties":{"url:moreinfo":"http:\/\/foodtree.com\/sources\/8468","urltitle:moreinfo":"Please visit Shoreline Fruit LLC on Foodtree","address":"10850 E Traverse Hwy , Suite 4460, Traverse City, 49684, United States","title":"Shoreline Fruit LLC"}},{"type":"Feature","geometry":{"type":"Point","coordinates":[-82.866699,42.628799]},"properties":{"url:moreinfo":"http:\/\/foodtree.com\/sources\/8467","urltitle:moreinfo":"Please visit Sanders Candy on Foodtree","address":"23770 Hall Road, Clinton Township, 48036, United States","title":"Sanders Candy"}},{"type":"Feature","geometry":{"type":"Point","coordinates":[-83.844498,39.936901]},"properties":{"url:moreinfo":"http:\/\/foodtree.com\/sources\/8466","urltitle:moreinfo":"Please visit Woeber Mustard Mfg. Co. on Foodtree","address":"1966 Commerce Circle, Springfield, 45504, United States","title":"Woeber Mustard Mfg. Co."}},{"type":"Feature","geometry":{"type":"Point","coordinates":[-84.3899,39.221001]},"properties":{"url:moreinfo":"http:\/\/foodtree.com\/sources\/8465","urltitle:moreinfo":"Please visit Sweets In Bloom on Foodtree","address":"8950 Rossash Road, Cincinnati, 45236, United States","title":"Sweets In Bloom"}},{"type":"Feature","geometry":{"type":"Point","coordinates":[-81.397301,40.864101]},"properties":{"url:moreinfo":"http:\/\/foodtree.com\/sources\/8464","urltitle:moreinfo":"Please visit Waggoner Chocolates on Foodtree","address":"1281 South Main Street, North Canton, 44720, United States","title":"Waggoner Chocolates"}},{"type":"Feature","geometry":{"type":"Point","coordinates":[-81.522301,41.486801]},"properties":{"url:moreinfo":"http:\/\/foodtree.com\/sources\/8463","urltitle:moreinfo":"Please visit The Lounging Gourmet on Foodtree","address":"22325 Fairmount Boulevard, Shaker Heights, 44118, United States","title":"The Lounging Gourmet"}},{"type":"Feature","geometry":{"type":"Point","coordinates":[-82.986298,40.103802]},"properties":{"url:moreinfo":"http:\/\/foodtree.com\/sources\/8462","urltitle:moreinfo":"Please visit T. Marzetti Company on Foodtree","address":"1105 Schrock Road, Suite 300, Columbus, 43229, United States","title":"T. Marzetti Company"}},{"type":"Feature","geometry":{"type":"Point","coordinates":[-83.187302,40.113899]},"properties":{"url:moreinfo":"http:\/\/foodtree.com\/sources\/8461","urltitle:moreinfo":"Please visit Vitality Distributing\/Avitae USA LLC on Foodtree","address":"7500 Memorial Drive , Suite C, Plain City, 43064, United States","title":"Vitality Distributing\/Avitae USA LLC"}},{"type":"Feature","geometry":{"type":"Point","coordinates":[-86.784401,36.165901]},"properties":{"url:moreinfo":"http:\/\/foodtree.com\/sources\/8460","urltitle:moreinfo":"Please visit The Pasta Shoppe, LLC on Foodtree","address":"P.O. Box 159245, Nashville, 37215, United States","title":"The Pasta Shoppe, LLC"}},{"type":"Feature","geometry":{"type":"Point","coordinates":[-82.7966,27.8745]},"properties":{"url:moreinfo":"http:\/\/foodtree.com\/sources\/8459","urltitle:moreinfo":"Please visit Skinny Mixes, LLC on Foodtree","address":"11345 111th Avenue, Largo, 33778, United States","title":"Skinny Mixes, LLC"}},{"type":"Feature","geometry":{"type":"Point","coordinates":[-82.795898,27.952801]},"properties":{"url:moreinfo":"http:\/\/foodtree.com\/sources\/8458","urltitle:moreinfo":"Please visit Terrapin Ridge on Foodtree","address":"1208 S Myrtle Avenue, Clearwater, 33756, United States","title":"Terrapin Ridge"}},{"type":"Feature","geometry":{"type":"Point","coordinates":[-82.625198,28.198099]},"properties":{"url:moreinfo":"http:\/\/foodtree.com\/sources\/8457","urltitle:moreinfo":"Please visit Seitenbacher on Foodtree","address":"11505 Perpetual Drive, Odessa, 33556, United States","title":"Seitenbacher"}},{"type":"Feature","geometry":{"type":"Point","coordinates":[-80.092201,26.428499]},"properties":{"url:moreinfo":"http:\/\/foodtree.com\/sources\/8456","urltitle:moreinfo":"Please visit Williams & Bennett Fine Foods on Foodtree","address":"2885 South Congress Avenue, Suite A, Delray Beach, 33445, United States","title":"Williams & Bennett Fine Foods"}},{"type":"Feature","geometry":{"type":"Point","coordinates":[-80.104401,26.837601]},"properties":{"url:moreinfo":"http:\/\/foodtree.com\/sources\/8455","urltitle:moreinfo":"Please visit Simpli on Foodtree","address":"4440 PGA Boulevard , Suite 600, Palm Beach Gardens, 33410, United States","title":"Simpli"}},{"type":"Feature","geometry":{"type":"Point","coordinates":[-80.292603,26.190701]},"properties":{"url:moreinfo":"http:\/\/foodtree.com\/sources\/8454","urltitle:moreinfo":"Please visit SheerBliss Ice Cream LLC on Foodtree","address":"10795 NW 53rd Street, Suite 201, Sunrise, 33351, United States","title":"SheerBliss Ice Cream LLC"}},{"type":"Feature","geometry":{"type":"Point","coordinates":[-80.154701,26.1982]},"properties":{"url:moreinfo":"http:\/\/foodtree.com\/sources\/8453","urltitle:moreinfo":"Please visit The Spice Lab on Foodtree","address":"850 Nw 57Th Court, Ft Lauderdale, 33309, United States","title":"The Spice Lab"}},{"type":"Feature","geometry":{"type":"Point","coordinates":[-80.423103,25.6348]},"properties":{"url:moreinfo":"http:\/\/foodtree.com\/sources\/8452","urltitle:moreinfo":"Please visit Tortuga Rum Cake Company on Foodtree","address":"14202 Southwest 142 Avenue, Miami, 33186, United States","title":"Tortuga Rum Cake Company"}},{"type":"Feature","geometry":{"type":"Point","coordinates":[-80.3508,25.8085]},"properties":{"url:moreinfo":"http:\/\/foodtree.com\/sources\/8451","urltitle:moreinfo":"Please visit Swiss Chalet Fine Foods on Foodtree","address":"9455 NW 40th Street Road, Miami, 33178, United States","title":"Swiss Chalet Fine Foods"}},{"type":"Feature","geometry":{"type":"Point","coordinates":[-80.265999,25.747999]},"properties":{"url:moreinfo":"http:\/\/foodtree.com\/sources\/8450","urltitle:moreinfo":"Please visit Turbana Corporation on Foodtree","address":"550 Biltmore Way , Suite 730, Coral Gables, 33134, United States","title":"Turbana Corporation"}},{"type":"Feature","geometry":{"type":"Point","coordinates":[-80.294197,25.783701]},"properties":{"url:moreinfo":"http:\/\/foodtree.com\/sources\/8449","urltitle:moreinfo":"Please visit Valor Chocolates USA, Inc. on Foodtree","address":"5959 Blue Lagoon Drive, Suite 314, Miami, 33126, United States","title":"Valor Chocolates USA, Inc."}},{"type":"Feature","geometry":{"type":"Point","coordinates":[-80.322701,25.7873]},"properties":{"url:moreinfo":"http:\/\/foodtree.com\/sources\/8448","urltitle:moreinfo":"Please visit Tonnino on Foodtree","address":"7805 North West 15 Street, Suite 506, Miami, 33126, United States","title":"Tonnino"}},{"type":"Feature","geometry":{"type":"Point","coordinates":[-81.465698,28.6422]},"properties":{"url:moreinfo":"http:\/\/foodtree.com\/sources\/8447","urltitle:moreinfo":"Please visit Selma's Cookies on Foodtree","address":"2023 Apex Court, Apopka, 32703, United States","title":"Selma's Cookies"}},{"type":"Feature","geometry":{"type":"Point","coordinates":[-84.294098,34.075401]},"properties":{"url:moreinfo":"http:\/\/foodtree.com\/sources\/8446","urltitle:moreinfo":"Please visit Tryst Gourmet LLC on Foodtree","address":"P.O. Box 2635, Alpharetta, 30023, United States","title":"Tryst Gourmet LLC"}},{"type":"Feature","geometry":{"type":"Point","coordinates":[-83.898003,33.988701]},"properties":{"url:moreinfo":"http:\/\/foodtree.com\/sources\/8445","urltitle:moreinfo":"Please visit Sisters Gourmet, Inc. on Foodtree","address":"P.O. Box 1550, Dacula, 30019, United States","title":"Sisters Gourmet, Inc."}},{"type":"Feature","geometry":{"type":"Point","coordinates":[-78.454903,36.325298]},"properties":{"url:moreinfo":"http:\/\/foodtree.com\/sources\/8444","urltitle:moreinfo":"Please visit The Peanut Roaster, Inc. on Foodtree","address":"394 Zeb Robinson Road, Henderson, 27536, United States","title":"The Peanut Roaster, Inc."}},{"type":"Feature","geometry":{"type":"Point","coordinates":[-76.990303,36.967701]},"properties":{"url:moreinfo":"http:\/\/foodtree.com\/sources\/8443","urltitle:moreinfo":"Please visit The Virginia Diner, Inc. on Foodtree","address":"322 West Main Street, Wakefield, 23888, United States","title":"The Virginia Diner, Inc."}},{"type":"Feature","geometry":{"type":"Point","coordinates":[-76.802902,37.387299]},"properties":{"url:moreinfo":"http:\/\/foodtree.com\/sources\/8442","urltitle:moreinfo":"Please visit The Peanut Shop of Williamsburg on Foodtree","address":"8012 Hankins Industrial Park Road, Toano, 23168, United States","title":"The Peanut Shop of Williamsburg"}},{"type":"Feature","geometry":{"type":"Point","coordinates":[-97.7425,35.638401]},"properties":{"url:moreinfo":"http:\/\/foodtree.com\/sources\/8441","urltitle:moreinfo":"Please visit The Virginia Chutney Company LLC on Foodtree","address":"195 Piedmont Street, Washington, 22747, United States","title":"The Virginia Chutney Company LLC"}},{"type":"Feature","geometry":{"type":"Point","coordinates":[-76.743202,39.314499]},"properties":{"url:moreinfo":"http:\/\/foodtree.com\/sources\/8440","urltitle:moreinfo":"Please visit Vanns Spices Ltd. on Foodtree","address":"1716 Whitehead Road, Suite A, Baltimore, 21207, United States","title":"Vanns Spices Ltd."}},{"type":"Feature","geometry":{"type":"Point","coordinates":[-76.661697,39.490898]},"properties":{"url:moreinfo":"http:\/\/foodtree.com\/sources\/8439","urltitle:moreinfo":"Please visit Thai Kitchen\/Simply Asia Foods, Inc. on Foodtree","address":"215 Schilling Circle, Hunt Valley, 21031, United States","title":"Thai Kitchen\/Simply Asia Foods, Inc."}},{"type":"Feature","geometry":{"type":"Point","coordinates":[-74.978104,40.125099]},"properties":{"url:moreinfo":"http:\/\/foodtree.com\/sources\/8438","urltitle:moreinfo":"Please visit Sorbee International, LLC on Foodtree","address":"4 Neshaminy Interples, Suite 202, Trevose, 19053, United States","title":"Sorbee International, LLC"}},{"type":"Feature","geometry":{"type":"Point","coordinates":[-80.013496,40.457802]},"properties":{"url:moreinfo":"http:\/\/foodtree.com\/sources\/8437","urltitle:moreinfo":"Please visit Sendall Chocolates LLC on Foodtree","address":"1520 Monterey Street, Pittsburgh, 15212, United States","title":"Sendall Chocolates LLC"}},{"type":"Feature","geometry":{"type":"Point","coordinates":[-78.756203,42.9282]},"properties":{"url:moreinfo":"http:\/\/foodtree.com\/sources\/8436","urltitle:moreinfo":"Please visit SweetWorks, Inc. on Foodtree","address":"3500 Genesee Street, Buffalo, 14225, United States","title":"SweetWorks, Inc."}},{"type":"Feature","geometry":{"type":"Point","coordinates":[-78.422897,42.995098]},"properties":{"url:moreinfo":"http:\/\/foodtree.com\/sources\/8435","urltitle:moreinfo":"Please visit Yancey's Fancy Inc. on Foodtree","address":"857 Main Road, Corfu, 14036, United States","title":"Yancey's Fancy Inc."}},{"type":"Feature","geometry":{"type":"Point","coordinates":[-78.159798,42.996899]},"properties":{"url:moreinfo":"http:\/\/foodtree.com\/sources\/8434","urltitle:moreinfo":"Please visit Willow Specialties\/Skalny on Foodtree","address":"34 Clinton Street, Batavia, 14020, United States","title":"Willow Specialties\/Skalny"}},{"type":"Feature","geometry":{"type":"Point","coordinates":[-74.082901,42.442402]},"properties":{"url:moreinfo":"http:\/\/foodtree.com\/sources\/8433","urltitle:moreinfo":"Please visit Wild Thymes Farm, Inc. on Foodtree","address":"643 Route 403, Greenville, 12083, United States","title":"Wild Thymes Farm, Inc."}},{"type":"Feature","geometry":{"type":"Point","coordinates":[-73.258598,40.811199]},"properties":{"url:moreinfo":"http:\/\/foodtree.com\/sources\/8432","urltitle:moreinfo":"Please visit Walkers Shortbread, Inc. on Foodtree","address":"170 Commerce Drive, Hauppauge, 11788, United States","title":"Walkers Shortbread, Inc."}},{"type":"Feature","geometry":{"type":"Point","coordinates":[-73.819603,40.587101]},"properties":{"url:moreinfo":"http:\/\/foodtree.com\/sources\/8431","urltitle:moreinfo":"Please visit The Madelaine Chocolate Company on Foodtree","address":"96-03 Beach Channel Drive, Rockaway Beach, 11693, United States","title":"The Madelaine Chocolate Company"}},{"type":"Feature","geometry":{"type":"Point","coordinates":[-73.810997,40.723598]},"properties":{"url:moreinfo":"http:\/\/foodtree.com\/sources\/8430","urltitle:moreinfo":"Please visit Wholesome Foods Inc. on Foodtree","address":"153-44 77th Avenue, Flushing, 11367, United States","title":"Wholesome Foods Inc."}},{"type":"Feature","geometry":{"type":"Point","coordinates":[-73.903999,40.650299]},"properties":{"url:moreinfo":"http:\/\/foodtree.com\/sources\/8429","urltitle:moreinfo":"Please visit Victoria Fine Foods on Foodtree","address":"443 East 100th Street, Brooklyn, 11236, United States","title":"Victoria Fine Foods"}},{"type":"Feature","geometry":{"type":"Point","coordinates":[-73.9897,40.631401]},"properties":{"url:moreinfo":"http:\/\/foodtree.com\/sources\/8428","urltitle:moreinfo":"Please visit The RealBeanz Corporation on Foodtree","address":"1464 51St Street, Brooklyn, 11219, United States","title":"The RealBeanz Corporation"}},{"type":"Feature","geometry":{"type":"Point","coordinates":[-90.168404,38.656502]},"properties":{"url:moreinfo":"http:\/\/foodtree.com\/sources\/8427","urltitle:moreinfo":"Please visit SchoolHouse Kitchen, LLC on Foodtree","address":"232 Third Street , Suite A106, Brooklyn, 11215, United States","title":"SchoolHouse Kitchen, LLC"}},{"type":"Feature","geometry":{"type":"Point","coordinates":[-73.935799,40.711102]},"properties":{"url:moreinfo":"http:\/\/foodtree.com\/sources\/8426","urltitle:moreinfo":"Please visit The Food Solution on Foodtree","address":"35 Meadow Street, Suite 306, Brooklyn, 11206, United States","title":"The Food Solution"}},{"type":"Feature","geometry":{"type":"Point","coordinates":[-71.900597,41.799099]},"properties":{"url:moreinfo":"http:\/\/foodtree.com\/sources\/8425","urltitle:moreinfo":"Please visit Valrhona Inc. on Foodtree","address":"45 Main Street, Suite 1054, Brooklyn, 11201, United States","title":"Valrhona Inc."}},{"type":"Feature","geometry":{"type":"Point","coordinates":[-73.898598,40.779701]},"properties":{"url:moreinfo":"http:\/\/foodtree.com\/sources\/8424","urltitle:moreinfo":"Please visit White Coffee Corporation on Foodtree","address":"18-35 38th Street, Long Island City, 11105, United States","title":"White Coffee Corporation"}},{"type":"Feature","geometry":{"type":"Point","coordinates":[-73.707901,41.1203]},"properties":{"url:moreinfo":"http:\/\/foodtree.com\/sources\/8423","urltitle:moreinfo":"Please visit World's Best Cheeses on Foodtree","address":"111 Business Park Drive, Armonk, 10504, United States","title":"World's Best Cheeses"}},{"type":"Feature","geometry":{"type":"Point","coordinates":[-73.893303,40.813]},"properties":{"url:moreinfo":"http:\/\/foodtree.com\/sources\/8422","urltitle:moreinfo":"Please visit Sarabeth's Kitchen on Foodtree","address":"1161 East 156th Street, Bronx, 10474, United States","title":"Sarabeth's Kitchen"}},{"type":"Feature","geometry":{"type":"Point","coordinates":[-74.005997,40.714401]},"properties":{"url:moreinfo":"http:\/\/foodtree.com\/sources\/8421","urltitle:moreinfo":"Please visit Transatlantic Foods Inc. on Foodtree","address":"P.O. Box 286677, New York, 10128, United States","title":"Transatlantic Foods Inc."}},{"type":"Feature","geometry":{"type":"Point","coordinates":[-74.007896,40.7104]},"properties":{"url:moreinfo":"http:\/\/foodtree.com\/sources\/8420","urltitle:moreinfo":"Please visit United Olive Oil Import Corp on Foodtree","address":"139 Fulton Street, Suite 314, New York, 10038, United States","title":"United Olive Oil Import Corp"}},{"type":"Feature","geometry":{"type":"Point","coordinates":[-73.980904,40.7579]},"properties":{"url:moreinfo":"http:\/\/foodtree.com\/sources\/8419","urltitle:moreinfo":"Please visit SFPL Overseas on Foodtree","address":"55 W 47Th Street , Suite 950, New York, 10036, United States","title":"SFPL Overseas"}},{"type":"Feature","geometry":{"type":"Point","coordinates":[-74.007797,40.7248]},"properties":{"url:moreinfo":"http:\/\/foodtree.com\/sources\/8418","urltitle:moreinfo":"Please visit Sopexa - Food and Wines From France on Foodtree","address":"250 Hudson Street, Suite 703, New York, 10013, United States","title":"Sopexa - Food and Wines From France"}},{"type":"Feature","geometry":{"type":"Point","coordinates":[-73.992401,40.743599]},"properties":{"url:moreinfo":"http:\/\/foodtree.com\/sources\/8417","urltitle:moreinfo":"Please visit Sir Kensington's Gourmet Scooping Ketchup on Foodtree","address":"101 W. 24th Street, Apt 27H, New York, 10011, United States","title":"Sir Kensington's Gourmet Scooping Ketchup"}},{"type":"Feature","geometry":{"type":"Point","coordinates":[-86.2911,36.208099]},"properties":{"url:moreinfo":"http:\/\/foodtree.com\/sources\/8416","urltitle:moreinfo":"Please visit The Power of Fruit, Inc. on Foodtree","address":"P.O. Box 456, Lebanon, 08833, United States","title":"The Power of Fruit, Inc."}},{"type":"Feature","geometry":{"type":"Point","coordinates":[-74.068497,40.350399]},"properties":{"url:moreinfo":"http:\/\/foodtree.com\/sources\/8415","urltitle:moreinfo":"Please visit Virginia Cocktail Peanuts on Foodtree","address":"68 White Street , Suite 7 # 372, Red Bank, 07701, United States","title":"Virginia Cocktail Peanuts"}},{"type":"Feature","geometry":{"type":"Point","coordinates":[-73.977303,40.9403]},"properties":{"url:moreinfo":"http:\/\/foodtree.com\/sources\/8414","urltitle:moreinfo":"Please visit Silver Palate Kitchens, Inc. on Foodtree","address":"211 Knickerbocker Road, Cresskill, 07626, United States","title":"Silver Palate Kitchens, Inc."}},{"type":"Feature","geometry":{"type":"Point","coordinates":[-74.127098,40.939098]},"properties":{"url:moreinfo":"http:\/\/foodtree.com\/sources\/8413","urltitle:moreinfo":"Please visit Vitelli Foods LLC on Foodtree","address":"21-00 Route 208 South, Fair Lawn, 07410, United States","title":"Vitelli Foods LLC"}},{"type":"Feature","geometry":{"type":"Point","coordinates":[-74.131798,40.940399]},"properties":{"url:moreinfo":"http:\/\/foodtree.com\/sources\/8412","urltitle:moreinfo":"Please visit Tiger Tiger USA on Foodtree","address":"P.O. Box 12, Fair Lawn, 07410, United States","title":"Tiger Tiger USA"}},{"type":"Feature","geometry":{"type":"Point","coordinates":[-74.276199,40.6702]},"properties":{"url:moreinfo":"http:\/\/foodtree.com\/sources\/8411","urltitle:moreinfo":"Please visit Taste It Presents, Inc. on Foodtree","address":"200 Sumner Avenue, Kenilworth, 07033, United States","title":"Taste It Presents, Inc."}},{"type":"Feature","geometry":{"type":"Point","coordinates":[-74.146202,40.835701]},"properties":{"url:moreinfo":"http:\/\/foodtree.com\/sources\/8410","urltitle:moreinfo":"Please visit Twinings North America, Inc. on Foodtree","address":"777 Passaic Avenue, Clifton, 07012, United States","title":"Twinings North America, Inc."}},{"type":"Feature","geometry":{"type":"Point","coordinates":[-74.411499,40.905102]},"properties":{"url:moreinfo":"http:\/\/foodtree.com\/sources\/8409","urltitle:moreinfo":"Please visit The Mediterranean Snack Food Company LLC on Foodtree","address":"708 Main Street, Boonton, 07005, United States","title":"The Mediterranean Snack Food Company LLC"}},{"type":"Feature","geometry":{"type":"Point","coordinates":[-74.315201,40.858799]},"properties":{"url:moreinfo":"http:\/\/foodtree.com\/sources\/8408","urltitle:moreinfo":"Please visit TNUVA USA Inc on Foodtree","address":"3 Oak Road, Fairfield, 07004, United States","title":"TNUVA USA Inc"}},{"type":"Feature","geometry":{"type":"Point","coordinates":[-74.284798,40.8834]},"properties":{"url:moreinfo":"http:\/\/foodtree.com\/sources\/8407","urltitle:moreinfo":"Please visit Schratter Foods Inc. on Foodtree","address":"333 Fairfield Road, Fairfield, 07004, United States","title":"Schratter Foods Inc."}},{"type":"Feature","geometry":{"type":"Point","coordinates":[-74.183899,40.839199]},"properties":{"url:moreinfo":"http:\/\/foodtree.com\/sources\/8406","urltitle:moreinfo":"Please visit World Finer Foods, Inc. on Foodtree","address":"1455 Broad Street, Bloomfield, 07003, United States","title":"World Finer Foods, Inc."}},{"type":"Feature","geometry":{"type":"Point","coordinates":[-73.410202,41.571499]},"properties":{"url:moreinfo":"http:\/\/foodtree.com\/sources\/8405","urltitle:moreinfo":"Please visit Torie & Howard, LLC on Foodtree","address":"143 West Street , Suite 121C, New Milford, 06776, United States","title":"Torie & Howard, LLC"}},{"type":"Feature","geometry":{"type":"Point","coordinates":[-74.601097,40.623299]},"properties":{"url:moreinfo":"http:\/\/foodtree.com\/sources\/8404","urltitle:moreinfo":"Please visit The Gracious Gourmet on Foodtree","address":"P.O. Box 218, Bridgewater, 06752, United States","title":"The Gracious Gourmet"}},{"type":"Feature","geometry":{"type":"Point","coordinates":[-72.974197,43.6003]},"properties":{"url:moreinfo":"http:\/\/foodtree.com\/sources\/8403","urltitle:moreinfo":"Please visit Westminster Cracker Company, Inc on Foodtree","address":"1 Scale Avenue Suite 81 Building 14, Rutland, 05701, United States","title":"Westminster Cracker Company, Inc"}},{"type":"Feature","geometry":{"type":"Point","coordinates":[-70.253799,43.656101]},"properties":{"url:moreinfo":"http:\/\/foodtree.com\/sources\/8401","urltitle:moreinfo":"Please visit The Rogers International LLC on Foodtree","address":"10 Dana Street, Suite 301, Portland, 04101, United States","title":"The Rogers International LLC"}},{"type":"Feature","geometry":{"type":"Point","coordinates":[-70.657591,43.153876]},"properties":{"url:moreinfo":"http:\/\/foodtree.com\/sources\/8400","urltitle:moreinfo":"Please visit Stonewall Kitchen on Foodtree","address":"Stonewall Lane,  York ,  ME, 03909, USA","title":"Stonewall Kitchen"}},{"type":"Feature","geometry":{"type":"Point","coordinates":[-71.419601,42.9067]},"properties":{"url:moreinfo":"http:\/\/foodtree.com\/sources\/8399","urltitle:moreinfo":"Please visit Stonyfield on Foodtree","address":"10 Burton Drive, Londonberry, 03053, United States","title":"Stonyfield"}},{"type":"Feature","geometry":{"type":"Point","coordinates":[13.6923,41.740799]},"properties":{"url:moreinfo":"http:\/\/foodtree.com\/sources\/8398","urltitle:moreinfo":"Please visit Sulpizio Tartufi on Foodtree","address":"Via Colle Polmone 14, Campoli Appennino, 03030, Italy","title":"Sulpizio Tartufi"}},{"type":"Feature","geometry":{"type":"Point","coordinates":[-70.919197,42.171902]},"properties":{"url:moreinfo":"http:\/\/foodtree.com\/sources\/8397","urltitle:moreinfo":"Please visit Venus Wafers, Inc. on Foodtree","address":"100 Research Road, Hingham, 02043, United States","title":"Venus Wafers, Inc."}},{"type":"Feature","geometry":{"type":"Point","coordinates":[-71.396599,42.4566]},"properties":{"url:moreinfo":"http:\/\/foodtree.com\/sources\/8396","urltitle:moreinfo":"Please visit Tea Forte, Inc. on Foodtree","address":"23 Bradford Street, Concord, 01742, United States","title":"Tea Forte, Inc."}},{"type":"Feature","geometry":{"type":"Point","coordinates":[-122.234001,47.428699]},"properties":{"url:moreinfo":"http:\/\/foodtree.com\/sources\/8377","urltitle:moreinfo":"Please visit San Gennaro Foods, Inc. on Foodtree","address":"19255 80th Avenue South, Kent, 98032, United States","title":"San Gennaro Foods, Inc."}},{"type":"Feature","geometry":{"type":"Point","coordinates":[-122.153,47.7383]},"properties":{"url:moreinfo":"http:\/\/foodtree.com\/sources\/8376","urltitle:moreinfo":"Please visit SaltWorks, Inc. on Foodtree","address":"15000 Woodinville Redmond Road NE, B900, Woodinville, 98072, United States","title":"SaltWorks, Inc."}},{"type":"Feature","geometry":{"type":"Point","coordinates":[-80.2463,36.091801]},"properties":{"url:moreinfo":"http:\/\/foodtree.com\/sources\/8375","urltitle:moreinfo":"Please visit Salem Baking Company on Foodtree","address":"224 South Cherry Street, Winston-Salem, 27101, United States","title":"Salem Baking Company"}},{"type":"Feature","geometry":{"type":"Point","coordinates":[-122.288002,47.495499]},"properties":{"url:moreinfo":"http:\/\/foodtree.com\/sources\/8374","urltitle:moreinfo":"Please visit Sahale Snacks Inc. on Foodtree","address":"3411 South 120th Place, Suite 100, Seattle, 98168, United States","title":"Sahale Snacks Inc."}},{"type":"Feature","geometry":{"type":"Point","coordinates":[-87.778999,41.880402]},"properties":{"url:moreinfo":"http:\/\/foodtree.com\/sources\/8373","urltitle:moreinfo":"Please visit Sahagian & Associates, Inc. on Foodtree","address":"124 Madison Street, Oak Park, 60302, United States","title":"Sahagian & Associates, Inc."}},{"type":"Feature","geometry":{"type":"Point","coordinates":[-73.541199,41.061298]},"properties":{"url:moreinfo":"http:\/\/foodtree.com\/sources\/8372","urltitle:moreinfo":"Please visit Saffron Road Foods on Foodtree","address":"1177 Summer Street, 3rd Floor, Stamford, 06905, United States","title":"Saffron Road Foods"}},{"type":"Feature","geometry":{"type":"Point","coordinates":[-122.484001,37.945301]},"properties":{"url:moreinfo":"http:\/\/foodtree.com\/sources\/8371","urltitle:moreinfo":"Please visit Sacred Chocolate LLC on Foodtree","address":"1925 Francisco Boulevard E , Suite 5, San Rafael, 94901, United States","title":"Sacred Chocolate LLC"}},{"type":"Feature","geometry":{"type":"Point","coordinates":[-121.383003,38.6371]},"properties":{"url:moreinfo":"http:\/\/foodtree.com\/sources\/8370","urltitle:moreinfo":"Please visit Sacramento Cookie Factory on Foodtree","address":"3428 Auburn Boulevard, Sacramento, 95821, United States","title":"Sacramento Cookie Factory"}},{"type":"Feature","geometry":{"type":"Point","coordinates":[-73.885399,40.8078]},"properties":{"url:moreinfo":"http:\/\/foodtree.com\/sources\/8369","urltitle:moreinfo":"Please visit Sabatino USA., Inc. on Foodtree","address":"330 Coster Street, Bronx, 10474, United States","title":"Sabatino USA., Inc."}},{"type":"Feature","geometry":{"type":"Point","coordinates":[-122.539001,38.0144]},"properties":{"url:moreinfo":"http:\/\/foodtree.com\/sources\/8368","urltitle:moreinfo":"Please visit Rustic Bakery Inc. on Foodtree","address":"4324 Redwood Hwy, Suite 100-A, San Rafael, 94903, United States","title":"Rustic Bakery Inc."}},{"type":"Feature","geometry":{"type":"Point","coordinates":[-87.707298,41.898701]},"properties":{"url:moreinfo":"http:\/\/foodtree.com\/sources\/8367","urltitle:moreinfo":"Please visit Rubschlager Baking Corporation on Foodtree","address":"3220 West Grand Avenue, Chicago, 60651, United States","title":"Rubschlager Baking Corporation"}},{"type":"Feature","geometry":{"type":"Point","coordinates":[-121.804001,36.6805]},"properties":{"url:moreinfo":"http:\/\/foodtree.com\/sources\/8366","urltitle:moreinfo":"Please visit Royal Pacific Food -- The Ginger People on Foodtree","address":"215 Reindollar Avenue, Marina, 93933, United States","title":"Royal Pacific Food -- The Ginger People"}},{"type":"Feature","geometry":{"type":"Point","coordinates":[-65.408699,47.183201]},"properties":{"url:moreinfo":"http:\/\/foodtree.com\/sources\/8365","urltitle:moreinfo":"Please visit Rondo Specialty Foods Ltd. on Foodtree","address":"118 Quigley Boulevard, Newcastle, 19720, United States","title":"Rondo Specialty Foods Ltd."}},{"type":"Feature","geometry":{"type":"Point","coordinates":[-73.9944,40.743599]},"properties":{"url:moreinfo":"http:\/\/foodtree.com\/sources\/8364","urltitle:moreinfo":"Please visit Rogue Confections on Foodtree","address":"144 W 23rd Street Apt 2E, New York, 10011, United States","title":"Rogue Confections"}},{"type":"Feature","geometry":{"type":"Point","coordinates":[-83.688698,40.107601]},"properties":{"url:moreinfo":"http:\/\/foodtree.com\/sources\/7198","urltitle:moreinfo":"Please visit Robert Rothschild Farm on Foodtree","address":"3143 East U.S. Highway 36, Urbana, Ohio, 43078, United States","title":"Robert Rothschild Farm"}},{"type":"Feature","geometry":{"type":"Point","coordinates":[-73.7649,41.1595]},"properties":{"url:moreinfo":"http:\/\/foodtree.com\/sources\/8363","urltitle:moreinfo":"Please visit Roaring Brook Dairy on Foodtree","address":"P.O. Box 753, Chappaqua, 10514, United States","title":"Roaring Brook Dairy"}},{"type":"Feature","geometry":{"type":"Point","coordinates":[-95.395302,29.7614]},"properties":{"url:moreinfo":"http:\/\/foodtree.com\/sources\/8362","urltitle:moreinfo":"Please visit Riviana Foods, Inc. on Foodtree","address":"2777 Allen Parkway, 15th Floor, Houston, 77019, United States","title":"Riviana Foods, Inc."}},{"type":"Feature","geometry":{"type":"Point","coordinates":[-80.192398,25.8092]},"properties":{"url:moreinfo":"http:\/\/foodtree.com\/sources\/8361","urltitle:moreinfo":"Please visit Rigoni Di Asiago USA LLC on Foodtree","address":"3449 NE 1st Avenue,  L-32, Miami, 33137, United States","title":"Rigoni Di Asiago USA LLC"}},{"type":"Feature","geometry":{"type":"Point","coordinates":[-72.7994,41.277901]},"properties":{"url:moreinfo":"http:\/\/foodtree.com\/sources\/8360","urltitle:moreinfo":"Please visit Richardson Brands Co. on Foodtree","address":"101 Erie Boulevard, Branford, 13317, United States","title":"Richardson Brands Co."}},{"type":"Feature","geometry":{"type":"Point","coordinates":[-95.260002,29.3228]},"properties":{"url:moreinfo":"http:\/\/foodtree.com\/sources\/8359","urltitle:moreinfo":"Please visit RiceSelect on Foodtree","address":"1925 FM 2917, Alvin, TX, 77511, United States","title":"RiceSelect"}},{"type":"Feature","geometry":{"type":"Point","coordinates":[-111.995003,33.511902]},"properties":{"url:moreinfo":"http:\/\/foodtree.com\/sources\/8358","urltitle:moreinfo":"Please visit Revolution Tea, LLC on Foodtree","address":"5080 North 40th Street, Suite 340, Phoenix, 85018, United States","title":"Revolution Tea, LLC"}},{"type":"Feature","geometry":{"type":"Point","coordinates":[-117.203003,33.020302]},"properties":{"url:moreinfo":"http:\/\/foodtree.com\/sources\/8357","urltitle:moreinfo":"Please visit ResVez, Inc. on Foodtree","address":"P.O. Box 2155, Rancho Santa Fe, 92067, United States","title":"ResVez, Inc."}},{"type":"Feature","geometry":{"type":"Point","coordinates":[-97.320801,32.725399]},"properties":{"url:moreinfo":"http:\/\/foodtree.com\/sources\/8356","urltitle:moreinfo":"Please visit Renfro Foods, Inc. on Foodtree","address":"P.O. Box 321, Fort Worth, 76101, United States","title":"Renfro Foods, Inc."}},{"type":"Feature","geometry":{"type":"Point","coordinates":[-122.802002,38.380402]},"properties":{"url:moreinfo":"http:\/\/foodtree.com\/sources\/5968","urltitle:moreinfo":"Please visit Redwood Hill Farm \/ Green Valley Organics on Foodtree","address":"2064 Highway 116 North, Building 1, Suite 130, Sebastopol, California, 95472, United States","title":"Redwood Hill Farm \/ Green Valley Organics"}},{"type":"Feature","geometry":{"type":"Point","coordinates":[-73.635597,40.7346]},"properties":{"url:moreinfo":"http:\/\/foodtree.com\/sources\/8355","urltitle:moreinfo":"Please visit Redondo Iglesias USA, Inc. on Foodtree","address":"1325 Franklin Avenue, Suite 325, Garden City, 11530, United States","title":"Redondo Iglesias USA, Inc."}},{"type":"Feature","geometry":{"type":"Point","coordinates":[-111.420998,40.4953]},"properties":{"url:moreinfo":"http:\/\/foodtree.com\/sources\/8354","urltitle:moreinfo":"Please visit RealSalt on Foodtree","address":"475 West 910 South, Heber City, 84032, United States","title":"RealSalt"}},{"type":"Feature","geometry":{"type":"Point","coordinates":[-74.481499,40.796799]},"properties":{"url:moreinfo":"http:\/\/foodtree.com\/sources\/8353","urltitle:moreinfo":"Please visit Real Torino on Foodtree","address":"P.O. Box 448, Morristown, 07960, United States","title":"Real Torino"}},{"type":"Feature","geometry":{"type":"Point","coordinates":[-93.380402,45.048698]},"properties":{"url:moreinfo":"http:\/\/foodtree.com\/sources\/8352","urltitle:moreinfo":"Please visit RBH USA on Foodtree","address":"5197 Winnetka Avenue, Minneapolis, 55428, United States","title":"RBH USA"}},{"type":"Feature","geometry":{"type":"Point","coordinates":[-80.2276,25.750601]},"properties":{"url:moreinfo":"http:\/\/foodtree.com\/sources\/8351","urltitle:moreinfo":"Please visit Raw Foods International, LLC on Foodtree","address":"2050 Coral Way, Suite 601, Miami, 33145, United States","title":"Raw Foods International, LLC"}},{"type":"Feature","geometry":{"type":"Point","coordinates":[-74.016899,40.7034]},"properties":{"url:moreinfo":"http:\/\/foodtree.com\/sources\/8350","urltitle:moreinfo":"Please visit Rao's Specialty Foods, Inc. on Foodtree","address":"17 Battery Place, Suite 610, New York, 10004, United States","title":"Rao's Specialty Foods, Inc."}},{"type":"Feature","geometry":{"type":"Point","coordinates":[-121.887001,38.0242]},"properties":{"url:moreinfo":"http:\/\/foodtree.com\/sources\/8349","urltitle:moreinfo":"Please visit Ramar Foods International Inc. on Foodtree","address":"1101 Railroad Lane, Pittsburg, 94596, United States","title":"Ramar Foods International Inc."}},{"type":"Feature","geometry":{"type":"Point","coordinates":[-74.061401,40.719299]},"properties":{"url:moreinfo":"http:\/\/foodtree.com\/sources\/8348","urltitle:moreinfo":"Please visit Rajbhog Foods on Foodtree","address":"60 Amity Street, Jersey City, 07304, United States","title":"Rajbhog Foods"}},{"type":"Feature","geometry":{"type":"Point","coordinates":[-84.247902,34.059299]},"properties":{"url:moreinfo":"http:\/\/foodtree.com\/sources\/8347","urltitle:moreinfo":"Please visit Radiant Systems on Foodtree","address":"3925 Brookside Parkway, Alpharetta, 30022, United States","title":"Radiant Systems"}},{"type":"Feature","geometry":{"type":"Point","coordinates":[-94.681602,38.611698]},"properties":{"url:moreinfo":"http:\/\/foodtree.com\/sources\/8346","urltitle:moreinfo":"Please visit Rabbit Creek Products, Inc. on Foodtree","address":"903 North Broadway, Louisburg, 66053, United States","title":"Rabbit Creek Products, Inc."}},{"type":"Feature","geometry":{"type":"Point","coordinates":[-87.901398,42.2696]},"properties":{"url:moreinfo":"http:\/\/foodtree.com\/sources\/8345","urltitle:moreinfo":"Please visit R&V Imports LLC on Foodtree","address":"13801 W Laurel Drive, Lake Forest, 60045, United States","title":"R&V Imports LLC"}},{"type":"Feature","geometry":{"type":"Point","coordinates":[-84.5411,39.1674]},"properties":{"url:moreinfo":"http:\/\/foodtree.com\/sources\/8344","urltitle:moreinfo":"Please visit Queen City Cookies on Foodtree","address":"4354 Hamilton Avenue, Cincinnati, 45223, United States","title":"Queen City Cookies"}},{"type":"Feature","geometry":{"type":"Point","coordinates":[-121.859001,37.312302]},"properties":{"url:moreinfo":"http:\/\/foodtree.com\/sources\/8343","urltitle:moreinfo":"Please visit Quality Products Inc. on Foodtree","address":"1850 S 10Th Street , Suite 22, San Jose, 95112, United States","title":"Quality Products Inc."}},{"type":"Feature","geometry":{"type":"Point","coordinates":[-115.138,35.968899]},"properties":{"url:moreinfo":"http:\/\/foodtree.com\/sources\/8342","urltitle:moreinfo":"Please visit Quality Candy Company\/King Leo on Foodtree","address":"1420 Jet Stream Drive, Suite 110, Henderson, 89052, United States","title":"Quality Candy Company\/King Leo"}},{"type":"Feature","geometry":{"type":"Point","coordinates":[-73.9179,41.090698]},"properties":{"url:moreinfo":"http:\/\/foodtree.com\/sources\/8341","urltitle:moreinfo":"Please visit Q.bel Foods, LLC on Foodtree","address":"P.O. Box 652, Nyack, 10960, United States","title":"Q.bel Foods, LLC"}},{"type":"Feature","geometry":{"type":"Point","coordinates":[-71.900597,41.799099]},"properties":{"url:moreinfo":"http:\/\/foodtree.com\/sources\/8340","urltitle:moreinfo":"Please visit Q Tonic on Foodtree","address":"45 Main Street, Suite 850, Brooklyn, 11201, United States","title":"Q Tonic"}},{"type":"Feature","geometry":{"type":"Point","coordinates":[-117.940002,34.1213]},"properties":{"url:moreinfo":"http:\/\/foodtree.com\/sources\/8339","urltitle:moreinfo":"Please visit Q & B Foods, Inc. on Foodtree","address":"15547 First Street, Irwindale, 91706, United States","title":"Q & B Foods, Inc."}},{"type":"Feature","geometry":{"type":"Point","coordinates":[-122.407997,37.7901]},"properties":{"url:moreinfo":"http:\/\/foodtree.com\/sources\/8338","urltitle:moreinfo":"Please visit Purity Organic' on Foodtree","address":"1625 Bush Street, Suite 3, San Francisco, 94109, United States","title":"Purity Organic'"}},{"type":"Feature","geometry":{"type":"Point","coordinates":[-82.175201,39.381802]},"properties":{"url:moreinfo":"http:\/\/foodtree.com\/sources\/8337","urltitle:moreinfo":"Please visit Purely American on Foodtree","address":"5991 Industrial Drive, Athens, 45701, United States","title":"Purely American"}},{"type":"Feature","geometry":{"type":"Point","coordinates":[-122.053001,37.27]},"properties":{"url:moreinfo":"http:\/\/foodtree.com\/sources\/8336","urltitle:moreinfo":"Please visit Pure Swiss Inc. on Foodtree","address":"21950 Via Regina, Saratoga, NY, 95070, United States","title":"Pure Swiss Inc."}},{"type":"Feature","geometry":{"type":"Point","coordinates":[-74.827301,40.862301]},"properties":{"url:moreinfo":"http:\/\/foodtree.com\/sources\/8335","urltitle:moreinfo":"Please visit Pure Dark on Foodtree","address":"800 High Street, Hackettstown, 07840, United States","title":"Pure Dark"}},{"type":"Feature","geometry":{"type":"Point","coordinates":[-78.776398,35.658001]},"properties":{"url:moreinfo":"http:\/\/foodtree.com\/sources\/8334","urltitle:moreinfo":"Please visit Project 7, Inc. on Foodtree","address":"3195 Red HIll Avenue, Unit A, Southlake, 92626, United States","title":"Project 7, Inc."}},{"type":"Feature","geometry":{"type":"Point","coordinates":[-122.585999,47.567101]},"properties":{"url:moreinfo":"http:\/\/foodtree.com\/sources\/8333","urltitle:moreinfo":"Please visit Progourmet Foods, LLC on Foodtree","address":"3643 Beach Drive, Port Orchard, 98366, United States","title":"Progourmet Foods, LLC"}},{"type":"Feature","geometry":{"type":"Point","coordinates":[-122.040001,37.5924]},"properties":{"url:moreinfo":"http:\/\/foodtree.com\/sources\/8332","urltitle:moreinfo":"Please visit ProFood USA on Foodtree","address":"33288 Alvarado Niles Road, Union City, 94587, United States","title":"ProFood USA"}},{"type":"Feature","geometry":{"type":"Point","coordinates":[-112.003998,40.743198]},"properties":{"url:moreinfo":"http:\/\/foodtree.com\/sources\/8331","urltitle:moreinfo":"Please visit Probar, LLC on Foodtree","address":"4752 W. California Ave, Suite 1000, Salt Lake City, 84104, United States","title":"Probar, LLC"}},{"type":"Feature","geometry":{"type":"Point","coordinates":[-121.605003,37.0858]},"properties":{"url:moreinfo":"http:\/\/foodtree.com\/sources\/8330","urltitle:moreinfo":"Please visit Private Spring Water Inc. on Foodtree","address":"13240 Llagas Avenue, San Martin, 95046, United States","title":"Private Spring Water Inc."}},{"type":"Feature","geometry":{"type":"Point","coordinates":[-118.385002,33.9454]},"properties":{"url:moreinfo":"http:\/\/foodtree.com\/sources\/8329","urltitle:moreinfo":"Please visit Primex International Trading Corporation on Foodtree","address":"5777 West Century Boulevard, Suite 1485, Los Angeles, 90045, United States","title":"Primex International Trading Corporation"}},{"type":"Feature","geometry":{"type":"Point","coordinates":[-93.462303,44.979599]},"properties":{"url:moreinfo":"http:\/\/foodtree.com\/sources\/8328","urltitle:moreinfo":"Please visit Primera Technology, Inc. on Foodtree","address":"Two Carlson Parkway North, Plymouth, 55447, United States","title":"Primera Technology, Inc."}},{"type":"Feature","geometry":{"type":"Point","coordinates":[-84.178596,39.979599]},"properties":{"url:moreinfo":"http:\/\/foodtree.com\/sources\/8327","urltitle:moreinfo":"Please visit Prestolabels.com on Foodtree","address":"31 Industry Park Court, Tipp City, 45371, United States","title":"Prestolabels.com"}},{"type":"Feature","geometry":{"type":"Point","coordinates":[-100.288002,47.606098]},"properties":{"url:moreinfo":"http:\/\/foodtree.com\/sources\/8326","urltitle:moreinfo":"Please visit Premium Gold Flax Products & Processing Inc. on Foodtree","address":"1321 12th Ave NE, Suite B, Denhoff, 58430, United States","title":"Premium Gold Flax Products & Processing Inc."}},{"type":"Feature","geometry":{"type":"Point","coordinates":[-80.656898,35.426601]},"properties":{"url:moreinfo":"http:\/\/foodtree.com\/sources\/8325","urltitle:moreinfo":"Please visit PreGel America, Inc on Foodtree","address":"4450 Fortune Avenue NW, Concord, 28027, United States","title":"PreGel America, Inc"}},{"type":"Feature","geometry":{"type":"Point","coordinates":[-70.886101,42.561501]},"properties":{"url:moreinfo":"http:\/\/foodtree.com\/sources\/8324","urltitle:moreinfo":"Please visit Powell & Mahoney Ltd on Foodtree","address":"100 Cummings Center, Suite. 220B, Beverly, 01915, United States","title":"Powell & Mahoney Ltd"}},{"type":"Feature","geometry":{"type":"Point","coordinates":[-76.9729,38.940399]},"properties":{"url:moreinfo":"http:\/\/foodtree.com\/sources\/8323","urltitle:moreinfo":"Please visit Pork Barrel BBQ on Foodtree","address":"2227 Taylor St., NE, Washington, 20018, United States","title":"Pork Barrel BBQ"}},{"type":"Feature","geometry":{"type":"Point","coordinates":[-118.400002,34.073601]},"properties":{"url:moreinfo":"http:\/\/foodtree.com\/sources\/8322","urltitle:moreinfo":"Please visit Popsalot Gourmet Popcorn on Foodtree","address":"P.O. Box 7040, Beverly Hills, 90212, United States","title":"Popsalot Gourmet Popcorn"}},{"type":"Feature","geometry":{"type":"Point","coordinates":[-118.402,33.918499]},"properties":{"url:moreinfo":"http:\/\/foodtree.com\/sources\/8321","urltitle:moreinfo":"Please visit Popcornopolis Inc. on Foodtree","address":"224 Oregon Street, El Segundo, 90245, United States","title":"Popcornopolis Inc."}},{"type":"Feature","geometry":{"type":"Point","coordinates":[-74.233803,40.409901]},"properties":{"url:moreinfo":"http:\/\/foodtree.com\/sources\/8320","urltitle:moreinfo":"Please visit Pomi' USA Inc on Foodtree","address":"253 Main Street, Suite 380, Matawan, 07747, United States","title":"Pomi' USA Inc"}},{"type":"Feature","geometry":{"type":"Point","coordinates":[-80.885803,35.1586]},"properties":{"url:moreinfo":"http:\/\/foodtree.com\/sources\/8319","urltitle:moreinfo":"Please visit Polka Dot Bake Shop on Foodtree","address":"518 Griffith Road, Charlotte, 28217, United States","title":"Polka Dot Bake Shop"}},{"type":"Feature","geometry":{"type":"Point","coordinates":[-122.388,37.758999]},"properties":{"url:moreinfo":"http:\/\/foodtree.com\/sources\/8317","urltitle:moreinfo":"Please visit Poco Dolce Confections on Foodtree","address":"2419 Third Street, San Francisco, 94107, United States","title":"Poco Dolce Confections"}},{"type":"Feature","geometry":{"type":"Point","coordinates":[-118.450996,34.148998]},"properties":{"url:moreinfo":"http:\/\/foodtree.com\/sources\/8316","urltitle:moreinfo":"Please visit Plush Puffs Gourmet Marshmallows on Foodtree","address":"P.O. Box 56043, Sherman Oaks, California, 91413, United States","title":"Plush Puffs Gourmet Marshmallows"}},{"type":"Feature","geometry":{"type":"Point","coordinates":[-87.919601,41.820099]},"properties":{"url:moreinfo":"http:\/\/foodtree.com\/sources\/8315","urltitle:moreinfo":"Please visit Plocky's Fine Snacks on Foodtree","address":"15 Spinning Wheel Road, Suite 314, Hinsdale, 60521, United States","title":"Plocky's Fine Snacks"}},{"type":"Feature","geometry":{"type":"Point","coordinates":[-111.890999,40.760799]},"properties":{"url:moreinfo":"http:\/\/foodtree.com\/sources\/8314","urltitle:moreinfo":"Please visit Plentiful Pantry on Foodtree","address":"P.O. Box 271097, Salt Lake City, 84127, United States","title":"Plentiful Pantry"}},{"type":"Feature","geometry":{"type":"Point","coordinates":[-117.857002,33.916]},"properties":{"url:moreinfo":"http:\/\/foodtree.com\/sources\/8313","urltitle:moreinfo":"Please visit Plastic Bags For You on Foodtree","address":"2980 Enterprise Street, Brea, 92821, United States","title":"Plastic Bags For You"}},{"type":"Feature","geometry":{"type":"Point","coordinates":[-87.802803,42.180199]},"properties":{"url:moreinfo":"http:\/\/foodtree.com\/sources\/8312","urltitle:moreinfo":"Please visit Planet Canit, LLC on Foodtree","address":"843 Kimball Road, Highland Park, 60035, United States","title":"Planet Canit, LLC"}},{"type":"Feature","geometry":{"type":"Point","coordinates":[-118.897003,34.280102]},"properties":{"url:moreinfo":"http:\/\/foodtree.com\/sources\/8311","urltitle:moreinfo":"Please visit Picnic Time, Inc. on Foodtree","address":"5131 Maureen Lane, Moorpark, 93021, United States","title":"Picnic Time, Inc."}},{"type":"Feature","geometry":{"type":"Point","coordinates":[-118.277,33.915199]},"properties":{"url:moreinfo":"http:\/\/foodtree.com\/sources\/8310","urltitle:moreinfo":"Please visit Piccadilly Imports on Foodtree","address":"12905 S. Spring Street, Los Angeles, 90061, United States","title":"Piccadilly Imports"}},{"type":"Feature","geometry":{"type":"Point","coordinates":[-75.706497,39.8307]},"properties":{"url:moreinfo":"http:\/\/foodtree.com\/sources\/8309","urltitle:moreinfo":"Please visit Phillips Gourmet on Foodtree","address":"1011 Kaolin Road, Kennett Square, 19348, United States","title":"Phillips Gourmet"}},{"type":"Feature","geometry":{"type":"Point","coordinates":[-88.086502,41.665001]},"properties":{"url:moreinfo":"http:\/\/foodtree.com\/sources\/8308","urltitle:moreinfo":"Please visit Peters Imports, Inc. on Foodtree","address":"900 N. Schmidt Road, Romeoville, 60446, United States","title":"Peters Imports, Inc."}},{"type":"Feature","geometry":{"type":"Point","coordinates":[-73.833099,40.7658]},"properties":{"url:moreinfo":"http:\/\/foodtree.com\/sources\/8307","urltitle:moreinfo":"Please visit Pereg Gourmet on Foodtree","address":"P.O. Box 670249, Flushing, 11367, United States","title":"Pereg Gourmet"}},{"type":"Feature","geometry":{"type":"Point","coordinates":[-96.843201,33.077301]},"properties":{"url:moreinfo":"http:\/\/foodtree.com\/sources\/8306","urltitle:moreinfo":"Please visit PepsiCo Warehouse Sales on Foodtree","address":"7701 Legacy Drive, Suite 2A-57, Plano, 75034, United States","title":"PepsiCo Warehouse Sales"}},{"type":"Feature","geometry":{"type":"Point","coordinates":[-111.413002,40.8111]},"properties":{"url:moreinfo":"http:\/\/foodtree.com\/sources\/8305","urltitle:moreinfo":"Please visit Pepperlane Products LLC on Foodtree","address":"29730 Old Lincoln Highway, Wanship, 84017, United States","title":"Pepperlane Products LLC"}},{"type":"Feature","geometry":{"type":"Point","coordinates":[-98.502701,34.598801]},"properties":{"url:moreinfo":"http:\/\/foodtree.com\/sources\/8304","urltitle:moreinfo":"Please visit Pepper Creek Farms on Foodtree","address":"1002 Southwest Ard Street, Lawton, 73505, United States","title":"Pepper Creek Farms"}},{"type":"Feature","geometry":{"type":"Point","coordinates":[-82.7883,28.000601]},"properties":{"url:moreinfo":"http:\/\/foodtree.com\/sources\/8303","urltitle:moreinfo":"Please visit Pelican Bay, Ltd. on Foodtree","address":"150 Douglas Avenue, Dunedin, 34698, United States","title":"Pelican Bay, Ltd."}},{"type":"Feature","geometry":{"type":"Point","coordinates":[-122.267998,37.793301]},"properties":{"url:moreinfo":"http:\/\/foodtree.com\/sources\/8302","urltitle:moreinfo":"Please visit Peerless Coffee Company on Foodtree","address":"260 Oak Street, Oakland, 94607, United States","title":"Peerless Coffee Company"}},{"type":"Feature","geometry":{"type":"Point","coordinates":[-74.023102,41.060299]},"properties":{"url:moreinfo":"http:\/\/foodtree.com\/sources\/8301","urltitle:moreinfo":"Please visit Pearl River Pastry & Chocolates on Foodtree","address":"4 Dexter Plaza, Pearl River, 10965, United States","title":"Pearl River Pastry & Chocolates"}},{"type":"Feature","geometry":{"type":"Point","coordinates":[-73.909599,40.682098]},"properties":{"url:moreinfo":"http:\/\/foodtree.com\/sources\/8300","urltitle:moreinfo":"Please visit Peanut Butter & Co. on Foodtree","address":"1790 Broadway, Suite 702, New York, 10019, United States","title":"Peanut Butter & Co."}},{"type":"Feature","geometry":{"type":"Point","coordinates":[-122.306999,37.563999]},"properties":{"url:moreinfo":"http:\/\/foodtree.com\/sources\/8299","urltitle:moreinfo":"Please visit Pastry Smart LLC on Foodtree","address":"1100 South Amphlett Boulevard, San Mateo, 94402, United States","title":"Pastry Smart LLC"}},{"type":"Feature","geometry":{"type":"Point","coordinates":[-89.952904,38.772999]},"properties":{"url:moreinfo":"http:\/\/foodtree.com\/sources\/8298","urltitle:moreinfo":"Please visit Passage Foods, LLC on Foodtree","address":"30 Depot Street, Collinsville, 06022, United States","title":"Passage Foods, LLC"}},{"type":"Feature","geometry":{"type":"Point","coordinates":[-122.244003,47.4202]},"properties":{"url:moreinfo":"http:\/\/foodtree.com\/sources\/8297","urltitle:moreinfo":"Please visit PARTNERS, a Tasteful Choice Company on Foodtree","address":"20232 72nd Avenue South, Kent, 98032, United States","title":"PARTNERS, a Tasteful Choice Company"}},{"type":"Feature","geometry":{"type":"Point","coordinates":[-84.544502,42.735001]},"properties":{"url:moreinfo":"http:\/\/foodtree.com\/sources\/8296","urltitle:moreinfo":"Please visit Paramount Coffee Company on Foodtree","address":"130 North Larch Street, Lansing, 48912, United States","title":"Paramount Coffee Company"}},{"type":"Feature","geometry":{"type":"Point","coordinates":[-82.135002,28.0121]},"properties":{"url:moreinfo":"http:\/\/foodtree.com\/sources\/8295","urltitle:moreinfo":"Please visit Paradise, Inc. on Foodtree","address":"1200 W Dr. Martin Luther King Jr Bouelvard, Plant City, 33563, United States","title":"Paradise, Inc."}},{"type":"Feature","geometry":{"type":"Point","coordinates":[-71.199203,42.163502]},"properties":{"url:moreinfo":"http:\/\/foodtree.com\/sources\/8294","urltitle:moreinfo":"Please visit Paradise Fruits North America on Foodtree","address":"1410 Providence Highway, Suite 106, Norwood, 02062, United States","title":"Paradise Fruits North America"}},{"type":"Feature","geometry":{"type":"Point","coordinates":[-122.737,45.396]},"properties":{"url:moreinfo":"http:\/\/foodtree.com\/sources\/8293","urltitle:moreinfo":"Please visit Paradigm Foodworks, Inc. on Foodtree","address":"5875 Lakeview Boulevard, Suite 102, Lake Oswego, 97035, United States","title":"Paradigm Foodworks, Inc."}},{"type":"Feature","geometry":{"type":"Point","coordinates":[-97.929802,38.060799]},"properties":{"url:moreinfo":"http:\/\/foodtree.com\/sources\/8292","urltitle:moreinfo":"Please visit Pantry Shelf\/Mixxm on Foodtree","address":"P.O. Box 613, Hutchinson, 67504, United States","title":"Pantry Shelf\/Mixxm"}},{"type":"Feature","geometry":{"type":"Point","coordinates":[-118.254997,34.141102]},"properties":{"url:moreinfo":"http:\/\/foodtree.com\/sources\/8291","urltitle:moreinfo":"Please visit Pansur USA Inc on Foodtree","address":"Brand Blvd Center, 450 Brand Boulevard , Suite 600, Glendale, 91203 , United States","title":"Pansur USA Inc"}},{"type":"Feature","geometry":{"type":"Point","coordinates":[-70.762703,42.101799]},"properties":{"url:moreinfo":"http:\/\/foodtree.com\/sources\/8290","urltitle:moreinfo":"Please visit PanaPesca USA on Foodtree","address":"42 Winter Street Unit 7, Pembroke, 02359, United States","title":"PanaPesca USA"}},{"type":"Feature","geometry":{"type":"Point","coordinates":[-123.202003,39.201698]},"properties":{"url:moreinfo":"http:\/\/foodtree.com\/sources\/8289","urltitle:moreinfo":"Please visit Pamela's Products Inc. on Foodtree","address":"1 Carousel Lane, Suite D, Ukiah, 95482, United States","title":"Pamela's Products Inc."}},{"type":"Feature","geometry":{"type":"Point","coordinates":[-73.409798,40.751999]},