{"type":"FeatureCollection","features":[{"type":"Feature","geometry":{"type":"Point","coordinates":[-97.104698,32.737701]},"properties":{"url:moreinfo":"http:\/\/foodtree.com\/sources\/8650","address":"215 E. Front St., Arlington, TX, USA, 76011","title":"Downtown Arlington Farmer's Market"}},{"type":"Feature","geometry":{"type":"Point","coordinates":[-97.3685,32.748001]},"properties":{"url:moreinfo":"http:\/\/foodtree.com\/sources\/8658","address":"3501 Camp Bowie Blvd., Fort Worth, TX, US, 76107","title":"The Amon Carter Museum"}},{"type":"Feature","geometry":{"type":"Point","coordinates":[-97.4422,32.716202]},"properties":{"url:moreinfo":"http:\/\/foodtree.com\/sources\/6502","address":"3821 Southwest Blvd., Tarrant, Fort Worth, TEXAS, USA, 76116","title":"Cowtown Farmers Market"}},{"type":"Feature","geometry":{"type":"Point","coordinates":[-97.384903,32.761501]},"properties":{"url:moreinfo":"http:\/\/foodtree.com\/sources\/8654","address":"4425 White Settlement Road, Fort Worth, TX, United States, 76114","title":"George's Imported Foods"}},{"type":"Feature","geometry":{"type":"Point","coordinates":[-97.339996,32.7304]},"properties":{"url:moreinfo":"http:\/\/foodtree.com\/sources\/8652","address":"1311 W. Magnolia Avenue, Fort Worth, TX, USA, 76104","title":"Avoca Coffee"}},{"type":"Feature","geometry":{"type":"Point","coordinates":[-97.3964,32.7603]},"properties":{"url:moreinfo":"http:\/\/foodtree.com\/sources\/8636","address":"4900 White Settlement Road , Fort Worth , TX, USA, 76114","title":"Artisan Baking Co."}}],"properties":{"title":"Artisan Baking Co. - connections"}}