{"supplychain":{"category":18,"created":1326821272,"enable_comments":true,"flags":0,"id":1714,"modified":1326822731,"other_perms":1,"passcode":null,"user_featured":false,"usergroup_id":null,"usergroup_perms":0,"user_id":25,"owner":{"id":25,"name":"alex","avatar":"http:\/\/free.sourcemap.com\/assets\/images\/default-user.png","banner_url":null,"display_name":null},"taxonomy":[{"description":"Miscellaneous\n","id":18,"left":33,"name":"miscellaneous","right":34,"title":"Miscellaneous"}],"attributes":{"title":"US Electric Output 2010","description":"Total US Electricity output by type and industry.\n\nThis is based on data from ht","tags":""},"stops":[{"local_stop_id":53,"id":53,"geometry":"POINT(-17198088.981802 9246092.645438)","attributes":{"description":"","title":"Coal","placename":"Alaska, USA","address":"AK"}},{"local_stop_id":52,"id":52,"geometry":"POINT(-9673919.562125 3805156.31661)","attributes":{"description":"","title":"Coal","placename":"Alabama, USA","address":"AL"}},{"local_stop_id":51,"id":51,"geometry":"POINT(-10222672.932701 4191236.712494)","attributes":{"description":"","title":"Coal","placename":"Arkansas, USA","address":"AR"}},{"local_stop_id":50,"id":50,"geometry":"POINT(-12366897.576377 4035373.768189)","attributes":{"description":"","title":"Coal","placename":"Arizona, USA","address":"AZ"}},{"local_stop_id":49,"id":49,"geometry":"POINT(-13293543.426354 4408244.133949)","attributes":{"description":"","title":"Coal","placename":"California, USA","address":"CA"}},{"local_stop_id":48,"id":48,"geometry":"POINT(-11775605.878028 4800770.694715)","attributes":{"description":"","title":"Coal","placename":"Colorado, USA","address":"CO"}},{"local_stop_id":47,"id":47,"geometry":"POINT(-8136091.001907 5101727.893297)","attributes":{"description":"","title":"Coal","placename":"Connecticut, USA","address":"CT"}},{"local_stop_id":46,"id":46,"geometry":"POINT(-8407701.75407 4708907.129583)","attributes":{"description":"","title":"Coal","placename":"Delaware, USA","address":"DE"}},{"local_stop_id":45,"id":45,"geometry":"POINT(-9074292.17125 3206781.536669)","attributes":{"description":"","title":"Coal","placename":"Florida, USA","address":"FL"}},{"local_stop_id":44,"id":44,"geometry":"POINT(-9229178.715495 3783994.218369)","attributes":{"description":"","title":"Coal","placename":"Georgia, USA","address":"GA"}},{"local_stop_id":43,"id":43,"geometry":"POINT(-17319396.046177 2260805.467829)","attributes":{"description":"","title":"Coal","placename":"Hawaii, USA","address":"HI"}},{"local_stop_id":42,"id":42,"geometry":"POINT(-10363588.780664 5142722.292069)","attributes":{"description":"","title":"Coal","placename":"Iowa, USA","address":"IA"}},{"local_stop_id":41,"id":41,"geometry":"POINT(-12773025.554437 5476002.657741)","attributes":{"description":"","title":"Coal","placename":"Idaho, USA","address":"ID"}},{"local_stop_id":40,"id":40,"geometry":"POINT(-9951798.648024 4958377.351181)","attributes":{"description":"","title":"Coal","placename":"Illinois, USA","address":"IL"}},{"local_stop_id":39,"id":39,"geometry":"POINT(-9529211.604576 4946369.870441)","attributes":{"description":"","title":"Coal","placename":"Indiana, USA","address":"IN"}},{"local_stop_id":38,"id":38,"geometry":"POINT(-10963216.171539 4723376.575377)","attributes":{"description":"","title":"Coal","placename":"Kansas, USA","address":"KS"}},{"local_stop_id":37,"id":37,"geometry":"POINT(-9380895.481768 4556753.779349)","attributes":{"description":"","title":"Coal","placename":"Kentucky, USA","address":"KY"}},{"local_stop_id":36,"id":36,"geometry":"POINT(-10257537.206474 3664585.105528)","attributes":{"description":"","title":"Coal","placename":"Louisiana, USA","address":"LA"}},{"local_stop_id":35,"id":35,"geometry":"POINT(-7946256.582951 5222174.159909)","attributes":{"description":"","title":"Coal","placename":"Massachusetts, USA","address":"MA"}},{"local_stop_id":34,"id":34,"geometry":"POINT(-8531667.283733 4728227.690167)","attributes":{"description":"","title":"Coal","placename":"Maryland, USA","address":"MD"}},{"local_stop_id":33,"id":33,"geometry":"POINT(-7730634.235848 5661563.301801)","attributes":{"description":"","title":"Coal","placename":"Maine, USA","address":"ME"}},{"local_stop_id":32,"id":32,"geometry":"POINT(-9529211.604576 5514295.044503)","attributes":{"description":"","title":"Coal","placename":"Michigan, USA","address":"MI"}},{"local_stop_id":31,"id":31,"geometry":"POINT(-10540386.151039 5898041.423344)","attributes":{"description":"","title":"Coal","placename":"Minnesota, USA","address":"MN"}},{"local_stop_id":30,"id":30,"geometry":"POINT(-10222672.932701 4574377.176589)","attributes":{"description":"","title":"Coal","placename":"Missouri, USA","address":"MO"}},{"local_stop_id":29,"id":29,"geometry":"POINT(-9951798.648024 3809956.871062)","attributes":{"description":"","title":"Coal","placename":"Mississippi, USA","address":"MS"}},{"local_stop_id":28,"id":28,"geometry":"POINT(-12285504.627495 5922457.210138)","attributes":{"description":"","title":"Coal","placename":"Montana, USA","address":"MT"}},{"local_stop_id":27,"id":27,"geometry":"POINT(-8796388.205445 4267589.232294)","attributes":{"description":"","title":"Coal","placename":"North Carolina, USA","address":"NC"}},{"local_stop_id":26,"id":26,"geometry":"POINT(-11243492.533804 6032560.909658)","attributes":{"description":"","title":"Coal","placename":"North Dakota, USA","address":"ND"}},{"local_stop_id":25,"id":25,"geometry":"POINT(-11121018.963617 5085264.525008)","attributes":{"description":"","title":"Coal","placename":"Nebraska, USA","address":"NE"}},{"local_stop_id":24,"id":24,"geometry":"POINT(-7967402.599651 5341524.738131)","attributes":{"description":"","title":"Coal","placename":"New Hampshire, USA","address":"NH"}},{"local_stop_id":23,"id":23,"geometry":"POINT(0 -0)","attributes":{"description":"","title":"Coal","address":"NJ"}},{"local_stop_id":22,"id":22,"geometry":"POINT(-11692149.221634 4160175.94516)","attributes":{"description":"","title":"Coal","placename":"New Mexico, USA","address":"NM"}},{"local_stop_id":21,"id":21,"geometry":"POINT(-12959747.101944 4693436.416838)","attributes":{"description":"","title":"Coal","placename":"Nevada, USA","address":"NV"}},{"local_stop_id":20,"id":20,"geometry":"POINT(-8238307.241153 4970299.628631)","attributes":{"description":"","title":"Coal","placename":"New York, NY, USA","address":"NY"}},{"local_stop_id":19,"id":19,"geometry":"POINT(-9229178.715495 4926767.890553)","attributes":{"description":"","title":"Coal","placename":"Ohio, USA","address":"OH"}},{"local_stop_id":18,"id":18,"geometry":"POINT(-10808329.627294 4164934.646216)","attributes":{"description":"","title":"Coal","placename":"Oklahoma, USA","address":"OK"}},{"local_stop_id":17,"id":17,"geometry":"POINT(-13420032.290574 5435181.238622)","attributes":{"description":"","title":"Coal","placename":"Oregon, USA","address":"OR"}},{"local_stop_id":16,"id":16,"geometry":"POINT(-8593255.181633 5042377.968044)","attributes":{"description":"","title":"Coal","placename":"Pennsylvania, USA","address":"PA"}},{"local_stop_id":15,"id":15,"geometry":"POINT(-9035104.482226 4006812.888964)","attributes":{"description":"","title":"Coal","placename":"South Carolina, USA","address":"SC"}},{"local_stop_id":14,"id":14,"geometry":"POINT(-11121018.963617 5460725.739768)","attributes":{"description":"","title":"Coal","placename":"South Dakota, USA","address":"SD"}},{"local_stop_id":13,"id":13,"geometry":"POINT(-9638091.30609 4234430.425976)","attributes":{"description":"","title":"Coal","placename":"Tennessee, USA","address":"TN"}},{"local_stop_id":12,"id":12,"geometry":"POINT(-11121018.963617 3759189.437118)","attributes":{"description":"","title":"Coal","placename":"Texas, USA","address":"TX"}},{"local_stop_id":11,"id":11,"geometry":"POINT(-12366897.576377 4767754.065836)","attributes":{"description":"","title":"Coal","placename":"Utah, USA","address":"UT"}},{"local_stop_id":10,"id":10,"geometry":"POINT(-8756045.409724 4499434.498941)","attributes":{"description":"","title":"Coal","placename":"Virginia, USA","address":"VA"}},{"local_stop_id":9,"id":9,"geometry":"POINT(-13440730.747261 6065541.89533)","attributes":{"description":"","title":"Coal","placename":"Washington, USA","address":"WA"}},{"local_stop_id":8,"id":8,"geometry":"POINT(-9883820.232116 5432144.103863)","attributes":{"description":"","title":"Coal","placename":"Wisconsin, USA","address":"WI"}},{"local_stop_id":7,"id":7,"geometry":"POINT(-8956198.789254 4664197.776145)","attributes":{"description":"","title":"Coal","placename":"West Virginia, USA","address":"WV"}},{"local_stop_id":6,"id":6,"geometry":"POINT(-11943499.770814 5323542.078373)","attributes":{"description":"","title":"Coal","placename":"Wyoming, USA","address":"WY"}}],"hops":[]},"editable":false}