{"type":"FeatureCollection","features":[{"type":"Feature","geometry":{"type":"Point","coordinates":[-154.4930619,63.588752999999]},"properties":{"description":"","title":"Coal","placename":"Alaska, USA","address":"AK"}},{"type":"Feature","geometry":{"type":"Point","coordinates":[-86.902297999997,32.318231400001]},"properties":{"description":"","title":"Coal","placename":"Alabama, USA","address":"AL"}},{"type":"Feature","geometry":{"type":"Point","coordinates":[-91.831833400002,35.20105]},"properties":{"description":"","title":"Coal","placename":"Arkansas, USA","address":"AR"}},{"type":"Feature","geometry":{"type":"Point","coordinates":[-111.0937311,34.048928099999]},"properties":{"description":"","title":"Coal","placename":"Arizona, USA","address":"AZ"}},{"type":"Feature","geometry":{"type":"Point","coordinates":[-119.4179324,36.778260999999]},"properties":{"description":"","title":"Coal","placename":"California, USA","address":"CA"}},{"type":"Feature","geometry":{"type":"Point","coordinates":[-105.7820674,39.550050700003]},"properties":{"description":"","title":"Coal","placename":"Colorado, USA","address":"CO"}},{"type":"Feature","geometry":{"type":"Point","coordinates":[-73.087749000004,41.603220700003]},"properties":{"description":"","title":"Coal","placename":"Connecticut, USA","address":"CT"}},{"type":"Feature","geometry":{"type":"Point","coordinates":[-75.527669899996,38.910832499997]},"properties":{"description":"","title":"Coal","placename":"Delaware, USA","address":"DE"}},{"type":"Feature","geometry":{"type":"Point","coordinates":[-81.5157535,27.664827400001]},"properties":{"description":"","title":"Coal","placename":"Florida, USA","address":"FL"}},{"type":"Feature","geometry":{"type":"Point","coordinates":[-82.907122999997,32.157435099997]},"properties":{"description":"","title":"Coal","placename":"Georgia, USA","address":"GA"}},{"type":"Feature","geometry":{"type":"Point","coordinates":[-155.5827818,19.8967662]},"properties":{"description":"","title":"Coal","placename":"Hawaii, USA","address":"HI"}},{"type":"Feature","geometry":{"type":"Point","coordinates":[-93.097702000001,41.878002500001]},"properties":{"description":"","title":"Coal","placename":"Iowa, USA","address":"IA"}},{"type":"Feature","geometry":{"type":"Point","coordinates":[-114.7420408,44.0682019]},"properties":{"description":"","title":"Coal","placename":"Idaho, USA","address":"ID"}},{"type":"Feature","geometry":{"type":"Point","coordinates":[-89.398528299999,40.6331249]},"properties":{"description":"","title":"Coal","placename":"Illinois, USA","address":"IL"}},{"type":"Feature","geometry":{"type":"Point","coordinates":[-85.602364299997,40.551216500002]},"properties":{"description":"","title":"Coal","placename":"Indiana, USA","address":"IN"}},{"type":"Feature","geometry":{"type":"Point","coordinates":[-98.484246499998,39.011901999999]},"properties":{"description":"","title":"Coal","placename":"Kansas, USA","address":"KS"}},{"type":"Feature","geometry":{"type":"Point","coordinates":[-84.2700179,37.839333199999]},"properties":{"description":"","title":"Coal","placename":"Kentucky, USA","address":"KY"}},{"type":"Feature","geometry":{"type":"Point","coordinates":[-92.145024500003,31.244823399998]},"properties":{"description":"","title":"Coal","placename":"Louisiana, USA","address":"LA"}},{"type":"Feature","geometry":{"type":"Point","coordinates":[-71.382437400002,42.407210699997]},"properties":{"description":"","title":"Coal","placename":"Massachusetts, USA","address":"MA"}},{"type":"Feature","geometry":{"type":"Point","coordinates":[-76.641271199998,39.0457549]},"properties":{"description":"","title":"Coal","placename":"Maryland, USA","address":"MD"}},{"type":"Feature","geometry":{"type":"Point","coordinates":[-69.445468899999,45.253782999999]},"properties":{"description":"","title":"Coal","placename":"Maine, USA","address":"ME"}},{"type":"Feature","geometry":{"type":"Point","coordinates":[-85.602364299997,44.314844300002]},"properties":{"description":"","title":"Coal","placename":"Michigan, USA","address":"MI"}},{"type":"Feature","geometry":{"type":"Point","coordinates":[-94.685899800001,46.729553000001]},"properties":{"description":"","title":"Coal","placename":"Minnesota, USA","address":"MN"}},{"type":"Feature","geometry":{"type":"Point","coordinates":[-91.831833400002,37.964252899997]},"properties":{"description":"","title":"Coal","placename":"Missouri, USA","address":"MO"}},{"type":"Feature","geometry":{"type":"Point","coordinates":[-89.398528299999,32.354667900001]},"properties":{"description":"","title":"Coal","placename":"Mississippi, USA","address":"MS"}},{"type":"Feature","geometry":{"type":"Point","coordinates":[-110.3625658,46.879682200002]},"properties":{"description":"","title":"Coal","placename":"Montana, USA","address":"MT"}},{"type":"Feature","geometry":{"type":"Point","coordinates":[-79.019299699999,35.759573099997]},"properties":{"description":"","title":"Coal","placename":"North Carolina, USA","address":"NC"}},{"type":"Feature","geometry":{"type":"Point","coordinates":[-101.0020119,47.551492599999]},"properties":{"description":"","title":"Coal","placename":"North Dakota, USA","address":"ND"}},{"type":"Feature","geometry":{"type":"Point","coordinates":[-99.901813100002,41.492537400001]},"properties":{"description":"","title":"Coal","placename":"Nebraska, USA","address":"NE"}},{"type":"Feature","geometry":{"type":"Point","coordinates":[-71.572395300001,43.193851599997]},"properties":{"description":"","title":"Coal","placename":"New Hampshire, USA","address":"NH"}},{"type":"Feature","geometry":{"type":"Point","coordinates":[0,0]},"properties":{"description":"","title":"Coal","address":"NJ"}},{"type":"Feature","geometry":{"type":"Point","coordinates":[-105.0323635,34.972730499998]},"properties":{"description":"","title":"Coal","placename":"New Mexico, USA","address":"NM"}},{"type":"Feature","geometry":{"type":"Point","coordinates":[-116.419389,38.802609699997]},"properties":{"description":"","title":"Coal","placename":"Nevada, USA","address":"NV"}},{"type":"Feature","geometry":{"type":"Point","coordinates":[-74.005973100003,40.7143528]},"properties":{"description":"","title":"Coal","placename":"New York, NY, USA","address":"NY"}},{"type":"Feature","geometry":{"type":"Point","coordinates":[-82.907122999997,40.417287099997]},"properties":{"description":"","title":"Coal","placename":"Ohio, USA","address":"OH"}},{"type":"Feature","geometry":{"type":"Point","coordinates":[-97.092877000001,35.0077519]},"properties":{"description":"","title":"Coal","placename":"Oklahoma, USA","address":"OK"}},{"type":"Feature","geometry":{"type":"Point","coordinates":[-120.5542012,43.804133400002]},"properties":{"description":"","title":"Coal","placename":"Oregon, USA","address":"OR"}},{"type":"Feature","geometry":{"type":"Point","coordinates":[-77.194524700002,41.203321599999]},"properties":{"description":"","title":"Coal","placename":"Pennsylvania, USA","address":"PA"}},{"type":"Feature","geometry":{"type":"Point","coordinates":[-81.163724500004,33.836080999998]},"properties":{"description":"","title":"Coal","placename":"South Carolina, USA","address":"SC"}},{"type":"Feature","geometry":{"type":"Point","coordinates":[-99.901813100002,43.969514800001]},"properties":{"description":"","title":"Coal","placename":"South Dakota, USA","address":"SD"}},{"type":"Feature","geometry":{"type":"Point","coordinates":[-86.580447300001,35.517491299997]},"properties":{"description":"","title":"Coal","placename":"Tennessee, USA","address":"TN"}},{"type":"Feature","geometry":{"type":"Point","coordinates":[-99.901813100002,31.9685988]},"properties":{"description":"","title":"Coal","placename":"Texas, USA","address":"TX"}},{"type":"Feature","geometry":{"type":"Point","coordinates":[-111.0937311,39.320980099997]},"properties":{"description":"","title":"Coal","placename":"Utah, USA","address":"UT"}},{"type":"Feature","geometry":{"type":"Point","coordinates":[-78.656894199996,37.4315734]},"properties":{"description":"","title":"Coal","placename":"Virginia, USA","address":"VA"}},{"type":"Feature","geometry":{"type":"Point","coordinates":[-120.7401386,47.751074100002]},"properties":{"description":"","title":"Coal","placename":"Washington, USA","address":"WA"}},{"type":"Feature","geometry":{"type":"Point","coordinates":[-88.787867799996,43.784439699997]},"properties":{"description":"","title":"Coal","placename":"Wisconsin, USA","address":"WI"}},{"type":"Feature","geometry":{"type":"Point","coordinates":[-80.454902599996,38.597626200001]},"properties":{"description":"","title":"Coal","placename":"West Virginia, USA","address":"WV"}},{"type":"Feature","geometry":{"type":"Point","coordinates":[-107.2902839,43.0759678]},"properties":{"description":"","title":"Coal","placename":"Wyoming, USA","address":"WY"}}],"properties":{"title":"US Electric Output 2010","description":"Total US Electricity output by type and industry.\n\nThis is based on data from ht","tags":""}}