{"supplychain":{"category":null,"created":1326827509,"enable_comments":true,"flags":0,"id":1717,"modified":1326827510,"other_perms":1,"passcode":null,"user_featured":false,"usergroup_id":null,"usergroup_perms":0,"user_id":1,"owner":{"id":1,"name":"administrator","avatar":"http:\/\/free.sourcemap.com\/assets\/images\/default-user.png","banner_url":null,"display_name":null},"taxonomy":null,"attributes":{"title":"US Oil Imports by Country in Barrels - 2010","description":"Taken from http:\/\/explore.data.gov\/Energy-and-Utilities\/Monthly-U-S-Petroleum-Imports-by-Country-of-Origin\/kfwt-xxkx, found on http:\/\/data.gov."},"stops":[{"local_stop_id":86,"id":86,"geometry":"POINT(-11838468.395229 7584411.732747)","attributes":{"value":"925428000","size":"50","description":"925428000 Barrels","address":"Canada","placename":"Canada","title":"Canada"}},{"local_stop_id":85,"id":85,"geometry":"POINT(-11416123.694313 2708933.292233)","attributes":{"value":"468786000","size":"25.32806441992246","description":"468786000 Barrels","address":"Mexico","placename":"Mexico","title":"Mexico"}},{"local_stop_id":84,"id":84,"geometry":"POINT(5018189.359227 2739515.791932)","attributes":{"value":"400112000","size":"21.61767311989696","description":"400112000 Barrels","address":"Saudi Arabia","placename":"Saudi Arabia","title":"Saudi Arabia"}},{"local_stop_id":83,"id":83,"geometry":"POINT(965727.418131 1015263.983184)","attributes":{"value":"373283000","size":"20.16812761230479","description":"373283000 Barrels","address":"Nigeria","placename":"Nigeria","title":"Nigeria"}},{"local_stop_id":82,"id":82,"geometry":"POINT(-7412734.835662 716591.403237)","attributes":{"value":"360582000","size":"19.48190458901179","description":"360582000 Barrels","address":"Venezuela","placename":"Venezuela","title":"Venezuela"}},{"local_stop_id":81,"id":81,"geometry":"POINT(11724030.288901 8747149.04879)","attributes":{"value":"223374000","size":"12.0686860566138","description":"223374000 Barrels","address":"Russia","placename":"Russia","title":"Russia"}},{"local_stop_id":80,"id":80,"geometry":"POINT(184748.721227 3253246.71111)","attributes":{"value":"185973000","size":"10.04794538310922","description":"185973000 Barrels","address":"Algeria","placename":"Algeria","title":"Algeria"}},{"local_stop_id":79,"id":79,"geometry":"POINT(4862356.432331 3924966.445386)","attributes":{"value":"151622000","size":"8.191993326331168","description":"151622000 Barrels","address":"Iraq","placename":"Iraq","title":"Iraq"}},{"local_stop_id":78,"id":78,"geometry":"POINT(1989711.999337 -1255100.642297)","attributes":{"value":"143551000","size":"7.755924826134502","description":"143551000 Barrels","address":"Angola","placename":"Angola","title":"Angola"}},{"local_stop_id":77,"id":77,"geometry":"POINT(-8270741.276858 509367.281339)","attributes":{"value":"133185000","size":"7.195859645482955","description":"133185000 Barrels","address":"Colombia","placename":"Colombia","title":"Colombia"}},{"local_stop_id":76,"id":76,"geometry":"POINT(-5780295.728898 -1601191.813438)","attributes":{"value":"99253000","size":"5.362545762609301","description":"99253000 Barrels","address":"Brazil","placename":"Brazil","title":"Brazil"}},{"local_stop_id":75,"id":75,"geometry":"POINT(-382490.764739 7435586.530983)","attributes":{"value":"93334000","size":"5.042747788050502","description":"93334000 Barrels","address":"United Kingdom","placename":"United Kingdom","title":"United Kingdom"}},{"local_stop_id":74,"id":74,"geometry":"POINT(-7224226.96655 2076886.93605)","attributes":{"value":"92477000","size":"4.99644488820308","description":"92477000 Barrels","address":"Virgin Islands","placename":"Virgin Islands","title":"Virgin Islands"}},{"local_stop_id":73,"id":73,"geometry":"POINT(-8703336.944404 -203887.308284)","attributes":{"value":"77236000","size":"4.172988066062405","description":"77236000 Barrels","address":"Ecuador","placename":"Ecuador","title":"Ecuador"}},{"local_stop_id":72,"id":72,"geometry":"POINT(5285646.013085 3415373.48796)","attributes":{"value":"71794000","size":"3.878961950578543","description":"71794000 Barrels","address":"Kuwait","placename":"Kuwait","title":"Kuwait"}},{"local_stop_id":71,"id":71,"geometry":"POINT(589021.036772 6824142.821624)","attributes":{"value":"39241000","size":"2.120154134087147","description":"39241000 Barrels","address":"Netherlands","placename":"The Netherlands","title":"Netherlands"}},{"local_stop_id":70,"id":70,"geometry":"POINT(942758.756276 8505587.038689)","attributes":{"value":"32669000","size":"1.765075186832471","description":"32669000 Barrels","address":"Norway","placename":"Norway","title":"Norway"}},{"local_stop_id":69,"id":69,"geometry":"POINT(-6815257.85905 1197174.420926)","attributes":{"value":"26774000","size":"1.446573909585619","description":"26774000 Barrels","address":"Trinidad and Tobago","placename":"Trinidad and Tobago","title":"Trinidad and Tobago"}},{"local_stop_id":68,"id":68,"geometry":"POINT(1701332.88058 -475402.750059)","attributes":{"value":"26259000","size":"1.418748946433434","description":"26259000 Barrels","address":"Congo (Brazzaville)","placename":"Brazzaville, Congo","title":"Congo (Brazzaville)"}},{"local_stop_id":67,"id":67,"geometry":"POINT(497590.999399 6534001.856289)","attributes":{"value":"26056000","size":"1.407781048336553","description":"26056000 Barrels","address":"Belgium","placename":"Belgium","title":"Belgium"}},{"local_stop_id":66,"id":66,"geometry":"POINT(1917849.034138 3040644.059011)","attributes":{"value":"25583000","size":"1.382225305480275","description":"25583000 Barrels","address":"Libya","placename":"Libya","title":"Libya"}},{"local_stop_id":65,"id":65,"geometry":"POINT(14222948.697264 4287936.289399)","attributes":{"value":"25022000","size":"1.351915005813526","description":"25022000 Barrels","address":"Korea","placename":"South Korea","title":"Korea"}},{"local_stop_id":64,"id":64,"geometry":"POINT(1143016.842919 183791.756876)","attributes":{"value":"21040000","size":"1.136771310139741","description":"21040000 Barrels","address":"Equatorial Guinea","placename":"Equatorial Guinea","title":"Equatorial Guinea"}},{"local_stop_id":63,"id":63,"geometry":"POINT(5296239.287149 4886759.751808)","attributes":{"value":"20202000","size":"1.091494962330943","description":"20202000 Barrels","address":"Azerbaijan","placename":"Azerbaijan","title":"Azerbaijan"}},{"local_stop_id":62,"id":62,"geometry":"POINT(1375321.361932 822665.286731)","attributes":{"value":"19720000","size":"1.065452957982685","description":"19720000 Barrels","address":"Cameroon","placename":"Cameroon","title":"Cameroon"}},{"local_stop_id":61,"id":61,"geometry":"POINT(8790107.59317 2343495.165705)","attributes":{"value":"18387000","size":"0.9934322281149911","description":"18387000 Barrels","address":"India","placename":"India","title":"India"}},{"local_stop_id":60,"id":60,"geometry":"POINT(1292357.394473 -89469.184236)","attributes":{"value":"17030000","size":"0.920114800935351","description":"17030000 Barrels","address":"Gabon","placename":"Gabon","title":"Gabon"}},{"local_stop_id":59,"id":59,"geometry":"POINT(-417361.261272 4933551.652462)","attributes":{"value":"14621000","size":"0.7899588082487239","description":"14621000 Barrels","address":"Spain","placename":"Spain","title":"Spain"}},{"local_stop_id":58,"id":58,"geometry":"POINT(12681664.112134 -87864.470043)","attributes":{"value":"13706000","size":"0.7405222232307646","description":"13706000 Barrels","address":"Indonesia","placename":"Indonesia","title":"Indonesia"}},{"local_stop_id":57,"id":57,"geometry":"POINT(1398994.342206 5141815.937641)","attributes":{"value":"13505000","size":"0.7296623832432129","description":"13505000 Barrels","address":"Italy","placename":"Italy","title":"Italy"}},{"local_stop_id":56,"id":56,"geometry":"POINT(246433.411424 5816903.713427)","attributes":{"value":"13113000","size":"0.7084829938147538","description":"13113000 Barrels","address":"France","placename":"France","title":"France"}},{"local_stop_id":55,"id":55,"geometry":"POINT(-8350648.52242 -1027437.355768)","attributes":{"value":"12780000","size":"0.6904913186114965","description":"12780000 Barrels","address":"Peru","placename":"Peru","title":"Peru"}},{"local_stop_id":54,"id":54,"geometry":"POINT(7449910.42489 6110111.702601)","attributes":{"value":"12684000","size":"0.6853045293637107","description":"12684000 Barrels","address":"Kazakhstan","placename":"Kazakhstan","title":"Kazakhstan"}},{"local_stop_id":53,"id":53,"geometry":"POINT(-7081775.533003 -4638374.275084)","attributes":{"value":"12203000","size":"0.6593165540701168","description":"12203000 Barrels","address":"Argentina","placename":"Argentina","title":"Argentina"}},{"local_stop_id":52,"id":52,"geometry":"POINT(2085259.744674 1741597.357213)","attributes":{"value":"11282000","size":"0.6095557947241709","description":"11282000 Barrels","address":"Chad","placename":"Chad","title":"Chad"}},{"local_stop_id":51,"id":51,"geometry":"POINT(2075385.037924 8428326.96544)","attributes":{"value":"6495000","size":"0.3509187100455141","description":"6495000 Barrels","address":"Sweden","placename":"Sweden","title":"Sweden"}},{"local_stop_id":50,"id":50,"geometry":"POINT(-915542.031333 4779112.741647)","attributes":{"value":"6283000","size":"0.3394645504566536","description":"6283000 Barrels","address":"Portugal","placename":"Portugal","title":"Portugal"}},{"local_stop_id":49,"id":49,"geometry":"POINT(-8460281.300289 2783901.423376)","attributes":{"value":"5488000","size":"0.2965114519984267","description":"5488000 Barrels","address":"Bahama Islands","placename":"Bahama Islands, The Bahamas","title":"Bahama Islands"}},{"local_stop_id":48,"id":48,"geometry":"POINT(15390245.100361 4328841.562513)","attributes":{"value":"4855000","size":"0.2623110603958385","description":"4855000 Barrels","address":"Japan","placename":"Japan","title":"Japan"}},{"local_stop_id":47,"id":47,"geometry":"POINT(11242438.238039 1789676.623494)","attributes":{"value":"4669000","size":"0.2522616562282533","description":"4669000 Barrels","address":"Thailand","placename":"Thailand","title":"Thailand"}},{"local_stop_id":46,"id":46,"geometry":"POINT(12053362.657202 1580908.758572)","attributes":{"value":"4482000","size":"0.2421582230060037","description":"4482000 Barrels","address":"Vietnam","placename":"Vietnam","title":"Vietnam"}},{"local_stop_id":45,"id":45,"geometry":"POINT(6225348.270102 2453104.641232)","attributes":{"value":"4337000","size":"0.2343240100796604","description":"4337000 Barrels","address":"Oman","placename":"Oman","title":"Oman"}},{"local_stop_id":44,"id":44,"geometry":"POINT(-10044442.145771 1779661.011764)","attributes":{"value":"4200000","size":"0.2269220295906327","description":"4200000 Barrels","address":"Guatemala","placename":"Guatemala","title":"Guatemala"}},{"local_stop_id":43,"id":43,"geometry":"POINT(2784501.994143 8093419.123256)","attributes":{"value":"4164000","size":"0.224976983622713","description":"4164000 Barrels","address":"Estonia","placename":"Estonia","title":"Estonia"}},{"local_stop_id":42,"id":42,"geometry":"POINT(16196037.134401 -3443636.371456)","attributes":{"value":"3700000","size":"0.1999075022584145","description":"3700000 Barrels","address":"Australia","placename":"Australia","title":"Australia"}},{"local_stop_id":41,"id":41,"geometry":"POINT(0 -0)","attributes":{"value":"3592000","size":"0.1940723643546554","description":"3592000 Barrels","address":"Ivory Coast (Cote d'Ivore)","title":"Ivory Coast (Cote d'Ivore)"}},{"local_stop_id":40,"id":40,"geometry":"POINT(3428918.392521 3101070.050794)","attributes":{"value":"3579000","size":"0.1933699866440177","description":"3579000 Barrels","address":"Egypt","placename":"Egypt","title":"Egypt"}},{"local_stop_id":39,"id":39,"geometry":"POINT(3469336.495877 6170212.711441)","attributes":{"value":"3384000","size":"0.1828343209844526","description":"3384000 Barrels","address":"Ukraine","placename":"Ukraine","title":"Ukraine"}},{"local_stop_id":38,"id":38,"geometry":"POINT(1777770.909871 -488843.247367)","attributes":{"value":"3251000","size":"0.1756484567140826","description":"3251000 Barrels","address":"Congo (Kinshasa)","placename":"Kinshasa, Democratic Republic of the Congo","title":"Congo (Kinshasa)"}},{"local_stop_id":37,"id":37,"geometry":"POINT(11598978.537043 4281602.659627)","attributes":{"value":"3210000","size":"0.1734332654728407","description":"3210000 Barrels","address":"China","placename":"China","title":"China"}},{"local_stop_id":36,"id":36,"geometry":"POINT(4341105.588359 4137016.351319)","attributes":{"value":"3163000","size":"0.1708938999036122","description":"3163000 Barrels","address":"Syria","placename":"Syria","title":"Syria"}},{"local_stop_id":35,"id":35,"geometry":"POINT(2658451.372494 7394820.260241)","attributes":{"value":"3133000","size":"0.1692730282636791","description":"3133000 Barrels","address":"Lithuania","placename":"Lithuania","title":"Lithuania"}},{"local_stop_id":34,"id":34,"geometry":"POINT(11351890.344374 469131.367658)","attributes":{"value":"2772000","size":"0.1497685395298176","description":"2772000 Barrels","address":"Malaysia","placename":"Malaysia","title":"Malaysia"}},{"local_stop_id":33,"id":33,"geometry":"POINT(-7078656.47219 -1838348.789522)","attributes":{"value":"2619000","size":"0.1415020941661588","description":"2619000 Barrels","address":"Bolivia","placename":"Bolivia","title":"Bolivia"}},{"local_stop_id":32,"id":32,"geometry":"POINT(2974521.036474 9646996.156274)","attributes":{"value":"2601000","size":"0.1405295711821989","description":"2601000 Barrels","address":"Finland","placename":"Finland","title":"Finland"}},{"local_stop_id":31,"id":31,"geometry":"POINT(1163458.552333 6650655.041174)","attributes":{"value":"2307000","size":"0.1246450291108546","description":"2307000 Barrels","address":"Germany","placename":"Germany","title":"Germany"}},{"local_stop_id":30,"id":30,"geometry":"POINT(11557171.277761 150527.162641)","attributes":{"value":"2282000","size":"0.1232943027442437","description":"2282000 Barrels","address":"Singapore","placename":"Singapore","title":"Singapore"}},{"local_stop_id":29,"id":29,"geometry":"POINT(13595849.114346 4483698.831525)","attributes":{"value":"2111000","size":"0.1140553343966251","description":"2111000 Barrels","address":"China, Taiwan","placename":"Taiwan Rd, Huancui, Weihai, Shandong, China","title":"China, Taiwan"}},{"local_stop_id":28,"id":28,"geometry":"POINT(3879663.701165 3638731.187583)","attributes":{"value":"1983000","size":"0.1071396153995773","description":"1983000 Barrels","address":"Israel","placename":"Israel","title":"Israel"}},{"local_stop_id":27,"id":27,"geometry":"POINT(2738814.471371 7735556.799888)","attributes":{"value":"1954000","size":"0.1055727728143086","description":"1954000 Barrels","address":"Latvia","placename":"Latvia","title":"Latvia"}},{"local_stop_id":26,"id":26,"geometry":"POINT(3923268.658903 4716479.684629)","attributes":{"value":"1904000","size":"0.1028713200810868","description":"1904000 Barrels","address":"Turkey","placename":"Turkey","title":"Turkey"}},{"local_stop_id":25,"id":25,"geometry":"POINT(-917705.636956 7059743.327002)","attributes":{"value":"1410000","size":"0.07618096707685525","description":"1410000 Barrels","address":"Ireland","placename":"Ireland","title":"Ireland"}},{"local_stop_id":24,"id":24,"geometry":"POINT(-7687733.718979 1371448.515867)","attributes":{"value":"901000","size":"0.04868017825265715","description":"901000 Barrels","address":"Netherlands Antilles","placename":"Netherlands Antilles","title":"Netherlands Antilles"}},{"local_stop_id":23,"id":23,"geometry":"POINT(1057733.867827 7611135.068229)","attributes":{"value":"873000","size":"0.04716736472205293","description":"873000 Barrels","address":"Denmark","placename":"Denmark","title":"Denmark"}},{"local_stop_id":22,"id":22,"geometry":"POINT(5994311.680089 2683384.657664)","attributes":{"value":"827000","size":"0.04468202820748886","description":"827000 Barrels","address":"United Arab Emirates","placename":"United Arab Emirates","title":"United Arab Emirates"}},{"local_stop_id":21,"id":21,"geometry":"POINT(-9851513.334401 1942939.083677)","attributes":{"value":"796000","size":"0.04300712751289133","description":"796000 Barrels","address":"Belize","placename":"Belize","title":"Belize"}},{"local_stop_id":20,"id":20,"geometry":"POINT(-1217928.181053 2392819.411011)","attributes":{"value":"677000","size":"0.03657767000782341","description":"677000 Barrels","address":"Mauritania","placename":"Mauritania","title":"Mauritania"}},{"local_stop_id":19,"id":19,"geometry":"POINT(-7964126.878919 -4256013.675159)","attributes":{"value":"609000","size":"0.03290369429064174","description":"609000 Barrels","address":"Chile","placename":"Chile","title":"Chile"}},{"local_stop_id":18,"id":18,"geometry":"POINT(2429471.298754 4732306.812978)","attributes":{"value":"572000","size":"0.03090461926805759","description":"572000 Barrels","address":"Greece","placename":"Greece","title":"Greece"}},{"local_stop_id":17,"id":17,"geometry":"POINT(3111757.029426 7115387.658402)","attributes":{"value":"399000","size":"0.0215575928111101","description":"399000 Barrels","address":"Belarus","placename":"Belarus","title":"Belarus"}},{"local_stop_id":16,"id":16,"geometry":"POINT(-8604719.230149 2050378.802628)","attributes":{"value":"379000","size":"0.02047701171782138","description":"379000 Barrels","address":"Jamaica","placename":"Jamaica","title":"Jamaica"}},{"local_stop_id":15,"id":15,"geometry":"POINT(-9323388.957151 1090519.231591)","attributes":{"value":"369000","size":"0.01993672117117701","description":"369000 Barrels","address":"Costa Rica","placename":"Costa Rica","title":"Costa Rica"}},{"local_stop_id":14,"id":14,"geometry":"POINT(6629774.540503 4717335.006851)","attributes":{"value":"335000","size":"0.01809973331258618","description":"335000 Barrels","address":"Turkmenistan","placename":"Turkmenistan","title":"Turkmenistan"}},{"local_stop_id":13,"id":13,"geometry":"POINT(5697763.903702 2919390.332888)","attributes":{"value":"279000","size":"0.01507410625137774","description":"279000 Barrels","address":"Qatar","placename":"Qatar","title":"Qatar"}},{"local_stop_id":12,"id":12,"geometry":"POINT(1061709.532121 4013627.830394)","attributes":{"value":"271000","size":"0.01464187381406225","description":"271000 Barrels","address":"Tunisia","placename":"Tunisia","title":"Tunisia"}},{"local_stop_id":11,"id":11,"geometry":"POINT(-9229178.715495 3783994.218369)","attributes":{"value":"247000","size":"0.01334517650211578","description":"247000 Barrels","address":"Georgia","placename":"Georgia, USA","title":"Georgia"}},{"local_stop_id":10,"id":10,"geometry":"POINT(-113901.435063 887453.057712)","attributes":{"value":"186000","size":"0.01004940416758516","description":"186000 Barrels","address":"Ghana","placename":"Ghana","title":"Ghana"}},{"local_stop_id":9,"id":9,"geometry":"POINT(-9895916.452889 1550614.448509)","attributes":{"value":"155000","size":"0.008374503472987634","description":"155000 Barrels","address":"El Salvador","placename":"El Salvador","title":"El Salvador"}},{"local_stop_id":8,"id":8,"geometry":"POINT(2131226.790688 6785571.898792)","attributes":{"value":"123000","size":"0.006645573723725671","description":"123000 Barrels","address":"Poland","placename":"Poland","title":"Poland"}},{"local_stop_id":7,"id":7,"geometry":"POINT(2779287.009958 5771245.404432)","attributes":{"value":"120000","size":"0.006483486559732361","description":"120000 Barrels","address":"Romania","placename":"Romania","title":"Romania"}},{"local_stop_id":6,"id":6,"geometry":"POINT(-7810470.582026 2123842.626161)","attributes":{"value":"93000","size":"0.00502470208379258","description":"93000 Barrels","address":"Dominican Republic","placename":"Dominican Republic","title":"Dominican Republic"}},{"local_stop_id":5,"id":5,"geometry":"POINT(2553391.487988 -3575670.675527)","attributes":{"value":"61000","size":"0.003295772334530617","description":"61000 Barrels","address":"South Africa","placename":"South Africa","title":"South Africa"}},{"local_stop_id":4,"id":4,"geometry":"POINT(7189598.47859 5068181.963819)","attributes":{"value":"56000","size":"0.003025627061208435","description":"56000 Barrels","address":"Uzbekistan","placename":"Uzbekistan","title":"Uzbekistan"}},{"local_stop_id":3,"id":3,"geometry":"POINT(-1049687.027116 717073.663481)","attributes":{"value":"28000","size":"0.001512813530604218","description":"28000 Barrels","address":"Liberia","placename":"Liberia","title":"Liberia"}},{"local_stop_id":2,"id":2,"geometry":"POINT(8322923.95796 5042534.567123)","attributes":{"value":"28000","size":"0.001512813530604218","description":"28000 Barrels","address":"Kyrgyzstan","placename":"Kyrgyzstan","title":"Kyrgyzstan"}},{"local_stop_id":1,"id":1,"geometry":"POINT(-10654710.288472 4451692.554811)","attributes":{"size":"1","description":"","address":"USA","placename":"United States","title":"USA"}}],"hops":[{"from_stop_id":2,"to_stop_id":1,"geometry":"MULTILINESTRING((8322923.95796 5042534.567123,-10654710.288472 4451692.554811))","attributes":{}},{"from_stop_id":3,"to_stop_id":1,"geometry":"MULTILINESTRING((-1049687.027116 717073.663481,-10654710.288472 4451692.554811))","attributes":{}},{"from_stop_id":4,"to_stop_id":1,"geometry":"MULTILINESTRING((7189598.47859 5068181.963819,-10654710.288472 4451692.554811))","attributes":{}},{"from_stop_id":5,"to_stop_id":1,"geometry":"MULTILINESTRING((2553391.487988 -3575670.675527,-10654710.288472 4451692.554811))","attributes":{}},{"from_stop_id":6,"to_stop_id":1,"geometry":"MULTILINESTRING((-7810470.582026 2123842.626161,-10654710.288472 4451692.554811))","attributes":{}},{"from_stop_id":7,"to_stop_id":1,"geometry":"MULTILINESTRING((2779287.009958 5771245.404432,-10654710.288472 4451692.554811))","attributes":{}},{"from_stop_id":8,"to_stop_id":1,"geometry":"MULTILINESTRING((2131226.790688 6785571.898792,-10654710.288472 4451692.554811))","attributes":{}},{"from_stop_id":9,"to_stop_id":1,"geometry":"MULTILINESTRING((-9895916.452889 1550614.448509,-10654710.288472 4451692.554811))","attributes":{}},{"from_stop_id":10,"to_stop_id":1,"geometry":"MULTILINESTRING((-113901.435063 887453.057712,-10654710.288472 4451692.554811))","attributes":{}},{"from_stop_id":11,"to_stop_id":1,"geometry":"MULTILINESTRING((-9229178.715495 3783994.218369,-10654710.288472 4451692.554811))","attributes":{}},{"from_stop_id":12,"to_stop_id":1,"geometry":"MULTILINESTRING((1061709.532121 4013627.830394,-10654710.288472 4451692.554811))","attributes":{}},{"from_stop_id":13,"to_stop_id":1,"geometry":"MULTILINESTRING((5697763.903702 2919390.332888,-10654710.288472 4451692.554811))","attributes":{}},{"from_stop_id":14,"to_stop_id":1,"geometry":"MULTILINESTRING((6629774.540503 4717335.006851,-10654710.288472 4451692.554811))","attributes":{}},{"from_stop_id":15,"to_stop_id":1,"geometry":"MULTILINESTRING((-9323388.957151 1090519.231591,-10654710.288472 4451692.554811))","attributes":{}},{"from_stop_id":16,"to_stop_id":1,"geometry":"MULTILINESTRING((-8604719.230149 2050378.802628,-10654710.288472 4451692.554811))","attributes":{}},{"from_stop_id":17,"to_stop_id":1,"geometry":"MULTILINESTRING((3111757.029426 7115387.658402,-10654710.288472 4451692.554811))","attributes":{}},{"from_stop_id":18,"to_stop_id":1,"geometry":"MULTILINESTRING((2429471.298754 4732306.812978,-10654710.288472 4451692.554811))","attributes":{}},{"from_stop_id":19,"to_stop_id":1,"geometry":"MULTILINESTRING((-7964126.878919 -4256013.675159,-10654710.288472 4451692.554811))","attributes":{}},{"from_stop_id":20,"to_stop_id":1,"geometry":"MULTILINESTRING((-1217928.181053 2392819.411011,-10654710.288472 4451692.554811))","attributes":{}},{"from_stop_id":21,"to_stop_id":1,"geometry":"MULTILINESTRING((-9851513.334401 1942939.083677,-10654710.288472 4451692.554811))","attributes":{}},{"from_stop_id":22,"to_stop_id":1,"geometry":"MULTILINESTRING((5994311.680089 2683384.657664,-10654710.288472 4451692.554811))","attributes":{}},{"from_stop_id":23,"to_stop_id":1,"geometry":"MULTILINESTRING((1057733.867827 7611135.068229,-10654710.288472 4451692.554811))","attributes":{}},{"from_stop_id":24,"to_stop_id":1,"geometry":"MULTILINESTRING((-7687733.718979 1371448.515867,-10654710.288472 4451692.554811))","attributes":{}},{"from_stop_id":25,"to_stop_id":1,"geometry":"MULTILINESTRING((-917705.636956 7059743.327002,-10654710.288472 4451692.554811))","attributes":{}},{"from_stop_id":26,"to_stop_id":1,"geometry":"MULTILINESTRING((3923268.658903 4716479.684629,-10654710.288472 4451692.554811))","attributes":{}},{"from_stop_id":27,"to_stop_id":1,"geometry":"MULTILINESTRING((2738814.471371 7735556.799888,-10654710.288472 4451692.554811))","attributes":{}},{"from_stop_id":28,"to_stop_id":1,"geometry":"MULTILINESTRING((3879663.701165 3638731.187583,-10654710.288472 4451692.554811))","attributes":{}},{"from_stop_id":29,"to_stop_id":1,"geometry":"MULTILINESTRING((13595849.114346 4483698.831525,-10654710.288472 4451692.554811))","attributes":{}},{"from_stop_id":30,"to_stop_id":1,"geometry":"MULTILINESTRING((11557171.277761 150527.162641,-10654710.288472 4451692.554811))","attributes":{}},{"from_stop_id":31,"to_stop_id":1,"geometry":"MULTILINESTRING((1163458.552333 6650655.041174,-10654710.288472 4451692.554811))","attributes":{}},{"from_stop_id":32,"to_stop_id":1,"geometry":"MULTILINESTRING((2974521.036474 9646996.156274,-10654710.288472 4451692.554811))","attributes":{}},{"from_stop_id":33,"to_stop_id":1,"geometry":"MULTILINESTRING((-7078656.47219 -1838348.789522,-10654710.288472 4451692.554811))","attributes":{}},{"from_stop_id":34,"to_stop_id":1,"geometry":"MULTILINESTRING((11351890.344374 469131.367658,-10654710.288472 4451692.554811))","attributes":{}},{"from_stop_id":35,"to_stop_id":1,"geometry":"MULTILINESTRING((2658451.372494 7394820.260241,-10654710.288472 4451692.554811))","attributes":{}},{"from_stop_id":36,"to_stop_id":1,"geometry":"MULTILINESTRING((4341105.588359 4137016.351319,-10654710.288472 4451692.554811))","attributes":{}},{"from_stop_id":37,"to_stop_id":1,"geometry":"MULTILINESTRING((11598978.537043 4281602.659627,-10654710.288472 4451692.554811))","attributes":{}},{"from_stop_id":38,"to_stop_id":1,"geometry":"MULTILINESTRING((1777770.909871 -488843.247367,-10654710.288472 4451692.554811))","attributes":{}},{"from_stop_id":39,"to_stop_id":1,"geometry":"MULTILINESTRING((3469336.495877 6170212.711441,-10654710.288472 4451692.554811))","attributes":{}},{"from_stop_id":40,"to_stop_id":1,"geometry":"MULTILINESTRING((3428918.392521 3101070.050794,-10654710.288472 4451692.554811))","attributes":{}},{"from_stop_id":41,"to_stop_id":1,"geometry":"MULTILINESTRING((0 0,-10654710.288472 4451692.554811))","attributes":{}},{"from_stop_id":42,"to_stop_id":1,"geometry":"MULTILINESTRING((16196037.134401 -3443636.371456,-10654710.288472 4451692.554811))","attributes":{}},{"from_stop_id":43,"to_stop_id":1,"geometry":"MULTILINESTRING((2784501.994143 8093419.123256,-10654710.288472 4451692.554811))","attributes":{}},{"from_stop_id":44,"to_stop_id":1,"geometry":"MULTILINESTRING((-10044442.145771 1779661.011764,-10654710.288472 4451692.554811))","attributes":{}},{"from_stop_id":45,"to_stop_id":1,"geometry":"MULTILINESTRING((6225348.270102 2453104.641232,-10654710.288472 4451692.554811))","attributes":{}},{"from_stop_id":46,"to_stop_id":1,"geometry":"MULTILINESTRING((12053362.657202 1580908.758572,-10654710.288472 4451692.554811))","attributes":{}},{"from_stop_id":47,"to_stop_id":1,"geometry":"MULTILINESTRING((11242438.238039 1789676.623494,-10654710.288472 4451692.554811))","attributes":{}},{"from_stop_id":48,"to_stop_id":1,"geometry":"MULTILINESTRING((15390245.100361 4328841.562513,-10654710.288472 4451692.554811))","attributes":{}},{"from_stop_id":49,"to_stop_id":1,"geometry":"MULTILINESTRING((-8460281.300289 2783901.423376,-10654710.288472 4451692.554811))","attributes":{}},{"from_stop_id":50,"to_stop_id":1,"geometry":"MULTILINESTRING((-915542.031333 4779112.741647,-10654710.288472 4451692.554811))","attributes":{}},{"from_stop_id":51,"to_stop_id":1,"geometry":"MULTILINESTRING((2075385.037924 8428326.96544,-10654710.288472 4451692.554811))","attributes":{}},{"from_stop_id":52,"to_stop_id":1,"geometry":"MULTILINESTRING((2085259.744674 1741597.357213,-10654710.288472 4451692.554811))","attributes":{}},{"from_stop_id":53,"to_stop_id":1,"geometry":"MULTILINESTRING((-7081775.533003 -4638374.275084,-10654710.288472 4451692.554811))","attributes":{}},{"from_stop_id":54,"to_stop_id":1,"geometry":"MULTILINESTRING((7449910.42489 6110111.702601,-10654710.288472 4451692.554811))","attributes":{}},{"from_stop_id":55,"to_stop_id":1,"geometry":"MULTILINESTRING((-8350648.52242 -1027437.355768,-10654710.288472 4451692.554811))","attributes":{}},{"from_stop_id":56,"to_stop_id":1,"geometry":"MULTILINESTRING((246433.411424 5816903.713427,-10654710.288472 4451692.554811))","attributes":{}},{"from_stop_id":57,"to_stop_id":1,"geometry":"MULTILINESTRING((1398994.342206 5141815.937641,-10654710.288472 4451692.554811))","attributes":{}},{"from_stop_id":58,"to_stop_id":1,"geometry":"MULTILINESTRING((12681664.112134 -87864.470043,-10654710.288472 4451692.554811))","attributes":{}},{"from_stop_id":59,"to_stop_id":1,"geometry":"MULTILINESTRING((-417361.261272 4933551.652462,-10654710.288472 4451692.554811))","attributes":{}},{"from_stop_id":60,"to_stop_id":1,"geometry":"MULTILINESTRING((1292357.394473 -89469.184236,-10654710.288472 4451692.554811))","attributes":{}},{"from_stop_id":61,"to_stop_id":1,"geometry":"MULTILINESTRING((8790107.59317 2343495.165705,-10654710.288472 4451692.554811))","attributes":{}},{"from_stop_id":62,"to_stop_id":1,"geometry":"MULTILINESTRING((1375321.361932 822665.286731,-10654710.288472 4451692.554811))","attributes":{}},{"from_stop_id":63,"to_stop_id":1,"geometry":"MULTILINESTRING((5296239.287149 4886759.751808,-10654710.288472 4451692.554811))","attributes":{}},{"from_stop_id":64,"to_stop_id":1,"geometry":"MULTILINESTRING((1143016.842919 183791.756876,-10654710.288472 4451692.554811))","attributes":{}},{"from_stop_id":65,"to_stop_id":1,"geometry":"MULTILINESTRING((14222948.697264 4287936.289399,-10654710.288472 4451692.554811))","attributes":{}},{"from_stop_id":66,"to_stop_id":1,"geometry":"MULTILINESTRING((1917849.034138 3040644.059011,-10654710.288472 4451692.554811))","attributes":{}},{"from_stop_id":67,"to_stop_id":1,"geometry":"MULTILINESTRING((497590.999399 6534001.856289,-10654710.288472 4451692.554811))","attributes":{}},{"from_stop_id":68,"to_stop_id":1,"geometry":"MULTILINESTRING((1701332.88058 -475402.750059,-10654710.288472 4451692.554811))","attributes":{}},{"from_stop_id":69,"to_stop_id":1,"geometry":"MULTILINESTRING((-6815257.85905 1197174.420926,-10654710.288472 4451692.554811))","attributes":{}},{"from_stop_id":70,"to_stop_id":1,"geometry":"MULTILINESTRING((942758.756276 8505587.038689,-10654710.288472 4451692.554811))","attributes":{}},{"from_stop_id":71,"to_stop_id":1,"geometry":"MULTILINESTRING((589021.036772 6824142.821624,-10654710.288472 4451692.554811))","attributes":{}},{"from_stop_id":72,"to_stop_id":1,"geometry":"MULTILINESTRING((5285646.013085 3415373.48796,-10654710.288472 4451692.554811))","attributes":{}},{"from_stop_id":73,"to_stop_id":1,"geometry":"MULTILINESTRING((-8703336.944404 -203887.308284,-10654710.288472 4451692.554811))","attributes":{}},{"from_stop_id":74,"to_stop_id":1,"geometry":"MULTILINESTRING((-7224226.96655 2076886.93605,-10654710.288472 4451692.554811))","attributes":{}},{"from_stop_id":75,"to_stop_id":1,"geometry":"MULTILINESTRING((-382490.764739 7435586.530983,-10654710.288472 4451692.554811))","attributes":{}},{"from_stop_id":76,"to_stop_id":1,"geometry":"MULTILINESTRING((-5780295.728898 -1601191.813438,-10654710.288472 4451692.554811))","attributes":{}},{"from_stop_id":77,"to_stop_id":1,"geometry":"MULTILINESTRING((-8270741.276858 509367.281339,-10654710.288472 4451692.554811))","attributes":{}},{"from_stop_id":78,"to_stop_id":1,"geometry":"MULTILINESTRING((1989711.999337 -1255100.642297,-10654710.288472 4451692.554811))","attributes":{}},{"from_stop_id":79,"to_stop_id":1,"geometry":"MULTILINESTRING((4862356.432331 3924966.445386,-10654710.288472 4451692.554811))","attributes":{}},{"from_stop_id":80,"to_stop_id":1,"geometry":"MULTILINESTRING((184748.721227 3253246.71111,-10654710.288472 4451692.554811))","attributes":{}},{"from_stop_id":81,"to_stop_id":1,"geometry":"MULTILINESTRING((11724030.288901 8747149.04879,-10654710.288472 4451692.554811))","attributes":{}},{"from_stop_id":82,"to_stop_id":1,"geometry":"MULTILINESTRING((-7412734.835662 716591.403237,-10654710.288472 4451692.554811))","attributes":{}},{"from_stop_id":83,"to_stop_id":1,"geometry":"MULTILINESTRING((965727.418131 1015263.983184,-10654710.288472 4451692.554811))","attributes":{}},{"from_stop_id":84,"to_stop_id":1,"geometry":"MULTILINESTRING((5018189.359227 2739515.791932,-10654710.288472 4451692.554811))","attributes":{}},{"from_stop_id":85,"to_stop_id":1,"geometry":"MULTILINESTRING((-11416123.694313 2708933.292233,-10654710.288472 4451692.554811))","attributes":{}},{"from_stop_id":86,"to_stop_id":1,"geometry":"MULTILINESTRING((-11838468.395229 7584411.732747,-10654710.288472 4451692.554811))","attributes":{}}]},"editable":false}