{"type":"FeatureCollection","features":[{"type":"Feature","geometry":{"type":"Point","coordinates":[-72.616519,44.593932]},"properties":{"url:moreinfo":"http:\/\/foodtree.com\/sources\/25071","urltitle:moreinfo":"Please visit Zack Woods Herb Farm on Foodtree","address":" Hyde Park, Vermont, USA","title":"Zack Woods Herb Farm"}},{"type":"Feature","geometry":{"type":"Point","coordinates":[-72.16806,43.93722]},"properties":{"url:moreinfo":"http:\/\/foodtree.com\/sources\/25061","urltitle:moreinfo":"Please visit Your Farm on Foodtree","address":" Fairlee, Vermont, USA","title":"Your Farm"}},{"type":"Feature","geometry":{"type":"Point","coordinates":[-72.312302,44.401395]},"properties":{"url:moreinfo":"http:\/\/foodtree.com\/sources\/25051","urltitle:moreinfo":"Please visit Yarrow Lea Farm on Foodtree","address":" Cabot, Vermont, USA","title":"Yarrow Lea Farm"}},{"type":"Feature","geometry":{"type":"Point","coordinates":[-72.264826,44.548942]},"properties":{"url:moreinfo":"http:\/\/foodtree.com\/sources\/25041","urltitle:moreinfo":"Please visit Wood's Edge Farm on Foodtree","address":" Greensboro Bend, Vermont, USA","title":"Wood's Edge Farm"}},{"type":"Feature","geometry":{"type":"Point","coordinates":[-72.715951,44.378111]},"properties":{"url:moreinfo":"http:\/\/foodtree.com\/sources\/25031","urltitle:moreinfo":"Please visit Woodard's Farm on Foodtree","address":" Waterbury Ctr, Vermont, USA","title":"Woodard's Farm"}},{"type":"Feature","geometry":{"type":"Point","coordinates":[-72.003151,44.533667]},"properties":{"url:moreinfo":"http:\/\/foodtree.com\/sources\/25021","urltitle:moreinfo":"Please visit Wonder Y Farm on Foodtree","address":" Lyndonville, Vermont, USA","title":"Wonder Y Farm"}},{"type":"Feature","geometry":{"type":"Point","coordinates":[-72.312302,44.401395]},"properties":{"url:moreinfo":"http:\/\/foodtree.com\/sources\/25011","urltitle:moreinfo":"Please visit Wonder Why Farm on Foodtree","address":" Cabot, Vermont, USA","title":"Wonder Why Farm"}},{"type":"Feature","geometry":{"type":"Point","coordinates":[-72.806523,44.906991]},"properties":{"url:moreinfo":"http:\/\/foodtree.com\/sources\/25001","urltitle:moreinfo":"Please visit Witchcat Farm on Foodtree","address":" Enosburg Falls, Vermont, USA","title":"Witchcat Farm"}},{"type":"Feature","geometry":{"type":"Point","coordinates":[-72.06,44.89889]},"properties":{"url:moreinfo":"http:\/\/foodtree.com\/sources\/24991","urltitle:moreinfo":"Please visit Winslow Farm on Foodtree","address":" W Charleston, Vermont, USA","title":"Winslow Farm"}},{"type":"Feature","geometry":{"type":"Point","coordinates":[-72.049378,44.296832]},"properties":{"url:moreinfo":"http:\/\/foodtree.com\/sources\/24981","urltitle:moreinfo":"Please visit Windy Pasture on Foodtree","address":" Barnet, Vermont, USA","title":"Windy Pasture"}},{"type":"Feature","geometry":{"type":"Point","coordinates":[-72.349722,44.518056]},"properties":{"url:moreinfo":"http:\/\/foodtree.com\/sources\/24971","urltitle:moreinfo":"Please visit Windy Ledges Farm on Foodtree","address":" Hardwick, Vermont, USA","title":"Windy Ledges Farm"}},{"type":"Feature","geometry":{"type":"Point","coordinates":[-73.01032,44.665496]},"properties":{"url:moreinfo":"http:\/\/foodtree.com\/sources\/24961","urltitle:moreinfo":"Please visit Windtop Farm on Foodtree","address":" Fairfax, Vermont, USA","title":"Windtop Farm"}},{"type":"Feature","geometry":{"type":"Point","coordinates":[-73.099167,44.445278]},"properties":{"url:moreinfo":"http:\/\/foodtree.com\/sources\/24951","urltitle:moreinfo":"Please visit Windstone Farm on Foodtree","address":"637 Christmas Lane, Williston, Vermont, USA","title":"Windstone Farm"}},{"type":"Feature","geometry":{"type":"Point","coordinates":[-72.829295,44.643939]},"properties":{"url:moreinfo":"http:\/\/foodtree.com\/sources\/24941","urltitle:moreinfo":"Please visit Windridge Farms on Foodtree","address":" Jeffersonville, Vermont, USA","title":"Windridge Farms"}},{"type":"Feature","geometry":{"type":"Point","coordinates":[-72.502049,44.197006]},"properties":{"url:moreinfo":"http:\/\/foodtree.com\/sources\/24931","urltitle:moreinfo":"Please visit Wilson Dairy on Foodtree","address":" Barre, Vermont, USA","title":"Wilson Dairy"}},{"type":"Feature","geometry":{"type":"Point","coordinates":[-73.391195,44.357993]},"properties":{"url:moreinfo":"http:\/\/foodtree.com\/sources\/24921","urltitle:moreinfo":"Please visit Willsboro Farm on Foodtree","address":" Willsboro, Vermont, USA","title":"Willsboro Farm"}},{"type":"Feature","geometry":{"type":"Point","coordinates":[-73.226946,42.792313]},"properties":{"url:moreinfo":"http:\/\/foodtree.com\/sources\/24911","urltitle:moreinfo":"Please visit Wildstone Farm on Foodtree","address":" Pownal, Vermont, USA","title":"Wildstone Farm"}},{"type":"Feature","geometry":{"type":"Point","coordinates":[-72.16806,43.93722]},"properties":{"url:moreinfo":"http:\/\/foodtree.com\/sources\/24901","urltitle:moreinfo":"Please visit Wild Hill Organics on Foodtree","address":" Fairlee, Vermont, USA","title":"Wild Hill Organics"}},{"type":"Feature","geometry":{"type":"Point","coordinates":[-72.379167,44.658056]},"properties":{"url:moreinfo":"http:\/\/foodtree.com\/sources\/24891","urltitle:moreinfo":"Please visit Wild Branch Valley Farm on Foodtree","address":" Craftsbury, Vermont, USA","title":"Wild Branch Valley Farm"}},{"type":"Feature","geometry":{"type":"Point","coordinates":[-73.200393,43.86395]},"properties":{"url:moreinfo":"http:\/\/foodtree.com\/sources\/24881","urltitle:moreinfo":"Please visit Wilbur Farms LLC on Foodtree","address":" Whiting, Vermont, USA","title":"Wilbur Farms LLC"}},{"type":"Feature","geometry":{"type":"Point","coordinates":[-72.312302,44.401395]},"properties":{"url:moreinfo":"http:\/\/foodtree.com\/sources\/24871","urltitle:moreinfo":"Please visit Whittier Hill Farm on Foodtree","address":" Cabot, Vermont, USA","title":"Whittier Hill Farm"}},{"type":"Feature","geometry":{"type":"Point","coordinates":[-72.540833,44.116111]},"properties":{"url:moreinfo":"http:\/\/foodtree.com\/sources\/24861","urltitle:moreinfo":"Please visit Whitetail Acres on Foodtree","address":" Williamstown, Vermont, USA","title":"Whitetail Acres"}},{"type":"Feature","geometry":{"type":"Point","coordinates":[-72.446667,44.866667]},"properties":{"url:moreinfo":"http:\/\/foodtree.com\/sources\/24851","urltitle:moreinfo":"Please visit Wheeler Sugarworks on Foodtree","address":" Westfield, Vermont, USA","title":"Wheeler Sugarworks"}},{"type":"Feature","geometry":{"type":"Point","coordinates":[-72.442641,43.126665]},"properties":{"url:moreinfo":"http:\/\/foodtree.com\/sources\/24841","urltitle:moreinfo":"Please visit Westminster Meats on Foodtree","address":" Westminster Stn, Vermont, USA","title":"Westminster Meats"}},{"type":"Feature","geometry":{"type":"Point","coordinates":[-72.85889,44.78444]},"properties":{"url:moreinfo":"http:\/\/foodtree.com\/sources\/24831","urltitle:moreinfo":"Please visit Westcom Organic Dairy on Foodtree","address":" E Fairfield, Vermont, USA","title":"Westcom Organic Dairy"}},{"type":"Feature","geometry":{"type":"Point","coordinates":[-73.21083,43.96083]},"properties":{"url:moreinfo":"http:\/\/foodtree.com\/sources\/24821","urltitle:moreinfo":"Please visit West Street Dairies on Foodtree","address":" Cornwall, Vermont, USA","title":"West Street Dairies"}},{"type":"Feature","geometry":{"type":"Point","coordinates":[-73.212072,44.475883]},"properties":{"url:moreinfo":"http:\/\/foodtree.com\/sources\/24811","urltitle:moreinfo":"Please visit Well Dressed Greens LLC on Foodtree","address":" Burlington, Vermont, USA","title":"Well Dressed Greens LLC"}},{"type":"Feature","geometry":{"type":"Point","coordinates":[-72.607603,43.940899]},"properties":{"url:moreinfo":"http:\/\/foodtree.com\/sources\/24801","urltitle:moreinfo":"Please visit Wayside Farm on Foodtree","address":" Randolph Ctr, Vermont, USA","title":"Wayside Farm"}},{"type":"Feature","geometry":{"type":"Point","coordinates":[-72.756264,44.33782]},"properties":{"url:moreinfo":"http:\/\/foodtree.com\/sources\/24791","urltitle:moreinfo":"Please visit Wallace Farm on Foodtree","address":" Waterbury, Vermont, USA","title":"Wallace Farm"}},{"type":"Feature","geometry":{"type":"Point","coordinates":[-72.923889,44.535833]},"properties":{"url:moreinfo":"http:\/\/foodtree.com\/sources\/24781","urltitle:moreinfo":"Please visit Walker's VT Pure Maple Syrup LLC on Foodtree","address":" Underhill, Vermont, USA","title":"Walker's VT Pure Maple Syrup LLC"}},{"type":"Feature","geometry":{"type":"Point","coordinates":[-72.577778,42.9225]},"properties":{"url:moreinfo":"http:\/\/foodtree.com\/sources\/24771","urltitle:moreinfo":"Please visit Walker Farm on Foodtree","address":" E Dummerston, Vermont, USA","title":"Walker Farm"}},{"type":"Feature","geometry":{"type":"Point","coordinates":[-72.246111,44.48]},"properties":{"url:moreinfo":"http:\/\/foodtree.com\/sources\/24761","urltitle:moreinfo":"Please visit Walden Heights Nursery & Orchard on Foodtree","address":" Walden, Vermont, USA","title":"Walden Heights Nursery & Orchard"}},{"type":"Feature","geometry":{"type":"Point","coordinates":[-73.057049,43.177021]},"properties":{"url:moreinfo":"http:\/\/foodtree.com\/sources\/24751","urltitle:moreinfo":"Please visit Wagatha's on Foodtree","address":" Manchester Ctr, Vermont, USA","title":"Wagatha's"}},{"type":"Feature","geometry":{"type":"Point","coordinates":[-73.214358,44.049864]},"properties":{"url:moreinfo":"http:\/\/foodtree.com\/sources\/24741","urltitle:moreinfo":"Please visit VT Organic Plugs on Foodtree","address":" Weybridge, Vermont, USA","title":"VT Organic Plugs"}},{"type":"Feature","geometry":{"type":"Point","coordinates":[-72.756264,44.33782]},"properties":{"url:moreinfo":"http:\/\/foodtree.com\/sources\/24731","urltitle:moreinfo":"Please visit VT Artisan Coffee & Tea Co on Foodtree","address":" Waterbury, Vermont, USA","title":"VT Artisan Coffee & Tea Co"}},{"type":"Feature","geometry":{"type":"Point","coordinates":[-72.8125,44.188889]},"properties":{"url:moreinfo":"http:\/\/foodtree.com\/sources\/24721","urltitle:moreinfo":"Please visit Von Trapp Farm \/ Farmstead on Foodtree","address":" Waitsfield, Vermont, USA","title":"Von Trapp Farm \/ Farmstead"}},{"type":"Feature","geometry":{"type":"Point","coordinates":[-73.265716,43.594801]},"properties":{"url:moreinfo":"http:\/\/foodtree.com\/sources\/24711","urltitle:moreinfo":"Please visit Vladyka Farm on Foodtree","address":" Fair Haven, Vermont, USA","title":"Vladyka Farm"}},{"type":"Feature","geometry":{"type":"Point","coordinates":[-72.502049,44.197006]},"properties":{"url:moreinfo":"http:\/\/foodtree.com\/sources\/24701","urltitle:moreinfo":"Please visit Village Cannery of VT on Foodtree","address":" Barre, Vermont, USA","title":"Village Cannery of VT"}},{"type":"Feature","geometry":{"type":"Point","coordinates":[-73.167351,44.015329]},"properties":{"url:moreinfo":"http:\/\/foodtree.com\/sources\/24691","urltitle:moreinfo":"Please visit Vermont Tea & Trading Co on Foodtree","address":" Middlebury, Vermont, USA","title":"Vermont Tea & Trading Co"}},{"type":"Feature","geometry":{"type":"Point","coordinates":[-73.167351,44.015329]},"properties":{"url:moreinfo":"http:\/\/foodtree.com\/sources\/24681","urltitle:moreinfo":"Please visit Vermont Soapworks on Foodtree","address":" Middlebury, Vermont, USA","title":"Vermont Soapworks"}},{"type":"Feature","geometry":{"type":"Point","coordinates":[-72.598449,44.561719]},"properties":{"url:moreinfo":"http:\/\/foodtree.com\/sources\/24671","urltitle:moreinfo":"Please visit Vermont Maple Sugar Company on Foodtree","address":" Morrisville, Vermont, USA","title":"Vermont Maple Sugar Company"}},{"type":"Feature","geometry":{"type":"Point","coordinates":[-72.260347,44.890551]},"properties":{"url:moreinfo":"http:\/\/foodtree.com\/sources\/24661","urltitle:moreinfo":"Please visit Vermont Green Maples on Foodtree","address":" Orleans, Vermont, USA","title":"Vermont Green Maples"}},{"type":"Feature","geometry":{"type":"Point","coordinates":[-72.638428,43.382295]},"properties":{"url:moreinfo":"http:\/\/foodtree.com\/sources\/18891","urltitle:moreinfo":"Please visit Vermont Fresh Foods on Foodtree","address":"Killington Rd,  Proctorsville, Vermont, USA, 5751","title":"Vermont Fresh Foods"}},{"type":"Feature","geometry":{"type":"Point","coordinates":[-72.557862,42.850935]},"properties":{"url:moreinfo":"http:\/\/foodtree.com\/sources\/24651","urltitle:moreinfo":"Please visit Vermont Bread Company on Foodtree","address":" Brattleboro, Vermont, USA","title":"Vermont Bread Company"}},{"type":"Feature","geometry":{"type":"Point","coordinates":[-72.725556,44.266389]},"properties":{"url:moreinfo":"http:\/\/foodtree.com\/sources\/24641","urltitle:moreinfo":"Please visit Vermont Bean Crafters Co on Foodtree","address":" Moretown, Vermont, USA","title":"Vermont Bean Crafters Co"}},{"type":"Feature","geometry":{"type":"Point","coordinates":[-73.212072,44.475883]},"properties":{"url:moreinfo":"http:\/\/foodtree.com\/sources\/24631","urltitle:moreinfo":"Please visit UVM Organic Apple Program on Foodtree","address":" Burlington, Vermont, USA","title":"UVM Organic Apple Program"}},{"type":"Feature","geometry":{"type":"Point","coordinates":[-73.212072,44.475883]},"properties":{"url:moreinfo":"http:\/\/foodtree.com\/sources\/24621","urltitle:moreinfo":"Please visit Urban Moonshine Natural Products on Foodtree","address":" Burlington, Vermont, USA","title":"Urban Moonshine Natural Products"}},{"type":"Feature","geometry":{"type":"Point","coordinates":[-72.353991,44.350841]},"properties":{"url:moreinfo":"http:\/\/foodtree.com\/sources\/24611","urltitle:moreinfo":"Please visit Under Orion Farm on Foodtree","address":" Marshfield, Vermont, USA","title":"Under Orion Farm"}},{"type":"Feature","geometry":{"type":"Point","coordinates":[-72.133611,44.963889]},"properties":{"url:moreinfo":"http:\/\/foodtree.com\/sources\/24601","urltitle:moreinfo":"Please visit Tyrose Farmstead on Foodtree","address":" Derby, Vermont, USA","title":"Tyrose Farmstead"}},{"type":"Feature","geometry":{"type":"Point","coordinates":[-73.04755,43.354834]},"properties":{"url:moreinfo":"http:\/\/foodtree.com\/sources\/1766","urltitle:moreinfo":"Please visit Two Dog Farm on Foodtree","address":"Fair Ave and Marine View Ave,  Danby, Vermont, USA, 95017","title":"Two Dog Farm"}},{"type":"Feature","geometry":{"type":"Point","coordinates":[-72.85889,44.78444]},"properties":{"url:moreinfo":"http:\/\/foodtree.com\/sources\/24591","urltitle:moreinfo":"Please visit Trudell Family Farm on Foodtree","address":" E Fairfield, Vermont, USA","title":"Trudell Family Farm"}},{"type":"Feature","geometry":{"type":"Point","coordinates":[-73.087648,43.798157]},"properties":{"url:moreinfo":"http:\/\/foodtree.com\/sources\/24581","urltitle:moreinfo":"Please visit Transfiguration Farm on Foodtree","address":" Brandon, Vermont, USA","title":"Transfiguration Farm"}},{"type":"Feature","geometry":{"type":"Point","coordinates":[-73.315952,43.893671]},"properties":{"url:moreinfo":"http:\/\/foodtree.com\/sources\/24571","urltitle:moreinfo":"Please visit Tottingham Farm on Foodtree","address":" Shoreham, Vermont, USA","title":"Tottingham Farm"}},{"type":"Feature","geometry":{"type":"Point","coordinates":[-72.661508,44.640051]},"properties":{"url:moreinfo":"http:\/\/foodtree.com\/sources\/24561","urltitle:moreinfo":"Please visit Top Rankin Farm on Foodtree","address":" E Johnson, Vermont, USA","title":"Top Rankin Farm"}},{"type":"Feature","geometry":{"type":"Point","coordinates":[-72.598449,44.561719]},"properties":{"url:moreinfo":"http:\/\/foodtree.com\/sources\/24551","urltitle:moreinfo":"Please visit Top Notch Jerseys on Foodtree","address":" Morrisville, Vermont, USA","title":"Top Notch Jerseys"}},{"type":"Feature","geometry":{"type":"Point","coordinates":[-72.049378,44.296832]},"properties":{"url:moreinfo":"http:\/\/foodtree.com\/sources\/24541","urltitle:moreinfo":"Please visit Too Little Farm on Foodtree","address":" Barnet, Vermont, USA","title":"Too Little Farm"}},{"type":"Feature","geometry":{"type":"Point","coordinates":[-73.315952,43.893671]},"properties":{"url:moreinfo":"http:\/\/foodtree.com\/sources\/24531","urltitle:moreinfo":"Please visit Tio Grain Farm on Foodtree","address":" Shoreham, Vermont, USA","title":"Tio Grain Farm"}},{"type":"Feature","geometry":{"type":"Point","coordinates":[-72.748889,44.714444]},"properties":{"url:moreinfo":"http:\/\/foodtree.com\/sources\/24521","urltitle:moreinfo":"Please visit Tilton Family Farm on Foodtree","address":" Waterville, Vermont, USA","title":"Tilton Family Farm"}},{"type":"Feature","geometry":{"type":"Point","coordinates":[-73.21083,43.96083]},"properties":{"url:moreinfo":"http:\/\/foodtree.com\/sources\/24511","urltitle:moreinfo":"Please visit Tillman Family LLC on Foodtree","address":" Cornwall, Vermont, USA","title":"Tillman Family LLC"}},{"type":"Feature","geometry":{"type":"Point","coordinates":[-72.876277,44.644772]},"properties":{"url:moreinfo":"http:\/\/foodtree.com\/sources\/24501","urltitle:moreinfo":"Please visit Thunder Basin Maple Works on Foodtree","address":" Cambridge, Vermont, USA","title":"Thunder Basin Maple Works"}},{"type":"Feature","geometry":{"type":"Point","coordinates":[-72.479817,43.722847]},"properties":{"url:moreinfo":"http:\/\/foodtree.com\/sources\/12931","urltitle:moreinfo":"Please visit Thistle Hill Farm on Foodtree","address":"107 Clifford Road,  N Pomfret, Vermont, USA, 05053","title":"Thistle Hill Farm"}},{"type":"Feature","geometry":{"type":"Point","coordinates":[-72.665695,43.924745]},"properties":{"url:moreinfo":"http:\/\/foodtree.com\/sources\/24491","urltitle:moreinfo":"Please visit The Royal Butcher on Foodtree","address":" Randolph, Vermont, USA","title":"The Royal Butcher"}},{"type":"Feature","geometry":{"type":"Point","coordinates":[-73.078928,44.133377]},"properties":{"url:moreinfo":"http:\/\/foodtree.com\/sources\/24481","urltitle:moreinfo":"Please visit The Last Resort on Foodtree","address":" Bristol, Vermont, USA","title":"The Last Resort"}},{"type":"Feature","geometry":{"type":"Point","coordinates":[-72.852778,42.783889]},"properties":{"url:moreinfo":"http:\/\/foodtree.com\/sources\/24471","urltitle:moreinfo":"Please visit The Corse Farm Dairy LLC on Foodtree","address":" Whitingham, Vermont, USA","title":"The Corse Farm Dairy LLC"}},{"type":"Feature","geometry":{"type":"Point","coordinates":[-73.224722,44.389722]},"properties":{"url:moreinfo":"http:\/\/foodtree.com\/sources\/24461","urltitle:moreinfo":"Please visit Teeny Tiny Spice Co. on Foodtree","address":" Shelburne, Vermont, USA","title":"Teeny Tiny Spice Co."}},{"type":"Feature","geometry":{"type":"Point","coordinates":[-72.421944,44.083333]},"properties":{"url:moreinfo":"http:\/\/foodtree.com\/sources\/24451","urltitle:moreinfo":"Please visit Taylor Valley View on Foodtree","address":" Washington, Vermont, USA","title":"Taylor Valley View"}},{"type":"Feature","geometry":{"type":"Point","coordinates":[-72.003151,44.533667]},"properties":{"url:moreinfo":"http:\/\/foodtree.com\/sources\/24441","urltitle:moreinfo":"Please visit Tamarlane Farm on Foodtree","address":" Lyndonville, Vermont, USA","title":"Tamarlane Farm"}},{"type":"Feature","geometry":{"type":"Point","coordinates":[-73.241022,44.518021]},"properties":{"url:moreinfo":"http:\/\/foodtree.com\/sources\/5488","urltitle:moreinfo":"Please visit Tamarack Hollow Farm on Foodtree","address":"519 Ethan Allen Parkway,  Burlington, Vermont, USA, 05408","title":"Tamarack Hollow Farm"}},{"type":"Feature","geometry":{"type":"Point","coordinates":[-72.353991,44.350841]},"properties":{"url:moreinfo":"http:\/\/foodtree.com\/sources\/24431","urltitle:moreinfo":"Please visit Tamarack Farm on Foodtree","address":" Marshfield, Vermont, USA","title":"Tamarack Farm"}},{"type":"Feature","geometry":{"type":"Point","coordinates":[-73.098889,43.869722]},"properties":{"url:moreinfo":"http:\/\/foodtree.com\/sources\/24421","urltitle:moreinfo":"Please visit Taconic End Farm on Foodtree","address":" Leicester, Vermont, USA","title":"Taconic End Farm"}},{"type":"Feature","geometry":{"type":"Point","coordinates":[-72.005278,44.535833]},"properties":{"url:moreinfo":"http:\/\/foodtree.com\/sources\/24411","urltitle:moreinfo":"Please visit Sweet Lyndon Maple on Foodtree","address":" Lyndon, Vermont, USA","title":"Sweet Lyndon Maple"}},{"type":"Feature","geometry":{"type":"Point","coordinates":[-73.15222,44.81028]},"properties":{"url:moreinfo":"http:\/\/foodtree.com\/sources\/24401","urltitle:moreinfo":"Please visit Sweeney Farm on Foodtree","address":" St Albans, Vermont, USA","title":"Sweeney Farm"}},{"type":"Feature","geometry":{"type":"Point","coordinates":[-73.297894,43.80395]},"properties":{"url:moreinfo":"http:\/\/foodtree.com\/sources\/24391","urltitle:moreinfo":"Please visit Swallowdale Farm on Foodtree","address":" Orwell, Vermont, USA","title":"Swallowdale Farm"}},{"type":"Feature","geometry":{"type":"Point","coordinates":[-72.812222,43.876111]},"properties":{"url:moreinfo":"http:\/\/foodtree.com\/sources\/24381","urltitle:moreinfo":"Please visit Sunshine Valley OG Berry Farm on Foodtree","address":" Rochester, Vermont, USA","title":"Sunshine Valley OG Berry Farm"}},{"type":"Feature","geometry":{"type":"Point","coordinates":[-72.77065,42.787305]},"properties":{"url:moreinfo":"http:\/\/foodtree.com\/sources\/24371","urltitle:moreinfo":"Please visit Sumner Farm on Foodtree","address":" W Halifax, Vermont, USA","title":"Sumner Farm"}},{"type":"Feature","geometry":{"type":"Point","coordinates":[-72.85889,44.78444]},"properties":{"url:moreinfo":"http:\/\/foodtree.com\/sources\/24361","urltitle:moreinfo":"Please visit Sugarhill Sugarworks on Foodtree","address":" E Fairfield, Vermont, USA","title":"Sugarhill Sugarworks"}},{"type":"Feature","geometry":{"type":"Point","coordinates":[-72.441756,43.294241]},"properties":{"url:moreinfo":"http:\/\/foodtree.com\/sources\/24351","urltitle:moreinfo":"Please visit Sugar Moon Hill on Foodtree","address":" Chestnut Hill, Vermont, USA","title":"Sugar Moon Hill"}},{"type":"Feature","geometry":{"type":"Point","coordinates":[-72.377873,43.866457]},"properties":{"url:moreinfo":"http:\/\/foodtree.com\/sources\/24341","urltitle:moreinfo":"Please visit Strafford Organic Creamery on Foodtree","address":" Strafford, Vermont, USA","title":"Strafford Organic Creamery"}},{"type":"Feature","geometry":{"type":"Point","coordinates":[-72.806523,44.906991]},"properties":{"url:moreinfo":"http:\/\/foodtree.com\/sources\/24331","urltitle:moreinfo":"Please visit Stony Pond Farm on Foodtree","address":" Enosburg Falls, Vermont, USA","title":"Stony Pond Farm"}},{"type":"Feature","geometry":{"type":"Point","coordinates":[-73.260993,44.309848]},"properties":{"url:moreinfo":"http:\/\/foodtree.com\/sources\/24321","urltitle:moreinfo":"Please visit Stony Loam Farm on Foodtree","address":" Charlotte, Vermont, USA","title":"Stony Loam Farm"}},{"type":"Feature","geometry":{"type":"Point","coordinates":[-73.098889,43.869722]},"properties":{"url:moreinfo":"http:\/\/foodtree.com\/sources\/24311","urltitle:moreinfo":"Please visit Stoney Lonesome Farm on Foodtree","address":" Leicester, Vermont, USA","title":"Stoney Lonesome Farm"}},{"type":"Feature","geometry":{"type":"Point","coordinates":[-72.68036,44.635583]},"properties":{"url:moreinfo":"http:\/\/foodtree.com\/sources\/24301","urltitle:moreinfo":"Please visit Sterling Mountain Farm on Foodtree","address":" Johnson, Vermont, USA","title":"Sterling Mountain Farm"}},{"type":"Feature","geometry":{"type":"Point","coordinates":[-72.30917,44.52167]},"properties":{"url:moreinfo":"http:\/\/foodtree.com\/sources\/24291","urltitle:moreinfo":"Please visit Stannard Farm on Foodtree","address":" E Hardwick, Vermont, USA","title":"Stannard Farm"}},{"type":"Feature","geometry":{"type":"Point","coordinates":[-72.349722,44.518056]},"properties":{"url:moreinfo":"http:\/\/foodtree.com\/sources\/24281","urltitle:moreinfo":"Please visit Square Deal Farm on Foodtree","address":" Hardwick, Vermont, USA","title":"Square Deal Farm"}},{"type":"Feature","geometry":{"type":"Point","coordinates":[-72.806523,44.906991]},"properties":{"url:moreinfo":"http:\/\/foodtree.com\/sources\/24271","urltitle:moreinfo":"Please visit Spring Valley Farm on Foodtree","address":" Enosburg Falls, Vermont, USA","title":"Spring Valley Farm"}},{"type":"Feature","geometry":{"type":"Point","coordinates":[-72.446667,44.866667]},"properties":{"url:moreinfo":"http:\/\/foodtree.com\/sources\/5144","urltitle:moreinfo":"Please visit Spring Brook Farm on Foodtree","address":"591 Great Road,  Westfield, Vermont, USA, 01460","title":"Spring Brook Farm"}},{"type":"Feature","geometry":{"type":"Point","coordinates":[-73.300224,44.975054]},"properties":{"url:moreinfo":"http:\/\/foodtree.com\/sources\/24261","urltitle:moreinfo":"Please visit Sprano Farm on Foodtree","address":" Alburg, Vermont, USA","title":"Sprano Farm"}},{"type":"Feature","geometry":{"type":"Point","coordinates":[-73.125278,43.475278]},"properties":{"url:moreinfo":"http:\/\/foodtree.com\/sources\/24251","urltitle:moreinfo":"Please visit Spoon Mountain Farm on Foodtree","address":" Middletown Springs, Vermont, USA","title":"Spoon Mountain Farm"}},{"type":"Feature","geometry":{"type":"Point","coordinates":[-73.212072,44.475883]},"properties":{"url:moreinfo":"http:\/\/foodtree.com\/sources\/24241","urltitle:moreinfo":"Please visit Speeder & Earls Coffee on Foodtree","address":" Burlington, Vermont, USA","title":"Speeder & Earls Coffee"}},{"type":"Feature","geometry":{"type":"Point","coordinates":[-72.517222,43.000278]},"properties":{"url:moreinfo":"http:\/\/foodtree.com\/sources\/24231","urltitle:moreinfo":"Please visit South Valley Farm on Foodtree","address":" Putney, Vermont, USA","title":"South Valley Farm"}},{"type":"Feature","geometry":{"type":"Point","coordinates":[-72.300278,44.589167]},"properties":{"url:moreinfo":"http:\/\/foodtree.com\/sources\/24221","urltitle:moreinfo":"Please visit Snowspun on Foodtree","address":" Greensboro, Vermont, USA","title":"Snowspun"}},{"type":"Feature","geometry":{"type":"Point","coordinates":[-72.098988,45.005046]},"properties":{"url:moreinfo":"http:\/\/foodtree.com\/sources\/24211","urltitle:moreinfo":"Please visit Smuggler's Hill Farm on Foodtree","address":" Derby Line, Vermont, USA","title":"Smuggler's Hill Farm"}},{"type":"Feature","geometry":{"type":"Point","coordinates":[-72.047036,44.15423]},"properties":{"url:moreinfo":"http:\/\/foodtree.com\/sources\/24201","urltitle:moreinfo":"Please visit Slow & Steady Farm on Foodtree","address":" Wells River, Vermont, USA","title":"Slow & Steady Farm"}},{"type":"Feature","geometry":{"type":"Point","coordinates":[-72.015118,44.419263]},"properties":{"url:moreinfo":"http:\/\/foodtree.com\/sources\/24191","urltitle:moreinfo":"Please visit Sjolander Farm on Foodtree","address":" St Johnsbury, Vermont, USA","title":"Sjolander Farm"}},{"type":"Feature","geometry":{"type":"Point","coordinates":[-73.297894,43.80395]},"properties":{"url:moreinfo":"http:\/\/foodtree.com\/sources\/24181","urltitle:moreinfo":"Please visit Singing Cedars Farmstead on Foodtree","address":" Orwell, Vermont, USA","title":"Singing Cedars Farmstead"}},{"type":"Feature","geometry":{"type":"Point","coordinates":[-73.297894,43.80395]},"properties":{"url:moreinfo":"http:\/\/foodtree.com\/sources\/24171","urltitle:moreinfo":"Please visit Singing Cedars Farm on Foodtree","address":" Orwell, Vermont, USA","title":"Singing Cedars Farm"}},{"type":"Feature","geometry":{"type":"Point","coordinates":[-73.351164,43.987374]},"properties":{"url:moreinfo":"http:\/\/foodtree.com\/sources\/24161","urltitle:moreinfo":"Please visit Singing Brook Farm on Foodtree","address":" Bridport, Vermont, USA","title":"Singing Brook Farm"}},{"type":"Feature","geometry":{"type":"Point","coordinates":[-72.8125,44.188889]},"properties":{"url:moreinfo":"http:\/\/foodtree.com\/sources\/24151","urltitle:moreinfo":"Please visit Simplicity Farm on Foodtree","address":" Waitsfield, Vermont, USA","title":"Simplicity Farm"}},{"type":"Feature","geometry":{"type":"Point","coordinates":[-72.768984,42.951192]},"properties":{"url:moreinfo":"http:\/\/foodtree.com\/sources\/24141","urltitle:moreinfo":"Please visit Sherman's Mountain View Farm on Foodtree","address":" E Dover, Vermont, USA","title":"Sherman's Mountain View Farm"}},{"type":"Feature","geometry":{"type":"Point","coordinates":[-72.06,44.89889]},"properties":{"url:moreinfo":"http:\/\/foodtree.com\/sources\/24131","urltitle:moreinfo":"Please visit Shepherd's Crook Farm on Foodtree","address":" W Charleston, Vermont, USA","title":"Shepherd's Crook Farm"}},{"type":"Feature","geometry":{"type":"Point","coordinates":[-73.224722,44.389722]},"properties":{"url:moreinfo":"http:\/\/foodtree.com\/sources\/24121","urltitle:moreinfo":"Please visit Shelburne Farms Market Garden on Foodtree","address":" Shelburne, Vermont, USA","title":"Shelburne Farms Market Garden"}},{"type":"Feature","geometry":{"type":"Point","coordinates":[-73.028165,43.706733]},"properties":{"url:moreinfo":"http:\/\/foodtree.com\/sources\/24111","urltitle:moreinfo":"Please visit Shannon Sugar Shack on Foodtree","address":" Pittsford, Vermont, USA","title":"Shannon Sugar Shack"}},{"type":"Feature","geometry":{"type":"Point","coordinates":[-73.0175,44.206111]},"properties":{"url:moreinfo":"http:\/\/foodtree.com\/sources\/24101","urltitle:moreinfo":"Please visit Shaker Mountain Farm on Foodtree","address":" Starksboro, Vermont, USA","title":"Shaker Mountain Farm"}},{"type":"Feature","geometry":{"type":"Point","coordinates":[-73.0175,44.206111]},"properties":{"url:moreinfo":"http:\/\/foodtree.com\/sources\/24091","urltitle:moreinfo":"Please visit Shaker Maple Farm on Foodtree","address":" Starksboro, Vermont, USA","title":"Shaker Maple Farm"}},{"type":"Feature","geometry":{"type":"Point","coordinates":[-72.926389,44.814444]},"properties":{"url:moreinfo":"http:\/\/foodtree.com\/sources\/24081","urltitle:moreinfo":"Please visit Shady Maples Farm on Foodtree","address":" Fairfield, Vermont, USA","title":"Shady Maples Farm"}},{"type":"Feature","geometry":{"type":"Point","coordinates":[-72.28,44.80333]},"properties":{"url:moreinfo":"http:\/\/foodtree.com\/sources\/24071","urltitle:moreinfo":"Please visit Seslar Farm on Foodtree","address":" Irasburg, Vermont, USA","title":"Seslar Farm"}},{"type":"Feature","geometry":{"type":"Point","coordinates":[-72.488056,43.9]},"properties":{"url:moreinfo":"http:\/\/foodtree.com\/sources\/24061","urltitle:moreinfo":"Please visit Seize the Day Farm on Foodtree","address":" Tunbridge, Vermont, USA","title":"Seize the Day Farm"}},{"type":"Feature","geometry":{"type":"Point","coordinates":[-73.211235,44.259498]},"properties":{"url:moreinfo":"http:\/\/foodtree.com\/sources\/24051","urltitle:moreinfo":"Please visit See Green Farm Inc. on Foodtree","address":" N Ferrisburg, Vermont, USA","title":"See Green Farm Inc."}},{"type":"Feature","geometry":{"type":"Point","coordinates":[-72.14009,44.411495]},"properties":{"url:moreinfo":"http:\/\/foodtree.com\/sources\/24041","urltitle:moreinfo":"Please visit Second Chance Farm on Foodtree","address":" Danville, Vermont, USA","title":"Second Chance Farm"}},{"type":"Feature","geometry":{"type":"Point","coordinates":[-72.8125,44.188889]},"properties":{"url:moreinfo":"http:\/\/foodtree.com\/sources\/24031","urltitle:moreinfo":"Please visit Scrag Mountain Sugar House on Foodtree","address":" Waitsfield, Vermont, USA","title":"Scrag Mountain Sugar House"}},{"type":"Feature","geometry":{"type":"Point","coordinates":[-73.214358,44.049864]},"properties":{"url:moreinfo":"http:\/\/foodtree.com\/sources\/24021","urltitle:moreinfo":"Please visit Scholten Farm on Foodtree","address":" Weybridge, Vermont, USA","title":"Scholten Farm"}},{"type":"Feature","geometry":{"type":"Point","coordinates":[-73.273505,44.831143]},"properties":{"url:moreinfo":"http:\/\/foodtree.com\/sources\/24011","urltitle:moreinfo":"Please visit Savage Gardens on Foodtree","address":" N Hero, Vermont, USA","title":"Savage Gardens"}},{"type":"Feature","geometry":{"type":"Point","coordinates":[-72.320833,43.948333]},"properties":{"url:moreinfo":"http:\/\/foodtree.com\/sources\/24001","urltitle:moreinfo":"Please visit SandBhreagh Farm on Foodtree","address":" Vershire, Vermont, USA","title":"SandBhreagh Farm"}},{"type":"Feature","geometry":{"type":"Point","coordinates":[-72.488056,43.9]},"properties":{"url:moreinfo":"http:\/\/foodtree.com\/sources\/23991","urltitle:moreinfo":"Please visit Russell's Gore Farm on Foodtree","address":" Tunbridge, Vermont, USA","title":"Russell's Gore Farm"}},{"type":"Feature","geometry":{"type":"Point","coordinates":[-72.987346,44.325351]},"properties":{"url:moreinfo":"http:\/\/foodtree.com\/sources\/23981","urltitle:moreinfo":"Please visit Runnin' Sap Maple Sugar Works on Foodtree","address":" Huntington, Vermont, USA","title":"Runnin' Sap Maple Sugar Works"}},{"type":"Feature","geometry":{"type":"Point","coordinates":[-73.21083,43.96083]},"properties":{"url:moreinfo":"http:\/\/foodtree.com\/sources\/23971","urltitle:moreinfo":"Please visit Rowe Crest Farm on Foodtree","address":" Cornwall, Vermont, USA","title":"Rowe Crest Farm"}},{"type":"Feature","geometry":{"type":"Point","coordinates":[-72.399831,44.99449]},"properties":{"url:moreinfo":"http:\/\/foodtree.com\/sources\/23961","urltitle:moreinfo":"Please visit Round Top Farms on Foodtree","address":" N Troy, Vermont, USA","title":"Round Top Farms"}},{"type":"Feature","geometry":{"type":"Point","coordinates":[-72.003151,44.533667]},"properties":{"url:moreinfo":"http:\/\/foodtree.com\/sources\/23951","urltitle:moreinfo":"Please visit Round Barn Angus on Foodtree","address":" Lyndonville, Vermont, USA","title":"Round Barn Angus"}},{"type":"Feature","geometry":{"type":"Point","coordinates":[-72.598449,44.561719]},"properties":{"url:moreinfo":"http:\/\/foodtree.com\/sources\/23941","urltitle:moreinfo":"Please visit Rooney Farm CSA on Foodtree","address":" Morrisville, Vermont, USA","title":"Rooney Farm CSA"}},{"type":"Feature","geometry":{"type":"Point","coordinates":[-72.598449,44.561719]},"properties":{"url:moreinfo":"http:\/\/foodtree.com\/sources\/23931","urltitle:moreinfo":"Please visit Rooney Farm on Foodtree","address":" Morrisville, Vermont, USA","title":"Rooney Farm"}},{"type":"Feature","geometry":{"type":"Point","coordinates":[-73.15222,44.81028]},"properties":{"url:moreinfo":"http:\/\/foodtree.com\/sources\/23921","urltitle:moreinfo":"Please visit Rockledge Maple Trust on Foodtree","address":" St Albans, Vermont, USA","title":"Rockledge Maple Trust"}},{"type":"Feature","geometry":{"type":"Point","coordinates":[-72.377873,43.866457]},"properties":{"url:moreinfo":"http:\/\/foodtree.com\/sources\/23911","urltitle:moreinfo":"Please visit Rock Bottom Dairy on Foodtree","address":" Strafford, Vermont, USA","title":"Rock Bottom Dairy"}},{"type":"Feature","geometry":{"type":"Point","coordinates":[-73.110391,44.63974]},"properties":{"url:moreinfo":"http:\/\/foodtree.com\/sources\/23901","urltitle:moreinfo":"Please visit Robinson Ranch on Foodtree","address":" Milton, Vermont, USA","title":"Robinson Ranch"}},{"type":"Feature","geometry":{"type":"Point","coordinates":[-72.28,44.80333]},"properties":{"url:moreinfo":"http:\/\/foodtree.com\/sources\/23891","urltitle:moreinfo":"Please visit Robillard Flats Farm Inc on Foodtree","address":" Irasburg, Vermont, USA","title":"Robillard Flats Farm Inc"}},{"type":"Feature","geometry":{"type":"Point","coordinates":[-72.923889,44.535833]},"properties":{"url:moreinfo":"http:\/\/foodtree.com\/sources\/23881","urltitle:moreinfo":"Please visit RM Hill on Foodtree","address":" Underhill, Vermont, USA","title":"RM Hill"}},{"type":"Feature","geometry":{"type":"Point","coordinates":[-72.30917,44.52167]},"properties":{"url:moreinfo":"http:\/\/foodtree.com\/sources\/23871","urltitle:moreinfo":"Please visit Riverside Farm on Foodtree","address":" E Hardwick, Vermont, USA","title":"Riverside Farm"}},{"type":"Feature","geometry":{"type":"Point","coordinates":[-73.01032,44.665496]},"properties":{"url:moreinfo":"http:\/\/foodtree.com\/sources\/9667","urltitle:moreinfo":"Please visit River Berry Farm on Foodtree","address":"191 Goose Pond Road,  Fairfax, Vermont, USA, 05454","title":"River Berry Farm"}},{"type":"Feature","geometry":{"type":"Point","coordinates":[-72.926389,44.814444]},"properties":{"url:moreinfo":"http:\/\/foodtree.com\/sources\/23861","urltitle:moreinfo":"Please visit Ridgeview Farm on Foodtree","address":" Fairfield, Vermont, USA","title":"Ridgeview Farm"}},{"type":"Feature","geometry":{"type":"Point","coordinates":[-72.917532,44.982355]},"properties":{"url:moreinfo":"http:\/\/foodtree.com\/sources\/23851","urltitle:moreinfo":"Please visit Rick's Sugar House on Foodtree","address":" Franklin, Vermont, USA","title":"Rick's Sugar House"}},{"type":"Feature","geometry":{"type":"Point","coordinates":[-72.28,44.80333]},"properties":{"url:moreinfo":"http:\/\/foodtree.com\/sources\/23841","urltitle:moreinfo":"Please visit Richardson's Maple Syrup on Foodtree","address":" Irasburg, Vermont, USA","title":"Richardson's Maple Syrup"}},{"type":"Feature","geometry":{"type":"Point","coordinates":[-73.124344,44.918088]},"properties":{"url:moreinfo":"http:\/\/foodtree.com\/sources\/23831","urltitle:moreinfo":"Please visit Rene J Fournier & Sons Farm Inc. on Foodtree","address":" Swanton, Vermont, USA","title":"Rene J Fournier & Sons Farm Inc."}},{"type":"Feature","geometry":{"type":"Point","coordinates":[-73.0925,44.332222]},"properties":{"url:moreinfo":"http:\/\/foodtree.com\/sources\/23821","urltitle:moreinfo":"Please visit Red Wagon Plants on Foodtree","address":" Hinesburg, Vermont, USA","title":"Red Wagon Plants"}},{"type":"Feature","geometry":{"type":"Point","coordinates":[-73.351164,43.987374]},"properties":{"url:moreinfo":"http:\/\/foodtree.com\/sources\/23801","urltitle:moreinfo":"Please visit Red Gates Farm on Foodtree","address":" Bridport, Vermont, USA","title":"Red Gates Farm"}},{"type":"Feature","geometry":{"type":"Point","coordinates":[-72.061204,44.205062]},"properties":{"url:moreinfo":"http:\/\/foodtree.com\/sources\/23791","urltitle:moreinfo":"Please visit Red Gate Farm on Foodtree","address":" E Ryegate, Vermont, USA","title":"Red Gate Farm"}},{"type":"Feature","geometry":{"type":"Point","coordinates":[-72.399831,44.99449]},"properties":{"url:moreinfo":"http:\/\/foodtree.com\/sources\/23781","urltitle:moreinfo":"Please visit Red Clover Ridge Dairy on Foodtree","address":" N Troy, Vermont, USA","title":"Red Clover Ridge Dairy"}},{"type":"Feature","geometry":{"type":"Point","coordinates":[-72.446667,44.866667]},"properties":{"url:moreinfo":"http:\/\/foodtree.com\/sources\/23771","urltitle:moreinfo":"Please visit Randall View Farm on Foodtree","address":" Westfield, Vermont, USA","title":"Randall View Farm"}},{"type":"Feature","geometry":{"type":"Point","coordinates":[-72.399831,44.99449]},"properties":{"url:moreinfo":"http:\/\/foodtree.com\/sources\/23761","urltitle:moreinfo":"Please visit Rainy Day Farm on Foodtree","address":" N Troy, Vermont, USA","title":"Rainy Day Farm"}},{"type":"Feature","geometry":{"type":"Point","coordinates":[-72.029167,44.654167]},"properties":{"url:moreinfo":"http:\/\/foodtree.com\/sources\/23751","urltitle:moreinfo":"Please visit Rainbow's Edge Farm on Foodtree","address":" Sutton, Vermont, USA","title":"Rainbow's Edge Farm"}},{"type":"Feature","geometry":{"type":"Point","coordinates":[-73.043889,44.938889]},"properties":{"url:moreinfo":"http:\/\/foodtree.com\/sources\/23741","urltitle:moreinfo":"Please visit Rainbow View Dairy on Foodtree","address":" Highgate Ctr, Vermont, USA","title":"Rainbow View Dairy"}},{"type":"Feature","geometry":{"type":"Point","coordinates":[-72.85889,44.78444]},"properties":{"url:moreinfo":"http:\/\/foodtree.com\/sources\/23731","urltitle:moreinfo":"Please visit R & M Gillilan Sugarworks on Foodtree","address":" E Fairfield, Vermont, USA","title":"R & M Gillilan Sugarworks"}},{"type":"Feature","geometry":{"type":"Point","coordinates":[-72.205102,44.936436]},"properties":{"url:moreinfo":"http:\/\/foodtree.com\/sources\/23721","urltitle:moreinfo":"Please visit Quiros Family Farm on Foodtree","address":" Newport, Vermont, USA","title":"Quiros Family Farm"}},{"type":"Feature","geometry":{"type":"Point","coordinates":[-72.829295,44.643939]},"properties":{"url:moreinfo":"http:\/\/foodtree.com\/sources\/23711","urltitle:moreinfo":"Please visit Quarry Hill Farm on Foodtree","address":" Jeffersonville, Vermont, USA","title":"Quarry Hill Farm"}},{"type":"Feature","geometry":{"type":"Point","coordinates":[-72.517222,43.000278]},"properties":{"url:moreinfo":"http:\/\/foodtree.com\/sources\/23701","urltitle:moreinfo":"Please visit Putney Brook Farm\/ Org Solutions on Foodtree","address":" Putney, Vermont, USA","title":"Putney Brook Farm\/ Org Solutions"}},{"type":"Feature","geometry":{"type":"Point","coordinates":[-73.890008,40.688485]},"properties":{"url:moreinfo":"http:\/\/foodtree.com\/sources\/23691","urltitle:moreinfo":"Please visit Purely Elizabeth on Foodtree","address":" New York, Vermont, USA","title":"Purely Elizabeth"}},{"type":"Feature","geometry":{"type":"Point","coordinates":[-72.967621,44.297]},"properties":{"url:moreinfo":"http:\/\/foodtree.com\/sources\/23681","urltitle:moreinfo":"Please visit Pleasant Mount Farm on Foodtree","address":" Huntington Ctr, Vermont, USA","title":"Pleasant Mount Farm"}},{"type":"Feature","geometry":{"type":"Point","coordinates":[-72.926389,44.814444]},"properties":{"url:moreinfo":"http:\/\/foodtree.com\/sources\/23671","urltitle:moreinfo":"Please visit Playful Shady Maples Inc on Foodtree","address":" Fairfield, Vermont, USA","title":"Playful Shady Maples Inc"}},{"type":"Feature","geometry":{"type":"Point","coordinates":[-73.212072,44.475883]},"properties":{"url:moreinfo":"http:\/\/foodtree.com\/sources\/9692","urltitle:moreinfo":"Please visit Pitchfork Farm on Foodtree","address":"26 Rose Street,  Burlington, Vermont, USA, 05401","title":"Pitchfork Farm"}},{"type":"Feature","geometry":{"type":"Point","coordinates":[-72.607603,43.940899]},"properties":{"url:moreinfo":"http:\/\/foodtree.com\/sources\/23661","urltitle:moreinfo":"Please visit Pineville Farm on Foodtree","address":" Randolph Ctr, Vermont, USA","title":"Pineville Farm"}},{"type":"Feature","geometry":{"type":"Point","coordinates":[-72.671302,44.996996]},"properties":{"url:moreinfo":"http:\/\/foodtree.com\/sources\/23651","urltitle:moreinfo":"Please visit Perley Farm on Foodtree","address":" Richford, Vermont, USA","title":"Perley Farm"}},{"type":"Feature","geometry":{"type":"Point","coordinates":[-73.297894,43.80395]},"properties":{"url:moreinfo":"http:\/\/foodtree.com\/sources\/23641","urltitle:moreinfo":"Please visit Pepper Lane Farm on Foodtree","address":" Orwell, Vermont, USA","title":"Pepper Lane Farm"}},{"type":"Feature","geometry":{"type":"Point","coordinates":[-72.607603,43.940899]},"properties":{"url:moreinfo":"http:\/\/foodtree.com\/sources\/23631","urltitle:moreinfo":"Please visit Pembrook Heritage Farm on Foodtree","address":" Randolph Ctr, Vermont, USA","title":"Pembrook Heritage Farm"}},{"type":"Feature","geometry":{"type":"Point","coordinates":[-72.672051,44.020897]},"properties":{"url:moreinfo":"http:\/\/foodtree.com\/sources\/23621","urltitle:moreinfo":"Please visit Pebble Brook Farm on Foodtree","address":" W Brookfield, Vermont, USA","title":"Pebble Brook Farm"}},{"type":"Feature","geometry":{"type":"Point","coordinates":[-72.797778,44.788333]},"properties":{"url:moreinfo":"http:\/\/foodtree.com\/sources\/23611","urltitle:moreinfo":"Please visit Peaked Hill View Farm on Foodtree","address":" Bakersfield, Vermont, USA","title":"Peaked Hill View Farm"}},{"type":"Feature","geometry":{"type":"Point","coordinates":[-73.254011,44.167277]},"properties":{"url:moreinfo":"http:\/\/foodtree.com\/sources\/23601","urltitle:moreinfo":"Please visit Pasture View Farm on Foodtree","address":" Vergennes, Vermont, USA","title":"Pasture View Farm"}},{"type":"Feature","geometry":{"type":"Point","coordinates":[-73.254011,44.167277]},"properties":{"url:moreinfo":"http:\/\/foodtree.com\/sources\/23591","urltitle:moreinfo":"Please visit Parkinson Farm on Foodtree","address":" Vergennes, Vermont, USA","title":"Parkinson Farm"}},{"type":"Feature","geometry":{"type":"Point","coordinates":[-73.297894,43.80395]},"properties":{"url:moreinfo":"http:\/\/foodtree.com\/sources\/23581","urltitle:moreinfo":"Please visit Park Place Farm on Foodtree","address":" Orwell, Vermont, USA","title":"Park Place Farm"}},{"type":"Feature","geometry":{"type":"Point","coordinates":[-72.399831,44.99449]},"properties":{"url:moreinfo":"http:\/\/foodtree.com\/sources\/23571","urltitle:moreinfo":"Please visit Paddlebridge Holsteins on Foodtree","address":" N Troy, Vermont, USA","title":"Paddlebridge Holsteins"}},{"type":"Feature","geometry":{"type":"Point","coordinates":[-72.709299,44.935324]},"properties":{"url:moreinfo":"http:\/\/foodtree.com\/sources\/23561","urltitle:moreinfo":"Please visit Ox Pasture Maples on Foodtree","address":" E Berkshire, Vermont, USA","title":"Ox Pasture Maples"}},{"type":"Feature","geometry":{"type":"Point","coordinates":[-73.01032,44.665496]},"properties":{"url:moreinfo":"http:\/\/foodtree.com\/sources\/23551","urltitle:moreinfo":"Please visit Ovitt Sugarhouse on Foodtree","address":" Fairfax, Vermont, USA","title":"Ovitt Sugarhouse"}},{"type":"Feature","geometry":{"type":"Point","coordinates":[-73.15222,44.81028]},"properties":{"url:moreinfo":"http:\/\/foodtree.com\/sources\/23541","urltitle:moreinfo":"Please visit Over-the-Hill Organic Farm on Foodtree","address":" St Albans, Vermont, USA","title":"Over-the-Hill Organic Farm"}},{"type":"Feature","geometry":{"type":"Point","coordinates":[-73.311225,43.707008]},"properties":{"url:moreinfo":"http:\/\/foodtree.com\/sources\/10022","urltitle:moreinfo":"Please visit Over the Hill Farm on Foodtree","address":"502 Stage Rd ,  Benson, Vermont, USA, 05743","title":"Over the Hill Farm"}},{"type":"Feature","geometry":{"type":"Point","coordinates":[-72.462778,43.989444]},"properties":{"url:moreinfo":"http:\/\/foodtree.com\/sources\/23531","urltitle:moreinfo":"Please visit Oughta-Be Farm on Foodtree","address":" Chelsea, Vermont, USA","title":"Oughta-Be Farm"}},{"type":"Feature","geometry":{"type":"Point","coordinates":[-73.167351,44.015329]},"properties":{"url:moreinfo":"http:\/\/foodtree.com\/sources\/23521","urltitle:moreinfo":"Please visit Otter Creek Brewing on Foodtree","address":" Middlebury, Vermont, USA","title":"Otter Creek Brewing"}},{"type":"Feature","geometry":{"type":"Point","coordinates":[-72.524596,44.534984]},"properties":{"url:moreinfo":"http:\/\/foodtree.com\/sources\/23511","urltitle:moreinfo":"Please visit Osborne Family Maple on Foodtree","address":" Lake Elmore, Vermont, USA","title":"Osborne Family Maple"}},{"type":"Feature","geometry":{"type":"Point","coordinates":[-72.532316,43.565626]},"properties":{"url:moreinfo":"http:\/\/foodtree.com\/sources\/23501","urltitle:moreinfo":"Please visit Orchard Hill Farm on Foodtree","address":" S Woodstock, Vermont, USA","title":"Orchard Hill Farm"}},{"type":"Feature","geometry":{"type":"Point","coordinates":[-73.153571,44.124328]},"properties":{"url:moreinfo":"http:\/\/foodtree.com\/sources\/13421","urltitle:moreinfo":"Please visit Orb Weaver Farm on Foodtree","address":"3406 Lime Kiln Road,  New Haven, Vermont, USA, 05472","title":"Orb Weaver Farm"}},{"type":"Feature","geometry":{"type":"Point","coordinates":[-73.098889,43.869722]},"properties":{"url:moreinfo":"http:\/\/foodtree.com\/sources\/23491","urltitle:moreinfo":"Please visit Oliver Hill Farm on Foodtree","address":" Leicester, Vermont, USA","title":"Oliver Hill Farm"}},{"type":"Feature","geometry":{"type":"Point","coordinates":[-73.260993,44.309848]},"properties":{"url:moreinfo":"http:\/\/foodtree.com\/sources\/23481","urltitle:moreinfo":"Please visit Olde Carriage Sugarwoods on Foodtree","address":" Charlotte, Vermont, USA","title":"Olde Carriage Sugarwoods"}},{"type":"Feature","geometry":{"type":"Point","coordinates":[-73.200393,43.86395]},"properties":{"url:moreinfo":"http:\/\/foodtree.com\/sources\/23471","urltitle:moreinfo":"Please visit Old Wooster Farm on Foodtree","address":" Whiting, Vermont, USA","title":"Old Wooster Farm"}},{"type":"Feature","geometry":{"type":"Point","coordinates":[-72.446667,44.866667]},"properties":{"url:moreinfo":"http:\/\/foodtree.com\/sources\/23461","urltitle:moreinfo":"Please visit O'Donnell Farm on Foodtree","address":" Westfield, Vermont, USA","title":"O'Donnell Farm"}},{"type":"Feature","geometry":{"type":"Point","coordinates":[-73.224722,44.389722]},"properties":{"url:moreinfo":"http:\/\/foodtree.com\/sources\/23451","urltitle:moreinfo":"Please visit O Bread Bakery on Foodtree","address":" Shelburne, Vermont, USA","title":"O Bread Bakery"}},{"type":"Feature","geometry":{"type":"Point","coordinates":[-72.134167,44.825556]},"properties":{"url:moreinfo":"http:\/\/foodtree.com\/sources\/23441","urltitle:moreinfo":"Please visit Notchview Farm on Foodtree","address":" Brownington, Vermont, USA","title":"Notchview Farm"}},{"type":"Feature","geometry":{"type":"Point","coordinates":[-72.306494,44.95088]},"properties":{"url:moreinfo":"http:\/\/foodtree.com\/sources\/23431","urltitle:moreinfo":"Please visit Northeast Kingdom Garlic on Foodtree","address":" Newport Ctr, Vermont, USA","title":"Northeast Kingdom Garlic"}},{"type":"Feature","geometry":{"type":"Point","coordinates":[-72.306494,44.95088]},"properties":{"url:moreinfo":"http:\/\/foodtree.com\/sources\/23421","urltitle:moreinfo":"Please visit Northeast Farm on Foodtree","address":" Newport Ctr, Vermont, USA","title":"Northeast Farm"}},{"type":"Feature","geometry":{"type":"Point","coordinates":[-72.349722,44.518056]},"properties":{"url:moreinfo":"http:\/\/foodtree.com\/sources\/23411","urltitle:moreinfo":"Please visit North Hardwick Dairy LLC on Foodtree","address":" Hardwick, Vermont, USA","title":"North Hardwick Dairy LLC"}},{"type":"Feature","geometry":{"type":"Point","coordinates":[-72.223992,44.728383]},"properties":{"url:moreinfo":"http:\/\/foodtree.com\/sources\/23401","urltitle:moreinfo":"Please visit North Country Farm LLC on Foodtree","address":" W Glover, Vermont, USA","title":"North Country Farm LLC"}},{"type":"Feature","geometry":{"type":"Point","coordinates":[-73.124344,44.918088]},"properties":{"url:moreinfo":"http:\/\/foodtree.com\/sources\/23391","urltitle:moreinfo":"Please visit Normand R.  Lussier Farm on Foodtree","address":" Swanton, Vermont, USA","title":"Normand R.  Lussier Farm"}},{"type":"Feature","geometry":{"type":"Point","coordinates":[-73.015556,43.981667]},"properties":{"url:moreinfo":"http:\/\/foodtree.com\/sources\/23381","urltitle:moreinfo":"Please visit Nola's Secret Gardens on Foodtree","address":" Ripton, Vermont, USA","title":"Nola's Secret Gardens"}},{"type":"Feature","geometry":{"type":"Point","coordinates":[-72.176258,44.748081]},"properties":{"url:moreinfo":"http:\/\/foodtree.com\/sources\/23371","urltitle:moreinfo":"Please visit New Venture Farm on Foodtree","address":" Barton, Vermont, USA","title":"New Venture Farm"}},{"type":"Feature","geometry":{"type":"Point","coordinates":[-73.078928,44.133377]},"properties":{"url:moreinfo":"http:\/\/foodtree.com\/sources\/23361","urltitle:moreinfo":"Please visit New Leaf Organics on Foodtree","address":" Bristol, Vermont, USA","title":"New Leaf Organics"}},{"type":"Feature","geometry":{"type":"Point","coordinates":[-72.926389,44.814444]},"properties":{"url:moreinfo":"http:\/\/foodtree.com\/sources\/23351","urltitle:moreinfo":"Please visit Nestle Nook Farm on Foodtree","address":" Fairfield, Vermont, USA","title":"Nestle Nook Farm"}},{"type":"Feature","geometry":{"type":"Point","coordinates":[-73.087648,43.798157]},"properties":{"url:moreinfo":"http:\/\/foodtree.com\/sources\/23341","urltitle:moreinfo":"Please visit Neshobe Farm on Foodtree","address":" Brandon, Vermont, USA","title":"Neshobe Farm"}},{"type":"Feature","geometry":{"type":"Point","coordinates":[-72.607603,43.940899]},"properties":{"url:moreinfo":"http:\/\/foodtree.com\/sources\/23331","urltitle:moreinfo":"Please visit Neighborly Farms on Foodtree","address":" Randolph Ctr, Vermont, USA","title":"Neighborly Farms"}},{"type":"Feature","geometry":{"type":"Point","coordinates":[-73.0925,44.332222]},"properties":{"url:moreinfo":"http:\/\/foodtree.com\/sources\/23321","urltitle:moreinfo":"Please visit Needham Family Farm on Foodtree","address":" Hinesburg, Vermont, USA","title":"Needham Family Farm"}},{"type":"Feature","geometry":{"type":"Point","coordinates":[-72.68036,44.635583]},"properties":{"url:moreinfo":"http:\/\/foodtree.com\/sources\/23311","urltitle:moreinfo":"Please visit Naylor Family Farm on Foodtree","address":" Johnson, Vermont, USA","title":"Naylor Family Farm"}},{"type":"Feature","geometry":{"type":"Point","coordinates":[-73.297894,43.80395]},"properties":{"url:moreinfo":"http:\/\/foodtree.com\/sources\/23301","urltitle:moreinfo":"Please visit Mt Independence Farm on Foodtree","address":" Orwell, Vermont, USA","title":"Mt Independence Farm"}},{"type":"Feature","geometry":{"type":"Point","coordinates":[-73.015556,43.981667]},"properties":{"url:moreinfo":"http:\/\/foodtree.com\/sources\/23291","urltitle:moreinfo":"Please visit Mountainyard Farm on Foodtree","address":" Ripton, Vermont, USA","title":"Mountainyard Farm"}},{"type":"Feature","geometry":{"type":"Point","coordinates":[-72.987346,44.325351]},"properties":{"url:moreinfo":"http:\/\/foodtree.com\/sources\/23281","urltitle:moreinfo":"Please visit Mountainside Maple on Foodtree","address":" Huntington, Vermont, USA","title":"Mountainside Maple"}},{"type":"Feature","geometry":{"type":"Point","coordinates":[-72.926389,44.814444]},"properties":{"url:moreinfo":"http:\/\/foodtree.com\/sources\/23271","urltitle:moreinfo":"Please visit Mountain View Farm on Foodtree","address":" Fairfield, Vermont, USA","title":"Mountain View Farm"}},{"type":"Feature","geometry":{"type":"Point","coordinates":[-72.829295,44.643939]},"properties":{"url:moreinfo":"http:\/\/foodtree.com\/sources\/23261","urltitle:moreinfo":"Please visit Mountain Road Farm on Foodtree","address":" Jeffersonville, Vermont, USA","title":"Mountain Road Farm"}},{"type":"Feature","geometry":{"type":"Point","coordinates":[-72.705371,42.938136]},"properties":{"url:moreinfo":"http:\/\/foodtree.com\/sources\/23251","urltitle:moreinfo":"Please visit Mountain Meadows Farm on Foodtree","address":" S Newfane, Vermont, USA","title":"Mountain Meadows Farm"}},{"type":"Feature","geometry":{"type":"Point","coordinates":[-73.21083,43.96083]},"properties":{"url:moreinfo":"http:\/\/foodtree.com\/sources\/23241","urltitle:moreinfo":"Please visit Mountain Meadows on Foodtree","address":" Cornwall, Vermont, USA","title":"Mountain Meadows"}},{"type":"Feature","geometry":{"type":"Point","coordinates":[-71.965285,44.558744]},"properties":{"url:moreinfo":"http:\/\/foodtree.com\/sources\/23231","urltitle:moreinfo":"Please visit Mount Hunger Jerseys on Foodtree","address":" E Burke, Vermont, USA","title":"Mount Hunger Jerseys"}},{"type":"Feature","geometry":{"type":"Point","coordinates":[-72.049378,44.296832]},"properties":{"url:moreinfo":"http:\/\/foodtree.com\/sources\/23221","urltitle:moreinfo":"Please visit Morrison's Custom Feeds on Foodtree","address":" Barnet, Vermont, USA","title":"Morrison's Custom Feeds"}},{"type":"Feature","geometry":{"type":"Point","coordinates":[-72.186977,44.706904]},"properties":{"url:moreinfo":"http:\/\/foodtree.com\/sources\/23211","urltitle:moreinfo":"Please visit Morningstar Meadow Farm on Foodtree","address":" Glover, Vermont, USA","title":"Morningstar Meadow Farm"}},{"type":"Feature","geometry":{"type":"Point","coordinates":[-73.315952,43.893671]},"properties":{"url:moreinfo":"http:\/\/foodtree.com\/sources\/23201","urltitle:moreinfo":"Please visit Morningside Farm on Foodtree","address":" Shoreham, Vermont, USA","title":"Morningside Farm"}},{"type":"Feature","geometry":{"type":"Point","coordinates":[-73.061499,43.716455]},"properties":{"url:moreinfo":"http:\/\/foodtree.com\/sources\/23191","urltitle:moreinfo":"Please visit Morning Meadows Farm on Foodtree","address":" Florence, Vermont, USA","title":"Morning Meadows Farm"}},{"type":"Feature","geometry":{"type":"Point","coordinates":[-72.06,44.89889]},"properties":{"url:moreinfo":"http:\/\/foodtree.com\/sources\/23181","urltitle:moreinfo":"Please visit Morin Farm on Foodtree","address":" W Charleston, Vermont, USA","title":"Morin Farm"}},{"type":"Feature","geometry":{"type":"Point","coordinates":[-72.170405,44.328617]},"properties":{"url:moreinfo":"http:\/\/foodtree.com\/sources\/23171","urltitle:moreinfo":"Please visit Mooreland Farm on Foodtree","address":" Peacham, Vermont, USA","title":"Mooreland Farm"}},{"type":"Feature","geometry":{"type":"Point","coordinates":[-72.557862,42.850935]},"properties":{"url:moreinfo":"http:\/\/foodtree.com\/sources\/23161","urltitle:moreinfo":"Please visit Mocha Joe's Roasting Company on Foodtree","address":" Brattleboro, Vermont, USA","title":"Mocha Joe's Roasting Company"}},{"type":"Feature","geometry":{"type":"Point","coordinates":[-72.134167,44.825556]},"properties":{"url:moreinfo":"http:\/\/foodtree.com\/sources\/23151","urltitle:moreinfo":"Please visit Misty Meadows on Foodtree","address":" Brownington, Vermont, USA","title":"Misty Meadows"}},{"type":"Feature","geometry":{"type":"Point","coordinates":[-72.876277,44.644772]},"properties":{"url:moreinfo":"http:\/\/foodtree.com\/sources\/23141","urltitle:moreinfo":"Please visit Minor Family Maple on Foodtree","address":" Cambridge, Vermont, USA","title":"Minor Family Maple"}},{"type":"Feature","geometry":{"type":"Point","coordinates":[-72.519167,42.768333]},"properties":{"url:moreinfo":"http:\/\/foodtree.com\/sources\/23131","urltitle:moreinfo":"Please visit Miller Farm on Foodtree","address":" Vernon, Vermont, USA","title":"Miller Farm"}},{"type":"Feature","geometry":{"type":"Point","coordinates":[-73.045108,43.593092]},"properties":{"url:moreinfo":"http:\/\/foodtree.com\/sources\/23121","urltitle:moreinfo":"Please visit Milky Way Organic Farm on Foodtree","address":" W Rutland, Vermont, USA","title":"Milky Way Organic Farm"}},{"type":"Feature","geometry":{"type":"Point","coordinates":[-73.370833,44.066944]},"properties":{"url:moreinfo":"http:\/\/foodtree.com\/sources\/23111","urltitle:moreinfo":"Please visit Mike's Farm on Foodtree","address":" Addison, Vermont, USA","title":"Mike's Farm"}},{"type":"Feature","geometry":{"type":"Point","coordinates":[-73.226946,42.792313]},"properties":{"url:moreinfo":"http:\/\/foodtree.com\/sources\/23101","urltitle:moreinfo":"Please visit Mighty Food Farm on Foodtree","address":" Pownal, Vermont, USA","title":"Mighty Food Farm"}},{"type":"Feature","geometry":{"type":"Point","coordinates":[-73.235,44.144167]},"properties":{"url:moreinfo":"http:\/\/foodtree.com\/sources\/23091","urltitle:moreinfo":"Please visit Miedema Farm\/Tandom Farm on Foodtree","address":" Waltham, Vermont, USA","title":"Miedema Farm\/Tandom Farm"}},{"type":"Feature","geometry":{"type":"Point","coordinates":[-72.30917,44.52167]},"properties":{"url:moreinfo":"http:\/\/foodtree.com\/sources\/23081","urltitle:moreinfo":"Please visit Michaud Maple on Foodtree","address":" E Hardwick, Vermont, USA","title":"Michaud Maple"}},{"type":"Feature","geometry":{"type":"Point","coordinates":[-72.121759,44.103953]},"properties":{"url:moreinfo":"http:\/\/foodtree.com\/sources\/23071","urltitle:moreinfo":"Please visit Meyette Farm on Foodtree","address":" Newbury, Vermont, USA","title":"Meyette Farm"}},{"type":"Feature","geometry":{"type":"Point","coordinates":[-73.188056,43.273333]},"properties":{"url:moreinfo":"http:\/\/foodtree.com\/sources\/23061","urltitle:moreinfo":"Please visit Merck Forest & Farmland Center on Foodtree","address":" Rupert, Vermont, USA","title":"Merck Forest & Farmland Center"}},{"type":"Feature","geometry":{"type":"Point","coordinates":[-72.926389,44.814444]},"properties":{"url:moreinfo":"http:\/\/foodtree.com\/sources\/23051","urltitle:moreinfo":"Please visit Menard's Center Farm on Foodtree","address":" Fairfield, Vermont, USA","title":"Menard's Center Farm"}},{"type":"Feature","geometry":{"type":"Point","coordinates":[-72.403081,44.148376]},"properties":{"url:moreinfo":"http:\/\/foodtree.com\/sources\/23041","urltitle:moreinfo":"Please visit Meadow View Farm on Foodtree","address":" Orange, Vermont, USA","title":"Meadow View Farm"}},{"type":"Feature","geometry":{"type":"Point","coordinates":[-72.28,44.80333]},"properties":{"url:moreinfo":"http:\/\/foodtree.com\/sources\/23031","urltitle:moreinfo":"Please visit Meadow Brook Farm on Foodtree","address":" Irasburg, Vermont, USA","title":"Meadow Brook Farm"}},{"type":"Feature","geometry":{"type":"Point","coordinates":[-72.503056,44.287222]},"properties":{"url:moreinfo":"http:\/\/foodtree.com\/sources\/23021","urltitle:moreinfo":"Please visit McKnight Farm on Foodtree","address":" E Montpelier, Vermont, USA","title":"McKnight Farm"}},{"type":"Feature","geometry":{"type":"Point","coordinates":[-72.454171,43.785234]},"properties":{"url:moreinfo":"http:\/\/foodtree.com\/sources\/23011","urltitle:moreinfo":"Please visit Maverick Farm on Foodtree","address":" Sharon, Vermont, USA","title":"Maverick Farm"}},{"type":"Feature","geometry":{"type":"Point","coordinates":[-72.28,44.80333]},"properties":{"url:moreinfo":"http:\/\/foodtree.com\/sources\/23001","urltitle:moreinfo":"Please visit Masonview Farm on Foodtree","address":" Irasburg, Vermont, USA","title":"Masonview Farm"}},{"type":"Feature","geometry":{"type":"Point","coordinates":[-73.124344,44.918088]},"properties":{"url:moreinfo":"http:\/\/foodtree.com\/sources\/22991","urltitle:moreinfo":"Please visit Marydale Farm on Foodtree","address":" Swanton, Vermont, USA","title":"Marydale Farm"}},{"type":"Feature","geometry":{"type":"Point","coordinates":[-72.306494,44.95088]},"properties":{"url:moreinfo":"http:\/\/foodtree.com\/sources\/22981","urltitle:moreinfo":"Please visit Marquis Organic Dairy on Foodtree","address":" Newport Ctr, Vermont, USA","title":"Marquis Organic Dairy"}},{"type":"Feature","geometry":{"type":"Point","coordinates":[-72.260347,44.890551]},"properties":{"url:moreinfo":"http:\/\/foodtree.com\/sources\/22971","urltitle:moreinfo":"Please visit Mar-Jo Acres on Foodtree","address":" Orleans, Vermont, USA","title":"Mar-Jo Acres"}},{"type":"Feature","geometry":{"type":"Point","coordinates":[-73.167351,44.015329]},"properties":{"url:moreinfo":"http:\/\/foodtree.com\/sources\/22961","urltitle:moreinfo":"Please visit Marble Rose Farm on Foodtree","address":" Middlebury, Vermont, USA","title":"Marble Rose Farm"}},{"type":"Feature","geometry":{"type":"Point","coordinates":[-72.502885,44.329225]},"properties":{"url:moreinfo":"http:\/\/foodtree.com\/sources\/22951","urltitle:moreinfo":"Please visit Maplewood Farm on Foodtree","address":" Adamant, Vermont, USA","title":"Maplewood Farm"}},{"type":"Feature","geometry":{"type":"Point","coordinates":[-72.228897,44.060619]},"properties":{"url:moreinfo":"http:\/\/foodtree.com\/sources\/22941","urltitle:moreinfo":"Please visit Maplestone Farm on Foodtree","address":" E Corinth, Vermont, USA","title":"Maplestone Farm"}},{"type":"Feature","geometry":{"type":"Point","coordinates":[-72.987346,44.325351]},"properties":{"url:moreinfo":"http:\/\/foodtree.com\/sources\/9689","urltitle:moreinfo":"Please visit Maple Wind Farm on Foodtree","address":"1045 Carse Road,  Huntington, Vermont, USA, 05462","title":"Maple Wind Farm"}},{"type":"Feature","geometry":{"type":"Point","coordinates":[-73.05,43.44861]},"properties":{"url:moreinfo":"http:\/\/foodtree.com\/sources\/22931","urltitle:moreinfo":"Please visit Maple Sugar Farm on Foodtree","address":" Tinmouth, Vermont, USA","title":"Maple Sugar Farm"}},{"type":"Feature","geometry":{"type":"Point","coordinates":[-73.297894,43.80395]},"properties":{"url:moreinfo":"http:\/\/foodtree.com\/sources\/7042","urltitle:moreinfo":"Please visit Maple Shade Farm on Foodtree","address":" 21695 County Road G,  Orwell, Vermont, USA, 53818","title":"Maple Shade Farm"}},{"type":"Feature","geometry":{"type":"Point","coordinates":[-72.926389,44.814444]},"properties":{"url:moreinfo":"http:\/\/foodtree.com\/sources\/22921","urltitle:moreinfo":"Please visit Maple Ridge View Farm on Foodtree","address":" Fairfield, Vermont, USA","title":"Maple Ridge View Farm"}},{"type":"Feature","geometry":{"type":"Point","coordinates":[-72.85889,44.78444]},"properties":{"url:moreinfo":"http:\/\/foodtree.com\/sources\/22911","urltitle:moreinfo":"Please visit Maple Mountain Sugarworks LLC on Foodtree","address":" E Fairfield, Vermont, USA","title":"Maple Mountain Sugarworks LLC"}},{"type":"Feature","geometry":{"type":"Point","coordinates":[-72.312302,44.401395]},"properties":{"url:moreinfo":"http:\/\/foodtree.com\/sources\/10986","urltitle:moreinfo":"Please visit Maple Lane Farm on Foodtree","address":"785 Menard Road,  Cabot, Vermont, USA, 5647","title":"Maple Lane Farm"}},{"type":"Feature","geometry":{"type":"Point","coordinates":[-72.923889,44.535833]},"properties":{"url:moreinfo":"http:\/\/foodtree.com\/sources\/22901","urltitle:moreinfo":"Please visit Maple Crest on Foodtree","address":" Underhill, Vermont, USA","title":"Maple Crest"}},{"type":"Feature","geometry":{"type":"Point","coordinates":[-72.002745,44.968408]},"properties":{"url:moreinfo":"http:\/\/foodtree.com\/sources\/22891","urltitle:moreinfo":"Please visit Maple Cedar View Farm on Foodtree","address":" Holland, Vermont, USA","title":"Maple Cedar View Farm"}},{"type":"Feature","geometry":{"type":"Point","coordinates":[-72.68036,44.635583]},"properties":{"url:moreinfo":"http:\/\/foodtree.com\/sources\/22881","urltitle:moreinfo":"Please visit Mansion House Maple Syrup on Foodtree","address":" Johnson, Vermont, USA","title":"Mansion House Maple Syrup"}},{"type":"Feature","geometry":{"type":"Point","coordinates":[-72.616519,44.593932]},"properties":{"url:moreinfo":"http:\/\/foodtree.com\/sources\/22871","urltitle:moreinfo":"Please visit Mama's Special on Foodtree","address":" Hyde Park, Vermont, USA","title":"Mama's Special"}},{"type":"Feature","geometry":{"type":"Point","coordinates":[-73.078928,44.133377]},"properties":{"url:moreinfo":"http:\/\/foodtree.com\/sources\/22861","urltitle:moreinfo":"Please visit Maggie Brook Sugarworks on Foodtree","address":" Bristol, Vermont, USA","title":"Maggie Brook Sugarworks"}},{"type":"Feature","geometry":{"type":"Point","coordinates":[-73.315952,43.893671]},"properties":{"url:moreinfo":"http:\/\/foodtree.com\/sources\/22851","urltitle:moreinfo":"Please visit Madison Dairy Farm on Foodtree","address":" Shoreham, Vermont, USA","title":"Madison Dairy Farm"}},{"type":"Feature","geometry":{"type":"Point","coordinates":[-73.177286,43.346555]},"properties":{"url:moreinfo":"http:\/\/foodtree.com\/sources\/22841","urltitle:moreinfo":"Please visit Mach's Wood Fired Pizza on Foodtree","address":" Pawlet, Vermont, USA","title":"Mach's Wood Fired Pizza"}},{"type":"Feature","geometry":{"type":"Point","coordinates":[-73.292778,44.7225]},"properties":{"url:moreinfo":"http:\/\/foodtree.com\/sources\/22831","urltitle:moreinfo":"Please visit M.R. Harvest Vegetables on Foodtree","address":" Grand Isle, Vermont, USA","title":"M.R. Harvest Vegetables"}},{"type":"Feature","geometry":{"type":"Point","coordinates":[-73.124344,44.918088]},"properties":{"url:moreinfo":"http:\/\/foodtree.com\/sources\/22821","urltitle:moreinfo":"Please visit Lussier Dairy on Foodtree","address":" Swanton, Vermont, USA","title":"Lussier Dairy"}},{"type":"Feature","geometry":{"type":"Point","coordinates":[-72.521209,43.820901]},"properties":{"url:moreinfo":"http:\/\/foodtree.com\/sources\/22811","urltitle:moreinfo":"Please visit Luna Bleu Farm on Foodtree","address":" S Royalton, Vermont, USA","title":"Luna Bleu Farm"}},{"type":"Feature","geometry":{"type":"Point","coordinates":[-73.0925,44.332222]},"properties":{"url:moreinfo":"http:\/\/foodtree.com\/sources\/22801","urltitle:moreinfo":"Please visit Love Your Mother Farm on Foodtree","address":" Hinesburg, Vermont, USA","title":"Love Your Mother Farm"}},{"type":"Feature","geometry":{"type":"Point","coordinates":[-72.806523,44.906991]},"properties":{"url:moreinfo":"http:\/\/foodtree.com\/sources\/22791","urltitle:moreinfo":"Please visit Longley Bridge Farm on Foodtree","address":" Enosburg Falls, Vermont, USA","title":"Longley Bridge Farm"}},{"type":"Feature","geometry":{"type":"Point","coordinates":[-72.188701,43.811736]},"properties":{"url:moreinfo":"http:\/\/foodtree.com\/sources\/22781","urltitle:moreinfo":"Please visit Long Wind Farm on Foodtree","address":" E Thetford, Vermont, USA","title":"Long Wind Farm"}},{"type":"Feature","geometry":{"type":"Point","coordinates":[-73.311225,43.707008]},"properties":{"url:moreinfo":"http:\/\/foodtree.com\/sources\/22771","urltitle:moreinfo":"Please visit Lone Pine Farm on Foodtree","address":" Benson, Vermont, USA","title":"Lone Pine Farm"}},{"type":"Feature","geometry":{"type":"Point","coordinates":[-72.521209,43.820901]},"properties":{"url:moreinfo":"http:\/\/foodtree.com\/sources\/22761","urltitle:moreinfo":"Please visit Lone Oak Farm on Foodtree","address":" S Royalton, Vermont, USA","title":"Lone Oak Farm"}},{"type":"Feature","geometry":{"type":"Point","coordinates":[-72.517222,43.000278]},"properties":{"url:moreinfo":"http:\/\/foodtree.com\/sources\/22751","urltitle:moreinfo":"Please visit Livewater Farm on Foodtree","address":" Putney, Vermont, USA","title":"Livewater Farm"}},{"type":"Feature","geometry":{"type":"Point","coordinates":[-72.410278,44.254444]},"properties":{"url:moreinfo":"http:\/\/foodtree.com\/sources\/22741","urltitle:moreinfo":"Please visit Littlewood Farm on Foodtree","address":" Plainfield, Vermont, USA","title":"Littlewood Farm"}},{"type":"Feature","geometry":{"type":"Point","coordinates":[-72.195099,44.409502]},"properties":{"url:moreinfo":"http:\/\/foodtree.com\/sources\/22731","urltitle:moreinfo":"Please visit Lindstrom Farm on Foodtree","address":" W Danville, Vermont, USA","title":"Lindstrom Farm"}},{"type":"Feature","geometry":{"type":"Point","coordinates":[-72.557862,42.850935]},"properties":{"url:moreinfo":"http:\/\/foodtree.com\/sources\/22721","urltitle:moreinfo":"Please visit Lilac Ridge Farm on Foodtree","address":" Brattleboro, Vermont, USA","title":"Lilac Ridge Farm"}},{"type":"Feature","geometry":{"type":"Point","coordinates":[-73.236226,43.517033]},"properties":{"url:moreinfo":"http:\/\/foodtree.com\/sources\/22711","urltitle:moreinfo":"Please visit Liberty Farm on Foodtree","address":" Poultney, Vermont, USA","title":"Liberty Farm"}},{"type":"Feature","geometry":{"type":"Point","coordinates":[-72.14009,44.411495]},"properties":{"url:moreinfo":"http:\/\/foodtree.com\/sources\/22701","urltitle:moreinfo":"Please visit Lewis Creek Jerseys Inc on Foodtree","address":" Danville, Vermont, USA","title":"Lewis Creek Jerseys Inc"}},{"type":"Feature","geometry":{"type":"Point","coordinates":[-72.205102,44.936436]},"properties":{"url:moreinfo":"http:\/\/foodtree.com\/sources\/22691","urltitle:moreinfo":"Please visit LePage's Rising Sun Farm on Foodtree","address":" Newport, Vermont, USA","title":"LePage's Rising Sun Farm"}},{"type":"Feature","geometry":{"type":"Point","coordinates":[-72.205102,44.936436]},"properties":{"url:moreinfo":"http:\/\/foodtree.com\/sources\/22681","urltitle:moreinfo":"Please visit LePage's Organic Dairy on Foodtree","address":" Newport, Vermont, USA","title":"LePage's Organic Dairy"}},{"type":"Feature","geometry":{"type":"Point","coordinates":[-73.21083,43.96083]},"properties":{"url:moreinfo":"http:\/\/foodtree.com\/sources\/22671","urltitle:moreinfo":"Please visit Lemon Fair West on Foodtree","address":" Cornwall, Vermont, USA","title":"Lemon Fair West"}},{"type":"Feature","geometry":{"type":"Point","coordinates":[-72.28,44.80333]},"properties":{"url:moreinfo":"http:\/\/foodtree.com\/sources\/22661","urltitle:moreinfo":"Please visit Lehouillier Farm on Foodtree","address":" Irasburg, Vermont, USA","title":"Lehouillier Farm"}},{"type":"Feature","geometry":{"type":"Point","coordinates":[-72.901667,44.705]},"properties":{"url:moreinfo":"http:\/\/foodtree.com\/sources\/22651","urltitle:moreinfo":"Please visit Laughing Wolf Farm on Foodtree","address":" Fletcher, Vermont, USA","title":"Laughing Wolf Farm"}},{"type":"Feature","geometry":{"type":"Point","coordinates":[-72.379167,44.658056]},"properties":{"url:moreinfo":"http:\/\/foodtree.com\/sources\/22641","urltitle:moreinfo":"Please visit Lathe Farm on Foodtree","address":" Craftsbury, Vermont, USA","title":"Lathe Farm"}},{"type":"Feature","geometry":{"type":"Point","coordinates":[-73.045108,43.593092]},"properties":{"url:moreinfo":"http:\/\/foodtree.com\/sources\/22631","urltitle:moreinfo":"Please visit Lanfear Maple Products on Foodtree","address":" W Rutland, Vermont, USA","title":"Lanfear Maple Products"}},{"type":"Feature","geometry":{"type":"Point","coordinates":[-72.06,44.89889]},"properties":{"url:moreinfo":"http:\/\/foodtree.com\/sources\/22621","urltitle:moreinfo":"Please visit Lamoureux Farm on Foodtree","address":" W Charleston, Vermont, USA","title":"Lamoureux Farm"}},{"type":"Feature","geometry":{"type":"Point","coordinates":[-72.421944,44.083333]},"properties":{"url:moreinfo":"http:\/\/foodtree.com\/sources\/22611","urltitle:moreinfo":"Please visit Lambert Farm on Foodtree","address":" Washington, Vermont, USA","title":"Lambert Farm"}},{"type":"Feature","geometry":{"type":"Point","coordinates":[-72.806523,44.906991]},"properties":{"url:moreinfo":"http:\/\/foodtree.com\/sources\/22601","urltitle:moreinfo":"Please visit Lake's End Farm on Foodtree","address":" Enosburg Falls, Vermont, USA","title":"Lake's End Farm"}},{"type":"Feature","geometry":{"type":"Point","coordinates":[-72.205102,44.936436]},"properties":{"url:moreinfo":"http:\/\/foodtree.com\/sources\/22591","urltitle:moreinfo":"Please visit Lahar's Maple Ridge on Foodtree","address":" Newport, Vermont, USA","title":"Lahar's Maple Ridge"}},{"type":"Feature","geometry":{"type":"Point","coordinates":[-72.306494,44.95088]},"properties":{"url:moreinfo":"http:\/\/foodtree.com\/sources\/22581","urltitle:moreinfo":"Please visit L & J Dairy on Foodtree","address":" Newport Ctr, Vermont, USA","title":"L & J Dairy"}},{"type":"Feature","geometry":{"type":"Point","coordinates":[-72.399831,44.99449]},"properties":{"url:moreinfo":"http:\/\/foodtree.com\/sources\/22571","urltitle:moreinfo":"Please visit Knox Ridge Holsteins on Foodtree","address":" N Troy, Vermont, USA","title":"Knox Ridge Holsteins"}},{"type":"Feature","geometry":{"type":"Point","coordinates":[-72.748889,44.714444]},"properties":{"url:moreinfo":"http:\/\/foodtree.com\/sources\/22561","urltitle:moreinfo":"Please visit Knee Deep Farm on Foodtree","address":" Waterville, Vermont, USA","title":"Knee Deep Farm"}},{"type":"Feature","geometry":{"type":"Point","coordinates":[-73.311225,43.707008]},"properties":{"url:moreinfo":"http:\/\/foodtree.com\/sources\/22551","urltitle:moreinfo":"Please visit Kingston Place on Foodtree","address":" Benson, Vermont, USA","title":"Kingston Place"}},{"type":"Feature","geometry":{"type":"Point","coordinates":[-72.446667,44.866667]},"properties":{"url:moreinfo":"http:\/\/foodtree.com\/sources\/22541","urltitle:moreinfo":"Please visit Kingdom Mountain Farm on Foodtree","address":" Westfield, Vermont, USA","title":"Kingdom Mountain Farm"}},{"type":"Feature","geometry":{"type":"Point","coordinates":[-72.786505,44.248669]},"properties":{"url:moreinfo":"http:\/\/foodtree.com\/sources\/22531","urltitle:moreinfo":"Please visit Kind Horn Farm on Foodtree","address":" S Duxbury, Vermont, USA","title":"Kind Horn Farm"}},{"type":"Feature","geometry":{"type":"Point","coordinates":[-73.211235,44.259498]},"properties":{"url:moreinfo":"http:\/\/foodtree.com\/sources\/22521","urltitle:moreinfo":"Please visit Kimball Brook Farm on Foodtree","address":" N Ferrisburg, Vermont, USA","title":"Kimball Brook Farm"}},{"type":"Feature","geometry":{"type":"Point","coordinates":[-72.06,44.89889]},"properties":{"url:moreinfo":"http:\/\/foodtree.com\/sources\/22501","urltitle:moreinfo":"Please visit Kennedy Farms on Foodtree","address":" W Charleston, Vermont, USA","title":"Kennedy Farms"}},{"type":"Feature","geometry":{"type":"Point","coordinates":[-73.124344,44.918088]},"properties":{"url:moreinfo":"http:\/\/foodtree.com\/sources\/22491","urltitle:moreinfo":"Please visit Kahwa Coffee Roasters on Foodtree","address":" Swanton, Vermont, USA","title":"Kahwa Coffee Roasters"}},{"type":"Feature","geometry":{"type":"Point","coordinates":[-72.987346,44.325351]},"properties":{"url:moreinfo":"http:\/\/foodtree.com\/sources\/22481","urltitle:moreinfo":"Please visit Jubilee Farm on Foodtree","address":" Huntington, Vermont, USA","title":"Jubilee Farm"}},{"type":"Feature","geometry":{"type":"Point","coordinates":[-72.502049,44.197006]},"properties":{"url:moreinfo":"http:\/\/foodtree.com\/sources\/22471","urltitle:moreinfo":"Please visit J-Rocky View Farm on Foodtree","address":" Barre, Vermont, USA","title":"J-Rocky View Farm"}},{"type":"Feature","geometry":{"type":"Point","coordinates":[-72.205102,44.936436]},"properties":{"url:moreinfo":"http:\/\/foodtree.com\/sources\/22461","urltitle:moreinfo":"Please visit JASA Farm on Foodtree","address":" Newport, Vermont, USA","title":"JASA Farm"}},{"type":"Feature","geometry":{"type":"Point","coordinates":[-72.598449,44.561719]},"properties":{"url:moreinfo":"http:\/\/foodtree.com\/sources\/22451","urltitle:moreinfo":"Please visit Jacob Brook Farm on Foodtree","address":" Morrisville, Vermont, USA","title":"Jacob Brook Farm"}},{"type":"Feature","geometry":{"type":"Point","coordinates":[-73.300224,44.975054]},"properties":{"url:moreinfo":"http:\/\/foodtree.com\/sources\/22441","urltitle:moreinfo":"Please visit J & M Ladd Families Farm on Foodtree","address":" Alburg, Vermont, USA","title":"J & M Ladd Families Farm"}},{"type":"Feature","geometry":{"type":"Point","coordinates":[-73.212072,44.475883]},"properties":{"url:moreinfo":"http:\/\/foodtree.com\/sources\/22431","urltitle:moreinfo":"Please visit Ismael Imports \/  Boswellnes on Foodtree","address":" Burlington, Vermont, USA","title":"Ismael Imports \/  Boswellnes"}},{"type":"Feature","geometry":{"type":"Point","coordinates":[-72.421944,44.083333]},"properties":{"url:moreinfo":"http:\/\/foodtree.com\/sources\/22421","urltitle:moreinfo":"Please visit Island Infusions LLC on Foodtree","address":" Washington, Vermont, USA","title":"Island Infusions LLC"}},{"type":"Feature","geometry":{"type":"Point","coordinates":[-73.212072,44.475883]},"properties":{"url:moreinfo":"http:\/\/foodtree.com\/sources\/22411","urltitle:moreinfo":"Please visit Intervale Community Farm on Foodtree","address":" Burlington, Vermont, USA","title":"Intervale Community Farm"}},{"type":"Feature","geometry":{"type":"Point","coordinates":[-72.521209,43.820901]},"properties":{"url:moreinfo":"http:\/\/foodtree.com\/sources\/22401","urltitle:moreinfo":"Please visit Hurricane Flats on Foodtree","address":" S Royalton, Vermont, USA","title":"Hurricane Flats"}},{"type":"Feature","geometry":{"type":"Point","coordinates":[-72.488056,43.9]},"properties":{"url:moreinfo":"http:\/\/foodtree.com\/sources\/22391","urltitle:moreinfo":"Please visit Hoyt Hill Farm on Foodtree","address":" Tunbridge, Vermont, USA","title":"Hoyt Hill Farm"}},{"type":"Feature","geometry":{"type":"Point","coordinates":[-72.488056,43.9]},"properties":{"url:moreinfo":"http:\/\/foodtree.com\/sources\/22381","urltitle:moreinfo":"Please visit Howvale Farm on Foodtree","address":" Tunbridge, Vermont, USA","title":"Howvale Farm"}},{"type":"Feature","geometry":{"type":"Point","coordinates":[-72.926389,44.814444]},"properties":{"url:moreinfo":"http:\/\/foodtree.com\/sources\/22371","urltitle:moreinfo":"Please visit Howrigan's Maple Orchard on Foodtree","address":" Fairfield, Vermont, USA","title":"Howrigan's Maple Orchard"}},{"type":"Feature","geometry":{"type":"Point","coordinates":[-72.917532,44.982355]},"properties":{"url:moreinfo":"http:\/\/foodtree.com\/sources\/22361","urltitle:moreinfo":"Please visit Howmars Farm on Foodtree","address":" Franklin, Vermont, USA","title":"Howmars Farm"}},{"type":"Feature","geometry":{"type":"Point","coordinates":[-72.015118,44.419263]},"properties":{"url:moreinfo":"http:\/\/foodtree.com\/sources\/22351","urltitle:moreinfo":"Please visit Houde Family Farm on Foodtree","address":" St Johnsbury, Vermont, USA","title":"Houde Family Farm"}},{"type":"Feature","geometry":{"type":"Point","coordinates":[-72.45874,43.067831]},"properties":{"url:moreinfo":"http:\/\/foodtree.com\/sources\/22341","urltitle:moreinfo":"Please visit Holton Farms on Foodtree","address":" Westminster, Vermont, USA","title":"Holton Farms"}},{"type":"Feature","geometry":{"type":"Point","coordinates":[-73.078928,44.133377]},"properties":{"url:moreinfo":"http:\/\/foodtree.com\/sources\/22331","urltitle:moreinfo":"Please visit Hillsboro Sugarworks on Foodtree","address":" Bristol, Vermont, USA","title":"Hillsboro Sugarworks"}},{"type":"Feature","geometry":{"type":"Point","coordinates":[-72.205102,44.936436]},"properties":{"url:moreinfo":"http:\/\/foodtree.com\/sources\/22321","urltitle:moreinfo":"Please visit Hillcrest Farm on Foodtree","address":" Newport, Vermont, USA","title":"Hillcrest Farm"}},{"type":"Feature","geometry":{"type":"Point","coordinates":[-72.14009,44.411495]},"properties":{"url:moreinfo":"http:\/\/foodtree.com\/sources\/22311","urltitle:moreinfo":"Please visit Hill View Farm on Foodtree","address":" Danville, Vermont, USA","title":"Hill View Farm"}},{"type":"Feature","geometry":{"type":"Point","coordinates":[-73.226946,42.792313]},"properties":{"url:moreinfo":"http:\/\/foodtree.com\/sources\/64","urltitle:moreinfo":"Please visit Hill Top Farm on Foodtree","address":" Pownal, Vermont, USA","title":"Hill Top Farm"}},{"type":"Feature","geometry":{"type":"Point","coordinates":[-72.665695,43.924745]},"properties":{"url:moreinfo":"http:\/\/foodtree.com\/sources\/22301","urltitle:moreinfo":"Please visit Highfields Farm on Foodtree","address":" Randolph, Vermont, USA","title":"Highfields Farm"}},{"type":"Feature","geometry":{"type":"Point","coordinates":[-72.555101,43.940066]},"properties":{"url:moreinfo":"http:\/\/foodtree.com\/sources\/22291","urltitle:moreinfo":"Please visit High Ridge Meadows Farm on Foodtree","address":" E Randolph, Vermont, USA","title":"High Ridge Meadows Farm"}},{"type":"Feature","geometry":{"type":"Point","coordinates":[-72.475556,44.575556]},"properties":{"url:moreinfo":"http:\/\/foodtree.com\/sources\/22281","urltitle:moreinfo":"Please visit High Mowing Organic Seeds Inc on Foodtree","address":" Wolcott, Vermont, USA","title":"High Mowing Organic Seeds Inc"}},{"type":"Feature","geometry":{"type":"Point","coordinates":[-72.517222,43.000278]},"properties":{"url:moreinfo":"http:\/\/foodtree.com\/sources\/22271","urltitle:moreinfo":"Please visit High Meadows Farm on Foodtree","address":" Putney, Vermont, USA","title":"High Meadows Farm"}},{"type":"Feature","geometry":{"type":"Point","coordinates":[-72.43028,44.36639]},"properties":{"url:moreinfo":"http:\/\/foodtree.com\/sources\/22261","urltitle:moreinfo":"Please visit High Ledge Farm on Foodtree","address":" E Calais, Vermont, USA","title":"High Ledge Farm"}},{"type":"Feature","geometry":{"type":"Point","coordinates":[-72.306494,44.95088]},"properties":{"url:moreinfo":"http:\/\/foodtree.com\/sources\/22251","urltitle:moreinfo":"Please visit High Hopes Farm on Foodtree","address":" Newport Ctr, Vermont, USA","title":"High Hopes Farm"}},{"type":"Feature","geometry":{"type":"Point","coordinates":[-73.21083,43.96083]},"properties":{"url:moreinfo":"http:\/\/foodtree.com\/sources\/22241","urltitle:moreinfo":"Please visit Hibernia Farm LLC on Foodtree","address":" Cornwall, Vermont, USA","title":"Hibernia Farm LLC"}},{"type":"Feature","geometry":{"type":"Point","coordinates":[-73.300224,44.975054]},"properties":{"url:moreinfo":"http:\/\/foodtree.com\/sources\/22231","urltitle:moreinfo":"Please visit Henry Bros. Wolf Ridge Dairy on Foodtree","address":" Alburg, Vermont, USA","title":"Henry Bros. Wolf Ridge Dairy"}},{"type":"Feature","geometry":{"type":"Point","coordinates":[-73.351164,43.987374]},"properties":{"url:moreinfo":"http:\/\/foodtree.com\/sources\/22221","urltitle:moreinfo":"Please visit Heavenbound Farm on Foodtree","address":" Bridport, Vermont, USA","title":"Heavenbound Farm"}},{"type":"Feature","geometry":{"type":"Point","coordinates":[-72.300278,44.589167]},"properties":{"url:moreinfo":"http:\/\/foodtree.com\/sources\/9688","urltitle:moreinfo":"Please visit Hazendale Farm on Foodtree","address":"P.O. Box 74,  Greensboro, Vermont, USA, 05841","title":"Hazendale Farm"}},{"type":"Feature","geometry":{"type":"Point","coordinates":[-72.30917,44.52167]},"properties":{"url:moreinfo":"http:\/\/foodtree.com\/sources\/22211","urltitle:moreinfo":"Please visit Hazen Monument Farm on Foodtree","address":" E Hardwick, Vermont, USA","title":"Hazen Monument Farm"}},{"type":"Feature","geometry":{"type":"Point","coordinates":[-72.806523,44.906991]},"properties":{"url:moreinfo":"http:\/\/foodtree.com\/sources\/22201","urltitle:moreinfo":"Please visit Hayes Farm Inc on Foodtree","address":" Enosburg Falls, Vermont, USA","title":"Hayes Farm Inc"}},{"type":"Feature","geometry":{"type":"Point","coordinates":[-72.246111,44.48]},"properties":{"url:moreinfo":"http:\/\/foodtree.com\/sources\/22191","urltitle:moreinfo":"Please visit Harvest Hill Farm on Foodtree","address":" Walden, Vermont, USA","title":"Harvest Hill Farm"}},{"type":"Feature","geometry":{"type":"Point","coordinates":[-72.8125,44.188889]},"properties":{"url:moreinfo":"http:\/\/foodtree.com\/sources\/22181","urltitle:moreinfo":"Please visit Hartshorn Farm Market on Foodtree","address":" Waitsfield, Vermont, USA","title":"Hartshorn Farm Market"}},{"type":"Feature","geometry":{"type":"Point","coordinates":[-72.45874,43.067831]},"properties":{"url:moreinfo":"http:\/\/foodtree.com\/sources\/22171","urltitle:moreinfo":"Please visit Harlow Farm on Foodtree","address":" Westminster, Vermont, USA","title":"Harlow Farm"}},{"type":"Feature","geometry":{"type":"Point","coordinates":[-72.575487,42.817024]},"properties":{"url:moreinfo":"http:\/\/foodtree.com\/sources\/22161","urltitle:moreinfo":"Please visit Harley Enterprises on Foodtree","address":" Guilford, Vermont, USA","title":"Harley Enterprises"}},{"type":"Feature","geometry":{"type":"Point","coordinates":[-72.205102,44.936436]},"properties":{"url:moreinfo":"http:\/\/foodtree.com\/sources\/22151","urltitle:moreinfo":"Please visit Hard Climb Farm on Foodtree","address":" Newport, Vermont, USA","title":"Hard Climb Farm"}},{"type":"Feature","geometry":{"type":"Point","coordinates":[-73.297894,43.80395]},"properties":{"url:moreinfo":"http:\/\/foodtree.com\/sources\/22141","urltitle:moreinfo":"Please visit Hall & Breen Farm on Foodtree","address":" Orwell, Vermont, USA","title":"Hall & Breen Farm"}},{"type":"Feature","geometry":{"type":"Point","coordinates":[-72.85889,44.78444]},"properties":{"url:moreinfo":"http:\/\/foodtree.com\/sources\/22131","urltitle:moreinfo":"Please visit Hale Family Dairy on Foodtree","address":" E Fairfield, Vermont, USA","title":"Hale Family Dairy"}},{"type":"Feature","geometry":{"type":"Point","coordinates":[-72.829295,44.643939]},"properties":{"url:moreinfo":"http:\/\/foodtree.com\/sources\/22121","urltitle:moreinfo":"Please visit Gregory Beaudoin Farm on Foodtree","address":" Jeffersonville, Vermont, USA","title":"Gregory Beaudoin Farm"}},{"type":"Feature","geometry":{"type":"Point","coordinates":[-73.153571,44.124328]},"properties":{"url:moreinfo":"http:\/\/foodtree.com\/sources\/22111","urltitle:moreinfo":"Please visit Greenhaven Gardens on Foodtree","address":" New Haven, Vermont, USA","title":"Greenhaven Gardens"}},{"type":"Feature","geometry":{"type":"Point","coordinates":[-72.806523,44.906991]},"properties":{"url:moreinfo":"http:\/\/foodtree.com\/sources\/22101","urltitle:moreinfo":"Please visit Green Wind Farm on Foodtree","address":" Enosburg Falls, Vermont, USA","title":"Green Wind Farm"}},{"type":"Feature","geometry":{"type":"Point","coordinates":[-72.756264,44.33782]},"properties":{"url:moreinfo":"http:\/\/foodtree.com\/sources\/22091","urltitle:moreinfo":"Please visit Green Mtn Garlic \/ Twilight Farm on Foodtree","address":" Waterbury, Vermont, USA","title":"Green Mtn Garlic \/ Twilight Farm"}},{"type":"Feature","geometry":{"type":"Point","coordinates":[-72.517222,43.000278]},"properties":{"url:moreinfo":"http:\/\/foodtree.com\/sources\/22081","urltitle:moreinfo":"Please visit Green Mountain Spinnery on Foodtree","address":" Putney, Vermont, USA","title":"Green Mountain Spinnery"}},{"type":"Feature","geometry":{"type":"Point","coordinates":[-72.748889,44.714444]},"properties":{"url:moreinfo":"http:\/\/foodtree.com\/sources\/22071","urltitle:moreinfo":"Please visit Green Mountain Maple Sugar on Foodtree","address":" Waterville, Vermont, USA","title":"Green Mountain Maple Sugar"}},{"type":"Feature","geometry":{"type":"Point","coordinates":[-72.85889,44.78444]},"properties":{"url:moreinfo":"http:\/\/foodtree.com\/sources\/22061","urltitle:moreinfo":"Please visit Green Mountain Mainlines on Foodtree","address":" E Fairfield, Vermont, USA","title":"Green Mountain Mainlines"}},{"type":"Feature","geometry":{"type":"Point","coordinates":[-72.646111,43.844444]},"properties":{"url:moreinfo":"http:\/\/foodtree.com\/sources\/22051","urltitle:moreinfo":"Please visit Green Mountain Feeds on Foodtree","address":" Bethel, Vermont, USA","title":"Green Mountain Feeds"}},{"type":"Feature","geometry":{"type":"Point","coordinates":[-72.386568,43.48]},"properties":{"url:moreinfo":"http:\/\/foodtree.com\/sources\/22041","urltitle:moreinfo":"Please visit Great River Farm on Foodtree","address":" Windsor, Vermont, USA","title":"Great River Farm"}},{"type":"Feature","geometry":{"type":"Point","coordinates":[-72.06,44.89889]},"properties":{"url:moreinfo":"http:\/\/foodtree.com\/sources\/22031","urltitle:moreinfo":"Please visit Gratton Hill Farm on Foodtree","address":" W Charleston, Vermont, USA","title":"Gratton Hill Farm"}},{"type":"Feature","geometry":{"type":"Point","coordinates":[-72.540833,44.116111]},"properties":{"url:moreinfo":"http:\/\/foodtree.com\/sources\/22021","urltitle:moreinfo":"Please visit Graham Farms on Foodtree","address":" Williamstown, Vermont, USA","title":"Graham Farms"}},{"type":"Feature","geometry":{"type":"Point","coordinates":[-72.595108,43.262848]},"properties":{"url:moreinfo":"http:\/\/foodtree.com\/sources\/22011","urltitle:moreinfo":"Please visit Gourmet Greens Inc on Foodtree","address":" Chester, Vermont, USA","title":"Gourmet Greens Inc"}},{"type":"Feature","geometry":{"type":"Point","coordinates":[-72.646111,43.844444]},"properties":{"url:moreinfo":"http:\/\/foodtree.com\/sources\/22001","urltitle:moreinfo":"Please visit Good Oak Farm on Foodtree","address":" Bethel, Vermont, USA","title":"Good Oak Farm"}},{"type":"Feature","geometry":{"type":"Point","coordinates":[-73.315952,43.893671]},"properties":{"url:moreinfo":"http:\/\/foodtree.com\/sources\/21991","urltitle:moreinfo":"Please visit Golden Russet Farm on Foodtree","address":" Shoreham, Vermont, USA","title":"Golden Russet Farm"}},{"type":"Feature","geometry":{"type":"Point","coordinates":[-72.616519,44.593932]},"properties":{"url:moreinfo":"http:\/\/foodtree.com\/sources\/21981","urltitle:moreinfo":"Please visit Godin Farm on Foodtree","address":" Hyde Park, Vermont, USA","title":"Godin Farm"}},{"type":"Feature","geometry":{"type":"Point","coordinates":[-72.602343,44.878103]},"properties":{"url:moreinfo":"http:\/\/foodtree.com\/sources\/21971","urltitle:moreinfo":"Please visit Godfrey's Sugarhouse on Foodtree","address":" Montgomery Ctr, Vermont, USA","title":"Godfrey's Sugarhouse"}},{"type":"Feature","geometry":{"type":"Point","coordinates":[-72.616519,44.593932]},"properties":{"url:moreinfo":"http:\/\/foodtree.com\/sources\/21961","urltitle:moreinfo":"Please visit Glennview Jerseys on Foodtree","address":" Hyde Park, Vermont, USA","title":"Glennview Jerseys"}},{"type":"Feature","geometry":{"type":"Point","coordinates":[-72.85889,44.78444]},"properties":{"url:moreinfo":"http:\/\/foodtree.com\/sources\/21951","urltitle:moreinfo":"Please visit Gervais Family Maple on Foodtree","address":" E Fairfield, Vermont, USA","title":"Gervais Family Maple"}},{"type":"Feature","geometry":{"type":"Point","coordinates":[-72.806523,44.906991]},"properties":{"url:moreinfo":"http:\/\/foodtree.com\/sources\/21941","urltitle:moreinfo":"Please visit Gaudette's Maple on Foodtree","address":" Enosburg Falls, Vermont, USA","title":"Gaudette's Maple"}},{"type":"Feature","geometry":{"type":"Point","coordinates":[-73.370833,44.066944]},"properties":{"url:moreinfo":"http:\/\/foodtree.com\/sources\/21931","urltitle:moreinfo":"Please visit Garden Art LLC on Foodtree","address":" Addison, Vermont, USA","title":"Garden Art LLC"}},{"type":"Feature","geometry":{"type":"Point","coordinates":[-73.124344,44.918088]},"properties":{"url:moreinfo":"http:\/\/foodtree.com\/sources\/21921","urltitle:moreinfo":"Please visit Gamache Farm on Foodtree","address":" Swanton, Vermont, USA","title":"Gamache Farm"}},{"type":"Feature","geometry":{"type":"Point","coordinates":[-73.15222,44.81028]},"properties":{"url:moreinfo":"http:\/\/foodtree.com\/sources\/21911","urltitle:moreinfo":"Please visit Gallagher's Inc on Foodtree","address":" St Albans, Vermont, USA","title":"Gallagher's Inc"}},{"type":"Feature","geometry":{"type":"Point","coordinates":[-73.124344,44.918088]},"properties":{"url:moreinfo":"http:\/\/foodtree.com\/sources\/21901","urltitle:moreinfo":"Please visit Gagne Maple LLC on Foodtree","address":" Swanton, Vermont, USA","title":"Gagne Maple LLC"}},{"type":"Feature","geometry":{"type":"Point","coordinates":[-73.212072,44.475883]},"properties":{"url:moreinfo":"http:\/\/foodtree.com\/sources\/21891","urltitle:moreinfo":"Please visit Full Moon Farm Inc on Foodtree","address":" Burlington, Vermont, USA","title":"Full Moon Farm Inc"}},{"type":"Feature","geometry":{"type":"Point","coordinates":[-72.28,44.80333]},"properties":{"url:moreinfo":"http:\/\/foodtree.com\/sources\/21881","urltitle:moreinfo":"Please visit Fromm Family Farm on Foodtree","address":" Irasburg, Vermont, USA","title":"Fromm Family Farm"}},{"type":"Feature","geometry":{"type":"Point","coordinates":[-72.575487,42.817024]},"properties":{"url:moreinfo":"http:\/\/foodtree.com\/sources\/21871","urltitle:moreinfo":"Please visit Franklin Farm on Foodtree","address":" Guilford, Vermont, USA","title":"Franklin Farm"}},{"type":"Feature","geometry":{"type":"Point","coordinates":[-72.547222,43.816111]},"properties":{"url:moreinfo":"http:\/\/foodtree.com\/sources\/21861","urltitle:moreinfo":"Please visit Four Springs Farm on Foodtree","address":" Royalton, Vermont, USA","title":"Four Springs Farm"}},{"type":"Feature","geometry":{"type":"Point","coordinates":[-73.300224,44.975054]},"properties":{"url:moreinfo":"http:\/\/foodtree.com\/sources\/21851","urltitle:moreinfo":"Please visit Forgues Family Farm on Foodtree","address":" Alburg, Vermont, USA","title":"Forgues Family Farm"}},{"type":"Feature","geometry":{"type":"Point","coordinates":[-72.68036,44.635583]},"properties":{"url:moreinfo":"http:\/\/foodtree.com\/sources\/21841","urltitle:moreinfo":"Please visit Foote Brook Organic Farm on Foodtree","address":" Johnson, Vermont, USA","title":"Foote Brook Organic Farm"}},{"type":"Feature","geometry":{"type":"Point","coordinates":[-73.27694,44.2025]},"properties":{"url:moreinfo":"http:\/\/foodtree.com\/sources\/21831","urltitle:moreinfo":"Please visit Flower Power Vermont on Foodtree","address":" Ferrisburg, Vermont, USA","title":"Flower Power Vermont"}},{"type":"Feature","geometry":{"type":"Point","coordinates":[-72.6,44.023611]},"properties":{"url:moreinfo":"http:\/\/foodtree.com\/sources\/21821","urltitle:moreinfo":"Please visit Floating Bridge Organics on Foodtree","address":" Brookfield, Vermont, USA","title":"Floating Bridge Organics"}},{"type":"Feature","geometry":{"type":"Point","coordinates":[-72.320833,43.948333]},"properties":{"url:moreinfo":"http:\/\/foodtree.com\/sources\/21811","urltitle:moreinfo":"Please visit Flag Hill Farm on Foodtree","address":" Vershire, Vermont, USA","title":"Flag Hill Farm"}},{"type":"Feature","geometry":{"type":"Point","coordinates":[-72.806523,44.906991]},"properties":{"url:moreinfo":"http:\/\/foodtree.com\/sources\/9650","urltitle:moreinfo":"Please visit Flack Family Farm on Foodtree","address":"3971 Pumpkin Village Road,  Enosburg Falls, Vermont, USA, 05450","title":"Flack Family Farm"}},{"type":"Feature","geometry":{"type":"Point","coordinates":[-71.99,44.83806]},"properties":{"url:moreinfo":"http:\/\/foodtree.com\/sources\/21801","urltitle:moreinfo":"Please visit Fenner Brook Farm on Foodtree","address":" E Charleston, Vermont, USA","title":"Fenner Brook Farm"}},{"type":"Feature","geometry":{"type":"Point","coordinates":[-73.0925,44.332222]},"properties":{"url:moreinfo":"http:\/\/foodtree.com\/sources\/21791","urltitle:moreinfo":"Please visit Farmstand at the Cobble on Foodtree","address":" Hinesburg, Vermont, USA","title":"Farmstand at the Cobble"}},{"type":"Feature","geometry":{"type":"Point","coordinates":[-72.721958,43.535433]},"properties":{"url:moreinfo":"http:\/\/foodtree.com\/sources\/21781","urltitle:moreinfo":"Please visit Farm & Wilderness Foundation on Foodtree","address":" Plymouth, Vermont, USA","title":"Farm & Wilderness Foundation"}},{"type":"Feature","geometry":{"type":"Point","coordinates":[-72.715951,44.378111]},"properties":{"url:moreinfo":"http:\/\/foodtree.com\/sources\/21771","urltitle:moreinfo":"Please visit Evergreen Gardens on Foodtree","address":" Waterbury Ctr, Vermont, USA","title":"Evergreen Gardens"}},{"type":"Feature","geometry":{"type":"Point","coordinates":[-72.340029,44.458261]},"properties":{"url:moreinfo":"http:\/\/foodtree.com\/sources\/21761","urltitle:moreinfo":"Please visit Engelbert Farms on Foodtree","address":" Nichols, Vermont, USA","title":"Engelbert Farms"}},{"type":"Feature","geometry":{"type":"Point","coordinates":[-73.315952,43.893671]},"properties":{"url:moreinfo":"http:\/\/foodtree.com\/sources\/21751","urltitle:moreinfo":"Please visit Elysian Fields on Foodtree","address":" Shoreham, Vermont, USA","title":"Elysian Fields"}},{"type":"Feature","geometry":{"type":"Point","coordinates":[-72.575387,44.260059]},"properties":{"url:moreinfo":"http:\/\/foodtree.com\/sources\/21741","urltitle:moreinfo":"Please visit Elmore Roots Nursery on Foodtree","address":" Montpelier, Vermont, USA","title":"Elmore Roots Nursery"}},{"type":"Feature","geometry":{"type":"Point","coordinates":[-73.167351,44.015329]},"properties":{"url:moreinfo":"http:\/\/foodtree.com\/sources\/21731","urltitle:moreinfo":"Please visit Elmer Farm on Foodtree","address":" Middlebury, Vermont, USA","title":"Elmer Farm"}},{"type":"Feature","geometry":{"type":"Point","coordinates":[-72.61944,43.72861]},"properties":{"url:moreinfo":"http:\/\/foodtree.com\/sources\/21721","urltitle:moreinfo":"Please visit Edmunds Maple Hill Farm on Foodtree","address":" Barnard, Vermont, USA","title":"Edmunds Maple Hill Farm"}},{"type":"Feature","geometry":{"type":"Point","coordinates":[-72.530113,44.713383]},