{"type":"FeatureCollection","features":[{"type":"Feature","geometry":{"type":"Point","coordinates":[-123.11,49.063]},"properties":{"url:moreinfo":"http:\/\/foodtree.com\/sources\/37","address":"3310 41B St, Delta  , British Columbia, Canada","title":"Cropthorne Farm"}},{"type":"Feature","geometry":{"type":"Point","coordinates":[-123.16,49.3375]},"properties":{"url:moreinfo":"http:\/\/foodtree.com\/sources\/186","address":"West Vancouver, BC, Canada","title":"Grass Root Greens"}},{"type":"Feature","geometry":{"type":"Point","coordinates":[-123.134,49.7351]},"properties":{"url:moreinfo":"http:\/\/foodtree.com\/sources\/192","address":"Paradise Valley Squamish, Garibaldi Highlands, BC, Canada","title":"Paradise Produce"}},{"type":"Feature","geometry":{"type":"Point","coordinates":[-121.86,49.1472]},"properties":{"url:moreinfo":"http:\/\/foodtree.com\/sources\/44","address":"49350 Prairie Central rd, Chilliwack , British Columbia, Canada","title":"Forstbauer Family Natural Food Farm"}},{"type":"Feature","geometry":{"type":"Point","coordinates":[-122.316,49.0089]},"properties":{"url:moreinfo":"http:\/\/foodtree.com\/sources\/18","address":"333 Gladwin Road, Abbotsford  , British Columbia, Canada","title":"Apple Barn Pumpkin Farm"}},{"type":"Feature","geometry":{"type":"Point","coordinates":[-119.799,49.2125]},"properties":{"url:moreinfo":"http:\/\/foodtree.com\/sources\/199","address":"2614 Upper Bench Rd, Keremeos, BC, Canada","title":"Upper Bench Organics"}},{"type":"Feature","geometry":{"type":"Point","coordinates":[-127.648,53.7267]},"properties":{"url:moreinfo":"http:\/\/foodtree.com\/sources\/379","address":"British Columbia, Canada","title":"Simply Delish Soup Company"}},{"type":"Feature","geometry":{"type":"Point","coordinates":[-119.756,49.1846]},"properties":{"url:moreinfo":"http:\/\/foodtree.com\/sources\/200","address":"Cawston, BC, Canada","title":"Wild About Organics"}},{"type":"Feature","geometry":{"type":"Point","coordinates":[-122.073,49.1183]},"properties":{"url:moreinfo":"http:\/\/foodtree.com\/sources\/187","address":"6386 Chadsey Road, Chilliwack, BC, Canada","title":"Greendale Herb & Vine"}},{"type":"Feature","geometry":{"type":"Point","coordinates":[-122.095,49.0924]},"properties":{"url:moreinfo":"http:\/\/foodtree.com\/sources\/21","address":"5115 Tolmie Rd, Abbotsford, British Columbia, Canada","title":"Arkesteyn-Vogler Family Farm"}},{"type":"Feature","geometry":{"type":"Point","coordinates":[-119.551,49.1828]},"properties":{"url:moreinfo":"http:\/\/foodtree.com\/sources\/179","address":"Oliver, BC, Canada","title":"Deal Farm"}},{"type":"Feature","geometry":{"type":"Point","coordinates":[-123.062,49.2002]},"properties":{"url:moreinfo":"http:\/\/foodtree.com\/sources\/193","address":"115-1711 Valmont Way, Richmond, BC, Canada","title":"Port Hardy Seafoods"}},{"type":"Feature","geometry":{"type":"Point","coordinates":[-122.56,49.0198]},"properties":{"url:moreinfo":"http:\/\/foodtree.com\/sources\/374","address":"1020-240th Street, Langley, British Columbia, Canada","title":"Wild Route Organics"}},{"type":"Feature","geometry":{"type":"Point","coordinates":[-122.228,49.017]},"properties":{"url:moreinfo":"http:\/\/foodtree.com\/sources\/49","address":"35805 Vye Road, Abbotsford  , British Columbia, Canada","title":"Gelderman Farms Ltd"}},{"type":"Feature","geometry":{"type":"Point","coordinates":[-123.08,49.1556]},"properties":{"url:moreinfo":"http:\/\/foodtree.com\/sources\/176","address":"13051 Blundell Road, Richmond, BC, Canada","title":"Canwest Farms Ltd"}},{"type":"Feature","geometry":{"type":"Point","coordinates":[-124.924,49.6419]},"properties":{"url:moreinfo":"http:\/\/foodtree.com\/sources\/188","address":"4098 Gartley Point Road, Courtenay, BC, Canada","title":"Mandala Holdings Estevan Tuna Corp"}},{"type":"Feature","geometry":{"type":"Point","coordinates":[-123.138,49.1635]},"properties":{"url:moreinfo":"http:\/\/foodtree.com\/sources\/195","address":"Richmond, BC, Canada","title":"Richmond Beekeepers"}},{"type":"Feature","geometry":{"type":"Point","coordinates":[-123.082,49.2501]},"properties":{"url:moreinfo":"http:\/\/foodtree.com\/sources\/180","address":"Metro Vancouver, BC, Canada","title":"Felix Farm"}},{"type":"Feature","geometry":{"type":"Point","coordinates":[-123.14,49.2714]},"properties":{"url:moreinfo":"http:\/\/foodtree.com\/sources\/108","address":"1505 West 1st Ave, Vancouver  , British Columbia, Canada","title":"Skipper Otto's Wild British Columbia Salmon"}},{"type":"Feature","geometry":{"type":"Point","coordinates":[-82.1985,35.8474]},"properties":{"url:moreinfo":"http:\/\/foodtree.com\/sources\/177","address":"125 Morning Glory Lane, Celo, NC, USA","title":"Common Ground Farm"}},{"type":"Feature","geometry":{"type":"Point","coordinates":[-123.159,49.7017]},"properties":{"url:moreinfo":"http:\/\/foodtree.com\/sources\/181","address":"Squamish, BC, Canada","title":"Fern Alley Market Garden"}},{"type":"Feature","geometry":{"type":"Point","coordinates":[-122.942,49.225]},"properties":{"url:moreinfo":"http:\/\/foodtree.com\/sources\/84","address":"4949 Canada Way, Richmond , British Columbia, Canada","title":"Natural Village"}},{"type":"Feature","geometry":{"type":"Point","coordinates":[-122.338,49.0233]},"properties":{"url:moreinfo":"http:\/\/foodtree.com\/sources\/178","address":"889 Clearbrook Road, Abbotsford, BC, Canada","title":"Country Village Market"}},{"type":"Feature","geometry":{"type":"Point","coordinates":[-119.5,36.4859]},"properties":{"url:moreinfo":"http:\/\/foodtree.com\/sources\/190","address":"38250 Road 32, Kingsburg, CA, USA","title":"Neufeld Farms"}},{"type":"Feature","geometry":{"type":"Point","coordinates":[-123.134,49.7351]},"properties":{"url:moreinfo":"http:\/\/foodtree.com\/sources\/1079","address":"P.O. Box 1971, Garibaldi Highlands, Squamish, British Columbia, Canada","title":"Good Time Farming"}},{"type":"Feature","geometry":{"type":"Point","coordinates":[-123.087,49.2802]},"properties":{"url:moreinfo":"http:\/\/foodtree.com\/sources\/112","address":"399 Hawks Ave, Vancouver, British Columbia, Canada","title":"SOLEFood"}},{"type":"Feature","geometry":{"type":"Point","coordinates":[-122.429,49.1613]},"properties":{"url:moreinfo":"http:\/\/foodtree.com\/sources\/767","address":"8550 Bradner Road, Abbotsford , BC, Canada","title":"Glen Valley Organic Farm Co-Operative"}},{"type":"Feature","geometry":{"type":"Point","coordinates":[-122.11,49.0418]},"properties":{"url:moreinfo":"http:\/\/foodtree.com\/sources\/182","address":"PO Box 674, 2191 Inter-Provincial Hwy, Abbotsford, British Columbia, Canada","title":"Floralia Growers"}},{"type":"Feature","geometry":{"type":"Point","coordinates":[-122.828,49.1059]},"properties":{"url:moreinfo":"http:\/\/foodtree.com\/sources\/191","address":"Surrey, BC, Canada","title":"Outwest Ranches"}},{"type":"Feature","geometry":{"type":"Point","coordinates":[-122.718,49.0312]},"properties":{"url:moreinfo":"http:\/\/foodtree.com\/sources\/198","address":"18232 16th Avenue, Surrey, British Columbia, Canada","title":"Training Wheels Farm"}},{"type":"Feature","geometry":{"type":"Point","coordinates":[-122.712,49.2533]},"properties":{"url:moreinfo":"http:\/\/foodtree.com\/sources\/35","address":"13672 Reichenbach Road, Maple Ridge  , British Columbia, Canada","title":"Cranberry Meadows"}},{"type":"Feature","geometry":{"type":"Point","coordinates":[-121.91,52.1766]},"properties":{"url:moreinfo":"http:\/\/foodtree.com\/sources\/1078","address":"3467 Horsefly, 100 Mile House, British Columbia, Canada","title":"Redi's Home Grown Beef"}},{"type":"Feature","geometry":{"type":"Point","coordinates":[-123.11,49.064]},"properties":{"url:moreinfo":"http:\/\/foodtree.com\/sources\/50","address":"3330 41B Street, Delta, British Columbia, Canada","title":"Gipaanda Greenhouses"}},{"type":"Feature","geometry":{"type":"Point","coordinates":[-119.488,49.8917]},"properties":{"url:moreinfo":"http:\/\/foodtree.com\/sources\/16","address":"S1 C17 RR1, Cawston  , British Columbia, Canada","title":"Ambercott Acres"}},{"type":"Feature","geometry":{"type":"Point","coordinates":[-123.081,49.3107]},"properties":{"url:moreinfo":"http:\/\/foodtree.com\/sources\/7","address":"123 Carrie Cates Ct, North Vancouver, British Columbia, Canada","title":"Lonsdale Quay Farmers Market"}}],"properties":{"title":"Lonsdale Quay Farmers Market - Connections"}}