{"type":"FeatureCollection","features":[{"type":"Feature","geometry":{"type":"Point","coordinates":[-72.485497,43.0354]},"properties":{"url:moreinfo":"http:\/\/foodtree.com\/sources\/10030","urltitle:moreinfo":"Please visit Old Athens Farm CSA on Foodtree","address":"463 Daigel Rd., Putney, Vermont, USA, 05346","title":"Old Athens Farm CSA"}},{"type":"Feature","geometry":{"type":"Point","coordinates":[-72.875198,42.779999]},"properties":{"url:moreinfo":"http:\/\/foodtree.com\/sources\/10028","urltitle:moreinfo":"Please visit Hawk's Flight Farm on Foodtree","address":"PO Box 61, Whitingham, Vermont, USA, 05361","title":"Hawk's Flight Farm"}},{"type":"Feature","geometry":{"type":"Point","coordinates":[-73.0569,43.176102]},"properties":{"url:moreinfo":"http:\/\/foodtree.com\/sources\/10025","urltitle:moreinfo":"Please visit Dutton Berry Farm on Foodtree","address":"Vermont 11\/30, Manchester Center, Vermont, USA, 05255","title":"Dutton Berry Farm"}},{"type":"Feature","geometry":{"type":"Point","coordinates":[-72.487099,44.1721]},"properties":{"url:moreinfo":"http:\/\/foodtree.com\/sources\/9675","urltitle:moreinfo":"Please visit Vermont Butter & Cheese Company on Foodtree","address":"40 Pitman Road,  Websterville, VT, United States, 05678","title":"Vermont Butter & Cheese Company"}},{"type":"Feature","geometry":{"type":"Point","coordinates":[-72.599602,42.779598]},"properties":{"url:moreinfo":"http:\/\/foodtree.com\/sources\/10029","urltitle:moreinfo":"Please visit Not Your Ordinary Farm on Foodtree","address":"159 Yeaw Road, Guilford, Vermont, USA, 05301","title":"Not Your Ordinary Farm"}},{"type":"Feature","geometry":{"type":"Point","coordinates":[-72.446404,43.270699]},"properties":{"url:moreinfo":"http:\/\/foodtree.com\/sources\/7203","urltitle:moreinfo":"Please visit Cavendish Game Birds on Foodtree","address":"190 Paddock Road, Springfield, Vermont, USA, 05156","title":"Cavendish Game Birds"}},{"type":"Feature","geometry":{"type":"Point","coordinates":[-72.001404,42.469601]},"properties":{"url:moreinfo":"http:\/\/foodtree.com\/sources\/10031","urltitle:moreinfo":"Please visit Westfield Farm on Foodtree","address":"28 Worcester Road, Hubbardston, Massachusetts, USA, 01452","title":"Westfield Farm"}},{"type":"Feature","geometry":{"type":"Point","coordinates":[-72.607399,42.906601]},"properties":{"url:moreinfo":"http:\/\/foodtree.com\/sources\/10026","urltitle:moreinfo":"Please visit Fowl Mountain Farm on Foodtree","address":"42 Hemlock Hill Road, Dummerston, Vermont, USA, 05357","title":"Fowl Mountain Farm"}},{"type":"Feature","geometry":{"type":"Point","coordinates":[-73.019699,44.965]},"properties":{"url:moreinfo":"http:\/\/foodtree.com\/sources\/9645","urltitle:moreinfo":"Please visit Boucher Family Farm on Foodtree","address":"2183 Gore Road, Highgate Center, VT, United States","title":"Boucher Family Farm"}},{"type":"Feature","geometry":{"type":"Point","coordinates":[-72.540901,42.9907]},"properties":{"url:moreinfo":"http:\/\/foodtree.com\/sources\/10027","urltitle:moreinfo":"Please visit Green Mountain Orchards on Foodtree","address":"130 West Hill Road, Putney, Vermont, USA, 05346","title":"Green Mountain Orchards"}},{"type":"Feature","geometry":{"type":"Point","coordinates":[-72.874199,42.870098]},"properties":{"url:moreinfo":"http:\/\/foodtree.com\/sources\/10024","urltitle:moreinfo":"Please visit Wilmington Inn on Foodtree","address":"41 West Main Street, Wilmington, Vermont, USA, 05363","title":"Wilmington Inn"}}],"properties":{"title":"Wilmington Inn - connections"}}