{"type":"FeatureCollection","features":[{"type":"Feature","geometry":{"type":"Point","coordinates":[-119.594002,49.597599]},"properties":{"url:moreinfo":"http:\/\/foodtree.com\/sources\/7427","address":"2825 Naramata Road, Site 5 Camp 4, Naramata, British Columbia, Canada, V0H1N0","title":"JoieFarm Wines"}},{"type":"Feature","geometry":{"type":"Point","coordinates":[-119.566002,49.8438]},"properties":{"url:moreinfo":"http:\/\/foodtree.com\/sources\/5697","address":"3303 Boucherie Road, West Kelowna, BC, Canada, V1Z 2H3","title":"Quail's Gate Winery"}},{"type":"Feature","geometry":{"type":"Point","coordinates":[-119.501531,49.80628]},"properties":{"url:moreinfo":"http:\/\/foodtree.com\/sources\/11019","address":"4870 Chute Lake Road, Kelowna, British Columbia, Canada, V1W4M3","title":"Summerhill Pyramid Winery"}},{"type":"Feature","geometry":{"type":"Point","coordinates":[-123.397107,48.603168]},"properties":{"url:moreinfo":"http:\/\/foodtree.com\/sources\/11011","address":"2487 Mt. St. Michael Road, Saanichton, British Columbia, Canada, V8M1T7","title":"Sea Cider"}},{"type":"Feature","geometry":{"type":"Point","coordinates":[-119.544017,49.78966]},"properties":{"url:moreinfo":"http:\/\/foodtree.com\/sources\/11018","address":"5445 Lakeshore Road, Kelowna, British Columbia, Canada, V1W4S5","title":"Cedar Creek Estate Winery"}},{"type":"Feature","geometry":{"type":"Point","coordinates":[-119.269186,50.26108]},"properties":{"url:moreinfo":"http:\/\/foodtree.com\/sources\/11012","address":"2808 \u2013 27 Avenue, Vernon, British Columbia, Canada, V1T9K4","title":"Okanagen Springs Brewery"}},{"type":"Feature","geometry":{"type":"Point","coordinates":[-119.59252,49.587603]},"properties":{"url:moreinfo":"http:\/\/foodtree.com\/sources\/11017","address":"2988 Hayman Road, Naramata, British Columbia, Canada, V0H1N0","title":"Kettle Valley Winery"}},{"type":"Feature","geometry":{"type":"Point","coordinates":[-122.862,49.148201]},"properties":{"url:moreinfo":"http:\/\/foodtree.com\/sources\/6678","address":"202-13018 80th Avenue, Surrey, British Columbia, Canada, V3W 2B2","title":"Russell Brewing Company"}},{"type":"Feature","geometry":{"type":"Point","coordinates":[-123.115997,49.1936]},"properties":{"url:moreinfo":"http:\/\/foodtree.com\/sources\/7447","address":"9571 Beckwith Road, Richmond, British Columbia, Canada, V6X 2L4","title":"Cherry Lane Farm"}},{"type":"Feature","geometry":{"type":"Point","coordinates":[-123.097,49.319302]},"properties":{"url:moreinfo":"http:\/\/foodtree.com\/sources\/273","address":"180 Donaghy Ave, North Vancouver, British Columbia, Canada, V7P 2L5","title":"Two Rivers Specialty Meats"}},{"type":"Feature","geometry":{"type":"Point","coordinates":[-124.305401,49.815526]},"properties":{"url:moreinfo":"http:\/\/foodtree.com\/sources\/10888","address":"Dixon Rd, Powell River, British Columbia, Canada, V8A5C1","title":"West Coast Fishculture (Lois Lake) Ltd"}},{"type":"Feature","geometry":{"type":"Point","coordinates":[-119.533997,49.101002]},"properties":{"url:moreinfo":"http:\/\/foodtree.com\/sources\/5695","address":"100 Burrowing Owl Place, Oliver, British Columbia, Canada, V0H 1T0","title":"Burrowing Owl Winery"}},{"type":"Feature","geometry":{"type":"Point","coordinates":[-122.636002,49.0312]},"properties":{"url:moreinfo":"http:\/\/foodtree.com\/sources\/10112","address":"21152 16th Avenue, Langley, British Columbia, Canada, V2Z 1K3","title":"Township7 Winery"}},{"type":"Feature","geometry":{"type":"Point","coordinates":[-123.366997,48.432701]},"properties":{"url:moreinfo":"http:\/\/foodtree.com\/sources\/7291","address":"2010 Government Street, Victoria, British Columbia, Canada, V8T4P1","title":"Phillips Brewing Company"}},{"type":"Feature","geometry":{"type":"Point","coordinates":[-124.455002,49.337502]},"properties":{"url:moreinfo":"http:\/\/foodtree.com\/sources\/315","address":"350 Parker Road, Qualicum Beach, British Columbia, Canada, V9K1X4","title":"Sloping Hill Farm"}},{"type":"Feature","geometry":{"type":"Point","coordinates":[-119.464951,49.004225]},"properties":{"url:moreinfo":"http:\/\/foodtree.com\/sources\/11020","address":"9503 12th Avenue, Osoyoos, British Columbia, Canada, V0H 1V1","title":"Young & Wyse Winery"}},{"type":"Feature","geometry":{"type":"Point","coordinates":[-119.551389,49.182778]},"properties":{"url:moreinfo":"http:\/\/foodtree.com\/sources\/11013","address":"30480-71 St - Black Sage Road, Oliver, British Columbia, Canada, V0H1T0","title":"Desert Hills Estate Winery"}},{"type":"Feature","geometry":{"type":"Point","coordinates":[-119.487999,49.894501]},"properties":{"url:moreinfo":"http:\/\/foodtree.com\/sources\/7455","address":"1125 Richter Street, Kelowna, British Columbia, Canada, V1Y2K6","title":"Sandhill Wines"}},{"type":"Feature","geometry":{"type":"Point","coordinates":[-123.513516,48.861993]},"properties":{"url:moreinfo":"http:\/\/foodtree.com\/sources\/11015","address":"164  Norton Road, Salt Spring Island, British Columbia, Canada, V8K 2P5","title":"Mistaken Identity Vineyards"}},{"type":"Feature","geometry":{"type":"Point","coordinates":[-123.507004,48.8955]},"properties":{"url:moreinfo":"http:\/\/foodtree.com\/sources\/6661","address":"576 Walker's Hook Road, Salt Spring Island, British Columbia, Canada, V8K1B5","title":"Island Sea Farms (Salt Spring Island Mussels)"}},{"type":"Feature","geometry":{"type":"Point","coordinates":[-122.835999,50.289398]},"properties":{"url:moreinfo":"http:\/\/foodtree.com\/sources\/5790","address":"1888 Sea to Sky Highway 99, Pemberton, British Columbia, Canada, V0N 2L0","title":"North Arm Farm"}},{"type":"Feature","geometry":{"type":"Point","coordinates":[-119.542539,49.870486]},"properties":{"url:moreinfo":"http:\/\/foodtree.com\/sources\/11014","address":"2306 Hayman Rd, Kelowna, British Columbia, Canada, V1Z 1Z5","title":"Rollingdale Winery"}},{"type":"Feature","geometry":{"type":"Point","coordinates":[-119.58151,49.445839]},"properties":{"url:moreinfo":"http:\/\/foodtree.com\/sources\/11016","address":"4400 Lakeside Road, Penticton, British Columbia, Canada, V2A8W3","title":"Pent\u00e2ge Winery"}},{"type":"Feature","geometry":{"type":"Point","coordinates":[-119.570999,49.513401]},"properties":{"url:moreinfo":"http:\/\/foodtree.com\/sources\/5696","address":"425 Middle Bench Road North, Penticton, BC, Canada, V2A 8S5","title":"Poplar Grove Winery"}},{"type":"Feature","geometry":{"type":"Point","coordinates":[-119.550003,49.173901]},"properties":{"url:moreinfo":"http:\/\/foodtree.com\/sources\/9995","address":"RRI, Site 42, Comp 11, Oliver, British Columbia, Canada, V0H 1T0","title":"Orchard Hill Estate Cidery"}},{"type":"Feature","geometry":{"type":"Point","coordinates":[-119.565411,49.543034]},"properties":{"url:moreinfo":"http:\/\/foodtree.com\/sources\/10001","address":"1548 Naramata Road, Penticton, British Columbia, Canada, V2A 8T7","title":"Laughing Stock Vineyards"}},{"type":"Feature","geometry":{"type":"Point","coordinates":[-119.584999,49.837502]},"properties":{"url:moreinfo":"http:\/\/foodtree.com\/sources\/7457","address":"1730 Mission Hill Road, West Kelowna, British Columbia, Canada, V4T2E4","title":"Mission Hill Winery"}},{"type":"Feature","geometry":{"type":"Point","coordinates":[-123.374001,48.437]},"properties":{"url:moreinfo":"http:\/\/foodtree.com\/sources\/5989","address":"102-450 Hillside Avenue, Victoria, British Columbia, Canada, V8T 1Y7","title":"Driftwood Brewery"}},{"type":"Feature","geometry":{"type":"Point","coordinates":[-123.129997,49.300098]},"properties":{"url:moreinfo":"http:\/\/foodtree.com\/sources\/5999","address":"845 Avison Way, Vancouver, British Columbia, Canada, V6G2E2","title":"Oceanwise"}},{"type":"Feature","geometry":{"type":"Point","coordinates":[-119.748001,49.188301]},"properties":{"url:moreinfo":"http:\/\/foodtree.com\/sources\/7301","address":"2152 Barcelo Road, Cawston, British Columbia, Canada, V0X 1C0","title":"Orofino Vineyard"}},{"type":"Feature","geometry":{"type":"Point","coordinates":[-119.456001,49.833]},"properties":{"url:moreinfo":"http:\/\/foodtree.com\/sources\/7466","address":"1670 Dehart Road, Kelowna, British Columbia, Canada, V1W 4N6","title":"Tantalus Vineyards"}},{"type":"Feature","geometry":{"type":"Point","coordinates":[-119.584137,49.584104]},"properties":{"url:moreinfo":"http:\/\/foodtree.com\/sources\/11010","address":"2730 Aikins Loop, Naramata, British Columbia, Canada, V0H 1N0","title":"Elephant Island Wines"}},{"type":"Feature","geometry":{"type":"Point","coordinates":[-123.049438,49.255441]},"properties":{"url:moreinfo":"http:\/\/foodtree.com\/sources\/10151","address":"2603 W 16th Street, Vancouver, British Columbia, Canada, V5L 1G3","title":"Trafalgars Bistro"}}],"properties":{"title":"Trafalgars Bistro"}}