{"type":"FeatureCollection","features":[{"type":"Feature","geometry":{"type":"Point","coordinates":[1.4756081997946,43.813265295094]},"properties":{"title":"Ch\u00e2teau Montauriol Vin P\u00e9tillant Rouge \u201cLe Flambant\u201d 2010","address":"1925 Route des Ch\u00e2teaux, 31340 Villematier, France","description":"","stop_instance_id":"stop-1","supplychain_instance_id":"supplychain-1"}},{"type":"Feature","geometry":{"type":"Point","coordinates":[0.039827999994456,44.450418895059]},"properties":{"title":"Elian Da Ros \"Le Vin Est Une F\u00eate\" 2009, \u201cChante Coucou\u201d Rouge 2008 ","address":"Laclotte, 47250 Cocumont, France","description":"","stop_instance_id":"stop-4","supplychain_instance_id":"supplychain-1"}},{"type":"Feature","geometry":{"type":"Point","coordinates":[-1.300396999819,43.178765995131]},"properties":{"title":"Domaine Ilarria 2008","address":"Iroul\u00e9guy, France","description":"","stop_instance_id":"stop-9","supplychain_instance_id":"supplychain-1"}},{"type":"Feature","geometry":{"type":"Point","coordinates":[1.9809399997242,43.850398995092]},"properties":{"title":"Domaine Rotier Gaillac Rouge \"Les Gravels\" 2008 ","address":"Cadalen, France","description":"","stop_instance_id":"stop-16","supplychain_instance_id":"supplychain-1"}},{"type":"Feature","geometry":{"type":"Point","coordinates":[-0.42199299994126,43.260469995126]},"properties":{"title":"Clos Lapeyre Juran\u00e7on Sec 2010, \"Vitage Vielh\" 2007","address":"Chapelle de Rousse, 64110 Juran\u00e7on, France","description":"","stop_instance_id":"stop-25","supplychain_instance_id":"supplychain-1"}},{"type":"Feature","geometry":{"type":"Point","coordinates":[0.23756699996693,43.88672499509]},"properties":{"title":"Domaine M\u00e9nard Haut-Marin \u201cCuv\u00e9e Marine\u201d 2010","address":"Gondrin, France","description":""}}],"properties":{"title":"At The Table With Martin Langer","description":" A map of the wines for a five course wine dinner at our table in Cambridge, MA","tags":"","sm:ui:tileset":"satellite"}}