{"type":"FeatureCollection","features":[{"type":"Feature","geometry":{"type":"Point","coordinates":[-121.912003,47.6157]},"properties":{"description":"Vegetable","url:moreinfo":"http:\/\/foodtree.com\/sources\/329","address":"31904 NE 8th Street, Carnation, Washington, USA, 98014","title":"Full Circle Farm"}},{"type":"Feature","geometry":{"type":"Point","coordinates":[-122.293999,47.526901]},"properties":{"description":"Pasta","url:moreinfo":"http:\/\/foodtree.com\/sources\/7169","address":"8300 Military Road South, Suite 120, Seattle, Washington, USA, 98108","title":"Cucina Fresca"}},{"type":"Feature","geometry":{"type":"Point","coordinates":[-122.960999,46.541901]},"properties":{"description":"Cheese","url:moreinfo":"http:\/\/foodtree.com\/sources\/5579","address":"123 Rayburn Rd. W, Winlock, Washington, USA, 98596","title":"Blue Rose Dairy"}},{"type":"Feature","geometry":{"type":"Point","coordinates":[-123.204002,45.292301]},"properties":{"description":"Pork","url:moreinfo":"http:\/\/foodtree.com\/sources\/6789","address":"10600 NW Westside Road, Carlton, Oregon, USA, 97111","title":"Carlton Farms Natural Handcrafted Meats"}},{"type":"Feature","geometry":{"type":"Point","coordinates":[-118.162003,48.457298]},"properties":{"description":"Goat Cheese","url:moreinfo":"http:\/\/foodtree.com\/sources\/7134","address":"2409 Pleasant Valley Road, Rice, Washington, USA, 99167","title":"Quillisascut Cheese Company"}},{"type":"Feature","geometry":{"type":"Point","coordinates":[-120.216003,44.998199]},"properties":{"description":"Beef","url:moreinfo":"http:\/\/foodtree.com\/sources\/6884","address":"PO Box 245, Fossil, Oregon, USA, 97830","title":"Painted Hills Natural Beef"}},{"type":"Feature","geometry":{"type":"Point","coordinates":[-122.792999,48.1022]},"properties":{"description":"Cheese","url:moreinfo":"http:\/\/foodtree.com\/sources\/6897","address":"338 Sherman Street, Port Townsend, Washington, USA, 98368","title":"Mt Townsend Creamery"}},{"type":"Feature","geometry":{"type":"Point","coordinates":[-123.041,47.539902]},"properties":{"description":"Oyster","url:moreinfo":"http:\/\/foodtree.com\/sources\/6857","address":"35846 N US Hwy 101, Lilliwaup, Washington, USA, 98555","title":"Hama Hama Oyster Co"}},{"type":"Feature","geometry":{"type":"Point","coordinates":[-120.204002,48.500702]},"properties":{"description":"Soft White Wheat, Hard Red Winter Wheat, Flour","url:moreinfo":"http:\/\/foodtree.com\/sources\/6773","address":"228 Rendezvous Road, Winthrop, Washington, USA, 98862","title":"Bluebird Grain Farms"}},{"type":"Feature","geometry":{"type":"Point","coordinates":[-122.342003,47.6096]},"properties":{"description":"Cheese","url:moreinfo":"http:\/\/foodtree.com\/sources\/5578","address":"1600 Pike Place, Seattle, Washington, USA, 98101","title":"Beecher's Handmade Cheese"}},{"type":"Feature","geometry":{"type":"Point","coordinates":[-118.353996,47.450199]},"properties":{"description":"Flour","url:moreinfo":"http:\/\/foodtree.com\/sources\/7137","address":"12996 Kupers Road N, Harrington, Washington, USA, 99134","title":"Shepherd's Grain Flour"}},{"type":"Feature","geometry":{"type":"Point","coordinates":[-122.454002,48.375801]},"properties":{"url:moreinfo":"http:\/\/foodtree.com\/sources\/6797","address":"13459 Dodge Valley Road, Mount Vernon, Washington, USA, 98273","title":"Pleasant Valley Farms"}},{"type":"Feature","geometry":{"type":"Point","coordinates":[-122.606003,46.942001]},"properties":{"description":"Chicken Eggs, Beef, Duck Eggs","url:moreinfo":"http:\/\/foodtree.com\/sources\/6827","address":"PO Box 598, Yelm, Washington, USA, 98597","title":"Stiebrs Farms"}},{"type":"Feature","geometry":{"type":"Point","coordinates":[-122.592003,45.4259]},"properties":{"description":"Flour","url:moreinfo":"http:\/\/foodtree.com\/sources\/6864","address":"13521 SE Pheasant Ct, Milwaukie, Oregon, USA, 97222","title":"Bob's Red Mill"}},{"type":"Feature","geometry":{"type":"Point","coordinates":[-123.278,46.634499]},"properties":{"description":"Sheep Cheese, Blue Vein Cheese","url:moreinfo":"http:\/\/foodtree.com\/sources\/6916","address":"PO Box 274, Doty, Washington, USA, 98539","title":"Willapa Hills Family Farm & Creamery"}},{"type":"Feature","geometry":{"type":"Point","coordinates":[-122.341003,47.608398]},"properties":{"description":"Vegetable","url:moreinfo":"http:\/\/foodtree.com\/sources\/5574","address":"1531 Western Ave, Seattle, Washington, USA, 98101","title":"Alvarez Organic Farms"}},{"type":"Feature","geometry":{"type":"Point","coordinates":[-122.778999,47.976398]},"properties":{"description":"Honey, Flour, Chicken, Berry, Cider","url:moreinfo":"http:\/\/foodtree.com\/sources\/6870","address":"62 Barn Swallow Road, Chimacum, Washington, USA, 98325","title":"Finnriver Cidery"}},{"type":"Feature","geometry":{"type":"Point","coordinates":[-122.696999,47.644501]},"properties":{"url:moreinfo":"http:\/\/foodtree.com\/sources\/6932","address":"3472 Northwest Byron Street, Silverdale, Washington, USA, 98383","title":"Monica's Waterfront Bakery & Cafe"}}],"properties":{"title":"Monica's Waterfront Bakery & Cafe - connections"}}