{"type":"FeatureCollection","features":[{"type":"Feature","geometry":{"type":"Point","coordinates":[-72.331874,48.593318]},"properties":{"url:moreinfo":"http:\/\/foodtree.com\/sources\/11030","address":"156, avenue Albert-Perron, Saint-Prime, Quebec, Canada, G8J1L4","title":"Fromagerie Perron"}},{"type":"Feature","geometry":{"type":"Point","coordinates":[-119.584999,49.837502]},"properties":{"description":"Wine","url:moreinfo":"http:\/\/foodtree.com\/sources\/7457","address":"1730 Mission Hill Road, West Kelowna, British Columbia, Canada, V4T2E4","title":"Mission Hill Winery"}},{"type":"Feature","geometry":{"type":"Point","coordinates":[-69.500531,47.837217]},"properties":{"url:moreinfo":"http:\/\/foodtree.com\/sources\/11029","address":"150 chemin des Raymond, Rivi\u00e8re-du-Loup, Quebec, Canada, G5R 5X8","title":"duBreton Pork"}},{"type":"Feature","geometry":{"type":"Point","coordinates":[-71.502738,46.598047]},"properties":{"url:moreinfo":"http:\/\/foodtree.com\/sources\/11031","address":"524, rang Bois-Joly RR 2, St-Apollinaire, Quebec, Canada, G0S 2E0","title":"Le Canard Goulu"}},{"type":"Feature","geometry":{"type":"Point","coordinates":[-73.565302,45.507236]},"properties":{"url:moreinfo":"http:\/\/foodtree.com\/sources\/11028","address":"1255 Rue Jeanne Mance , Quebec, Canada, Canada, H5B1E5","title":"Six Resto Lounge"}}],"properties":{"title":"Six Resto Lounge - connections"}}