{"type":"FeatureCollection","features":[{"type":"Feature","geometry":{"type":"Point","coordinates":[-87.849503,41.059799]},"properties":{"url:moreinfo":"http:\/\/foodtree.com\/sources\/7013","urltitle:moreinfo":"Please visit Three Sisters Garden on Foodtree","address":"2285 E. 1500 S Road, Kankakee, Illinois, USA, 60901","title":"Three Sisters Garden"}},{"type":"Feature","geometry":{"type":"Point","coordinates":[-87.537498,41.4972]},"properties":{"url:moreinfo":"http:\/\/foodtree.com\/sources\/7009","urltitle:moreinfo":"Please visit Smits Farms on Foodtree","address":"3437 E. Sauk Trail, Chicago Heights, Illinois, USA, 60411","title":"Smits Farms"}},{"type":"Feature","geometry":{"type":"Point","coordinates":[-88.295197,42.5825]},"properties":{"url:moreinfo":"http:\/\/foodtree.com\/sources\/5665","urltitle:moreinfo":"Please visit River Valley Ranch on Foodtree","address":"39900 W. 60th Street, Burlington, Wisconsin, United States, 53105","title":"River Valley Ranch"}},{"type":"Feature","geometry":{"type":"Point","coordinates":[-90.265701,42.275799]},"properties":{"url:moreinfo":"http:\/\/foodtree.com\/sources\/5663","urltitle:moreinfo":"Please visit Mint Creek Farm on Foodtree","address":"1693 E. 3800 N. Road, Stelle, Illinois, United States, 60919","title":"Mint Creek Farm"}},{"type":"Feature","geometry":{"type":"Point","coordinates":[-86.435204,42.013401]},"properties":{"url:moreinfo":"http:\/\/foodtree.com\/sources\/6998","urltitle:moreinfo":"Please visit Mick Klug Farm on Foodtree","address":"5795 Scottdale Rd , St Joseph, Michigan, USA, 49085","title":"Mick Klug Farm"}},{"type":"Feature","geometry":{"type":"Point","coordinates":[-89.746803,41.3997]},"properties":{"url:moreinfo":"http:\/\/foodtree.com\/sources\/6997","urltitle:moreinfo":"Please visit Meadow Haven Farm on Foodtree","address":"17380 575 E. Street, Sheffield, Illinois, USA, 61361","title":"Meadow Haven Farm"}},{"type":"Feature","geometry":{"type":"Point","coordinates":[-86.4123,42.000198]},"properties":{"url:moreinfo":"http:\/\/foodtree.com\/sources\/6994","urltitle:moreinfo":"Please visit Leaning Shed Farm on Foodtree","address":"1845 Rocky Weed Road, Berrien Springs, Michigan, USA, 49103","title":"Leaning Shed Farm"}},{"type":"Feature","geometry":{"type":"Point","coordinates":[-86.735497,41.694]},"properties":{"url:moreinfo":"http:\/\/foodtree.com\/sources\/6989","urltitle:moreinfo":"Please visit Iron Creek Farms on Foodtree","address":"6022 Old State Road 39, LaPorte, Indiana, USA, 46350","title":"Iron Creek Farms"}},{"type":"Feature","geometry":{"type":"Point","coordinates":[-87.708199,41.0811]},"properties":{"url:moreinfo":"http:\/\/foodtree.com\/sources\/5658","urltitle:moreinfo":"Please visit Genesis Growers on Foodtree","address":"8373 E 3000 S Road, St. Anne, Illinois, United States, 60964","title":"Genesis Growers"}},{"type":"Feature","geometry":{"type":"Point","coordinates":[-86.2556,41.940498]},"properties":{"url:moreinfo":"http:\/\/foodtree.com\/sources\/6973","urltitle:moreinfo":"Please visit Earth First Farms on Foodtree","address":"8335 Smith Road, Berrien Center, Michigan, USA, 49102","title":"Earth First Farms"}},{"type":"Feature","geometry":{"type":"Point","coordinates":[-87.666199,42.008099]},"properties":{"url:moreinfo":"http:\/\/foodtree.com\/sources\/2598","urltitle:moreinfo":"Please visit Glenwood Sunday Market on Foodtree","address":"6950 N. Glenwood Ave., Cook, Chicago, ILLINOIS, USA, 60626","title":"Glenwood Sunday Market"}},{"type":"Feature","geometry":{"type":"Point","coordinates":[-87.705299,41.928001]},"properties":{"url:moreinfo":"http:\/\/foodtree.com\/sources\/2603","urltitle:moreinfo":"Please visit Logan Square Farmers Market on Foodtree","address":"3107 W Logan Blvd, Chicago, ILLINOIS, USA, 60647","title":"Logan Square Farmers Market"}},{"type":"Feature","geometry":{"type":"Point","coordinates":[-87.635696,41.922901]},"properties":{"url:moreinfo":"http:\/\/foodtree.com\/sources\/2591","urltitle:moreinfo":"Please visit Chicago's Green City Market on Foodtree","address":"N. Clark & Stockton Drive, Cook County, Chicago, Illinois, USA, 60614","title":"Chicago's Green City Market"}},{"type":"Feature","geometry":{"type":"Point","coordinates":[-87.65509,41.891103]},"properties":{"url:moreinfo":"http:\/\/foodtree.com\/sources\/7017","urltitle:moreinfo":"Please visit Zullo's on Foodtree","address":"1105 W. Grand, Chicago, Illinois, USA, 60618","title":"Zullo's"}}],"properties":{"title":"Zullo's - connections"}}