{"type":"FeatureCollection","features":[{"type":"Feature","geometry":{"type":"Point","coordinates":[-110.816006,32.22601]},"properties":{"url:moreinfo":"http:\/\/foodtree.com\/sources\/10209","urltitle:moreinfo":"Please visit Tucson Jesse Owens Park Farmers Market on Foodtree","address":"400 S. Sarnoff Drive, Tucson, Arizona, USA, 85710","title":"Tucson Jesse Owens Park Farmers Market"}},{"type":"Feature","geometry":{"type":"Point","coordinates":[-110.99408,32.235787]},"properties":{"url:moreinfo":"http:\/\/foodtree.com\/sources\/10207","urltitle:moreinfo":"Please visit Tucson Santa Cruz River Farmers Market on Foodtree","address":"Speedway & Riverview, Tucson, Arizona, USA, 85745","title":"Tucson Santa Cruz River Farmers Market"}},{"type":"Feature","geometry":{"type":"Point","coordinates":[-110.975797,32.24698]},"properties":{"url:moreinfo":"http:\/\/foodtree.com\/sources\/10208","urltitle:moreinfo":"Please visit Tucson Farmers Market at Maynard\u2019s on Foodtree","address":"225 W. Flores St, Tucson, Arizona, USA, 85705","title":"Tucson Farmers Market at Maynard\u2019s"}},{"type":"Feature","geometry":{"type":"Point","coordinates":[-112.421519,33.63999]},"properties":{"url:moreinfo":"http:\/\/foodtree.com\/sources\/10206","urltitle:moreinfo":"Please visit White Eagle Deli and Restaurant on Foodtree","address":"16846 W Bell Rd # 109, Surprise, Arizona, USA, 85374","title":"White Eagle Deli and Restaurant"}},{"type":"Feature","geometry":{"type":"Point","coordinates":[-110.943509,32.286217]},"properties":{"url:moreinfo":"http:\/\/foodtree.com\/sources\/10201","urltitle:moreinfo":"Please visit St. Philip's Plaza Saturday Farmers Market on Foodtree","address":"4380 N Campbell Ave, Tucson, Arizona, USA, 85718","title":"St. Philip's Plaza Saturday Farmers Market"}},{"type":"Feature","geometry":{"type":"Point","coordinates":[-111.160531,31.717885]},"properties":{"url:moreinfo":"http:\/\/foodtree.com\/sources\/10183","urltitle:moreinfo":"Please visit Walking J Farms on Foodtree","address":"10461 Arivaca Road, Amado, AZ, USA, 85645","title":"Walking J Farms"}}],"properties":{"title":"Walking J Farms - connections"}}