{"supplychain":{"category":37,"created":1328525686,"enable_comments":true,"flags":0,"id":1877,"modified":1331200258,"other_perms":1,"passcode":null,"user_featured":false,"usergroup_id":null,"usergroup_perms":0,"user_id":298,"owner":{"id":298,"name":"jorge","avatar":"http:\/\/prod-accountpics.s3-website-us-east-1.amazonaws.com\/jorge.jpg?AWSAccessKeyId=AKIAIDYFSB4C2GNEML7Q&Expires=1380254300&Signature=ELJ7qvvBkmyNHXB1TVITvx485m0%3D","banner_url":null,"display_name":"Jorge Zapico"},"taxonomy":null,"attributes":{"description":"Real data November 2011. Description by product.","sm:ui:co2e":"1","sm:ui:tileset":"cloudmade","tags":"","title":"Food for a month"},"stops":[{"local_stop_id":88,"id":88,"geometry":"POINT(2010976.582426 8251823.489735)","attributes":{"description":"","title":"Home","placename":"Stockholm, Sweden","address":"Stockholm Sweden"}},{"local_stop_id":87,"id":87,"geometry":"POINT(2075385.037924 8428326.96544)","attributes":{"description":"","title":"A-fil","placename":"Sweden","address":"Sweden"}},{"local_stop_id":86,"id":86,"geometry":"POINT(2075385.037924 8428326.96544)","attributes":{"description":"","title":"Milk","placename":"Sweden","address":"Sweden"}},{"local_stop_id":85,"id":85,"geometry":"POINT(2075385.037924 8428326.96544)","attributes":{"description":"","title":"Blueberry juice","placename":"Sweden","address":"Sweden"}},{"local_stop_id":84,"id":84,"geometry":"POINT(2075385.037924 8428326.96544)","attributes":{"description":"","title":"Bread","placename":"Sweden","address":"Sweden"}},{"local_stop_id":83,"id":83,"geometry":"POINT(2075385.037924 8428326.96544)","attributes":{"description":"","title":"Yoghourt","placename":"Sweden","address":"Sweden"}},{"local_stop_id":82,"id":82,"geometry":"POINT(-7964126.878919 -4256013.675159)","attributes":{"description":"","title":"Wine","placename":"Chile","address":"Chile"}},{"local_stop_id":81,"id":81,"geometry":"POINT(2075385.037924 8428326.96544)","attributes":{"description":"","title":"Potato","placename":"Sweden","address":"Sweden"}},{"local_stop_id":80,"id":80,"geometry":"POINT(-7964126.878919 -4256013.675159)","attributes":{"description":"","title":"Avocado","placename":"Chile","address":"Chile"}},{"local_stop_id":79,"id":79,"geometry":"POINT(2075385.037924 8428326.96544)","attributes":{"description":"","title":"Carrots","placename":"Sweden","address":"Sweden"}},{"local_stop_id":78,"id":78,"geometry":"POINT(2075385.037924 8428326.96544)","attributes":{"description":"","title":"Apple","placename":"Sweden","address":"Sweden"}},{"local_stop_id":77,"id":77,"geometry":"POINT(2075385.037924 8428326.96544)","attributes":{"description":"","title":"Egg","placename":"Sweden","address":"Sweden"}},{"local_stop_id":76,"id":76,"geometry":"POINT(1398994.342206 5141815.937641)","attributes":{"description":"","title":"Tomato can","placename":"Italy","address":"Italy"}},{"local_stop_id":75,"id":75,"geometry":"POINT(2075385.037924 8428326.96544)","attributes":{"description":"","title":"Polar bread","placename":"Sweden","address":"Sweden"}},{"local_stop_id":74,"id":74,"geometry":"POINT(2131226.790688 6785571.898792)","attributes":{"description":"","title":"Actimel","placename":"Poland","address":"Poland"}},{"local_stop_id":73,"id":73,"geometry":"POINT(855416.86029111 5632682.509095)","attributes":{"youtube:link":"","water":"0","energy":"0","co2e":"0","weight":"0","description":"","title":"Rice arborio","placename":"Italy","address":"Turin, Italy"}},{"local_stop_id":72,"id":72,"geometry":"POINT(1398994.3420108 5141815.9369254)","attributes":{"youtube:link":"","water":"0","energy":"0","co2e":"0","weight":"0","description":"","title":"Cous cous","address":"Italy"}},{"local_stop_id":71,"id":71,"geometry":"POINT(2075385.037924 8428326.96544)","attributes":{"description":"","title":"Whipping cream","placename":"Sweden","address":"Sweden"}},{"local_stop_id":70,"id":70,"geometry":"POINT(-6505937.618248 -2685620.33203)","attributes":{"description":"","title":"Sugar","placename":"Paraguay","address":"Paraguay"}},{"local_stop_id":69,"id":69,"geometry":"POINT(2075385.037924 8428326.96544)","attributes":{"description":"","title":"Onions","placename":"Sweden","address":"Sweden"}},{"local_stop_id":68,"id":68,"geometry":"POINT(2075385.037924 8428326.96544)","attributes":{"description":"","title":"Onion","placename":"Sweden","address":"Sweden"}},{"local_stop_id":67,"id":67,"geometry":"POINT(2075385.037924 8428326.96544)","attributes":{"description":"","title":"Beets","placename":"Sweden","address":"Sweden"}},{"local_stop_id":66,"id":66,"geometry":"POINT(2075385.037924 8428326.96544)","attributes":{"description":"","title":"Chicken","placename":"Sweden","address":"Sweden"}},{"local_stop_id":65,"id":65,"geometry":"POINT(2075385.037924 8428326.96544)","attributes":{"description":"","title":"Cheese Chedar","placename":"Sweden","address":"Sweden"}},{"local_stop_id":64,"id":64,"geometry":"POINT(2075385.037924 8428326.96544)","attributes":{"description":"","title":"Sausage","placename":"Sweden","address":"Sweden"}},{"local_stop_id":63,"id":63,"geometry":"POINT(2075385.037924 8428326.96544)","attributes":{"description":"","title":"Herbs","placename":"Sweden","address":"Sweden"}},{"local_stop_id":62,"id":62,"geometry":"POINT(-41945.729590571 4789254.908504)","attributes":{"youtube:link":"","water":"0","energy":"0","co2e":"0","weight":"0","description":"","title":"Clementines","placename":"Spain","address":"Valencia, Spain"}},{"local_stop_id":61,"id":61,"geometry":"POINT(497590.999399 6534001.856289)","attributes":{"description":"","title":"Rapeseed Oil","placename":"Belgium","address":"Belgium"}},{"local_stop_id":60,"id":60,"geometry":"POINT(589021.036772 6824142.821624)","attributes":{"description":"","title":"Leek","placename":"The Netherlands","address":"Holland"}},{"local_stop_id":59,"id":59,"geometry":"POINT(589021.036772 6824142.821624)","attributes":{"description":"","title":"Pumpkin","placename":"The Netherlands","address":"Holland"}},{"local_stop_id":58,"id":58,"geometry":"POINT(83325.778056807 4960485.7529289)","attributes":{"youtube:link":"","water":"0","energy":"0","co2e":"0","weight":"0","description":"","title":"Brown Rice","placename":"Spain","address":"Parc Natural del Delta de l'Ebre, Av Sant Jaume, 1, 43870 Amposta, Spain"}},{"local_stop_id":57,"id":57,"geometry":"POINT(2075385.037924 8428326.96544)","attributes":{"description":"","title":"Butter bregott","placename":"Sweden","address":"Sweden"}},{"local_stop_id":56,"id":56,"geometry":"POINT(942758.756276 8505587.038689)","attributes":{"description":"","title":"Salmon","placename":"Norway","address":"Norway"}},{"local_stop_id":55,"id":55,"geometry":"POINT(-382490.764739 7435586.530983)","attributes":{"description":"","title":"Quorn","placename":"United Kingdom","address":"UK"}},{"local_stop_id":54,"id":54,"geometry":"POINT(-125778.74603906 4577087.395737)","attributes":{"youtube:link":"","water":"0","energy":"0","co2e":"0","weight":"0","description":"","title":"Tomatoes","placename":"Spain","address":"Murcia, Spain"}},{"local_stop_id":53,"id":53,"geometry":"POINT(2429471.298754 4732306.812978)","attributes":{"description":"","title":"Kalamata olives","placename":"Greece","address":"Greece"}},{"local_stop_id":52,"id":52,"geometry":"POINT(2075385.037924 8428326.96544)","attributes":{"description":"","title":"Hard bread","placename":"Sweden","address":"Sweden"}},{"local_stop_id":51,"id":51,"geometry":"POINT(2075385.037924 8428326.96544)","attributes":{"description":"","title":"Cottage cheese","placename":"Sweden","address":"Sweden"}},{"local_stop_id":50,"id":50,"geometry":"POINT(2075385.037924 8428326.96544)","attributes":{"description":"","title":"Cream","placename":"Sweden","address":"Sweden"}},{"local_stop_id":49,"id":49,"geometry":"POINT(19468217.238607 -4997684.890551)","attributes":{"description":"","title":"Lamb","placename":"New Zealand","address":"New Zeeland","footprintmethodology":"\nCO2e factor referenced from \nLoijos, Alex. (2008) Life Cycle GHG Emissions of Foods\n","unit":"Kilogram","co2e":"12.3456","co2e_reference":"http:\/\/www.footprinted.org\/lamb16983543","weight":"0.5","energy":"0","water":"0","youtube:link":""}},{"local_stop_id":48,"id":48,"geometry":"POINT(2075385.037924 8428326.96544)","attributes":{"description":"","title":"Grounded beef","placename":"Sweden","address":"Sweden"}},{"local_stop_id":47,"id":47,"geometry":"POINT(2075385.037924 8428326.96544)","attributes":{"description":"","title":"Tomat","placename":"Sweden","address":"Sweden"}},{"local_stop_id":46,"id":46,"geometry":"POINT(-532012.73359375 4563154.3350199)","attributes":{"youtube:link":"","water":"0","energy":"0","co2e":"0","weight":"0","description":"","title":"Olive Oil","placename":"Spain","address":"Cordova, Spain"}},{"local_stop_id":45,"id":45,"geometry":"POINT(-125778.74603906 4577087.395737)","attributes":{"youtube:link":"","water":"0","energy":"0","co2e":"0","weight":"0","description":"","title":"Tomato cherry","placename":"Spain","address":"Murcia, Spain"}},{"local_stop_id":44,"id":44,"geometry":"POINT(1237767.99694 5791046.364878)","attributes":{"youtube:link":"","water":"0","energy":"0","co2e":"0","weight":"0","description":"","title":"Apple","placename":"Italy","address":"Trento, Italy"}},{"local_stop_id":43,"id":43,"geometry":"POINT(2685873.882274 9833678.0520566)","attributes":{"youtube:link":"","water":"0","energy":"0","co2e":"0","weight":"0","description":"","title":"Reindeer","placename":"Sweden","address":"Haparanda, Sweden"}},{"local_stop_id":42,"id":42,"geometry":"POINT(2299490.8093288 9483004.1335792)","attributes":{"youtube:link":"","water":"0","energy":"0","co2e":"0","weight":"0","description":"","title":"Cheese V\u00e4sterbotten","placename":"Sweden","address":"Burtr\u00e4sk, Sweden"}},{"local_stop_id":41,"id":41,"geometry":"POINT(2075385.037924 8428326.96544)","attributes":{"description":"","title":"Celery","placename":"Sweden","address":"Sweden"}},{"local_stop_id":40,"id":40,"geometry":"POINT(2075385.037924 8428326.96544)","attributes":{"description":"","title":"Crunchyrolls","placename":"Sweden","address":"Sweden"}},{"local_stop_id":39,"id":39,"geometry":"POINT(942758.756276 8505587.038689)","attributes":{"description":"","title":"Gravlax","placename":"Norway","address":"Norway"}},{"local_stop_id":38,"id":38,"geometry":"POINT(-7449511.1208395 6971829.4805783)","attributes":{"youtube:link":"","water":"0","energy":"0","co2e":"0","weight":"0","description":"","title":"Scallops","placename":"Canada","address":"Labrador City, NL, Canada"}},{"local_stop_id":37,"id":37,"geometry":"POINT(942758.756276 8505587.038689)","attributes":{"description":"","title":"Cod","placename":"Norway","address":"Norway"}},{"local_stop_id":36,"id":36,"geometry":"POINT(2075385.037924 8428326.96544)","attributes":{"description":"","title":"Pizza","placename":"Sweden","address":"Sweden"}},{"local_stop_id":35,"id":35,"geometry":"POINT(2075385.037924 8428326.96544)","attributes":{"description":"","title":"Rucola","placename":"Sweden","address":"Sweden"}},{"local_stop_id":34,"id":34,"geometry":"POINT(1398994.342206 5141815.937641)","attributes":{"description":"","title":"Black Eyed Peas","placename":"Italy","address":"Italy"}},{"local_stop_id":33,"id":33,"geometry":"POINT(2075385.037924 8428326.96544)","attributes":{"description":"","title":"Kale","placename":"Sweden","address":"Sweden"}},{"local_stop_id":32,"id":32,"geometry":"POINT(2075385.037924 8428326.96544)","attributes":{"description":"","title":"Fennel","placename":"Sweden","address":"Sweden"}},{"local_stop_id":31,"id":31,"geometry":"POINT(2075385.037924 8428326.96544)","attributes":{"description":"","title":"Tortilla","placename":"Sweden","address":"Sweden"}},{"local_stop_id":30,"id":30,"geometry":"POINT(1163458.552333 6650655.041174)","attributes":{"description":"","title":"Pizza","placename":"Germany","address":"Germany"}},{"local_stop_id":29,"id":29,"geometry":"POINT(2075385.037924 8428326.96544)","attributes":{"description":"","title":"Chunky Salsa","placename":"Sweden","address":"Sweden"}},{"local_stop_id":28,"id":28,"geometry":"POINT(-125778.74603906 4577087.395737)","attributes":{"youtube:link":"","water":"0","energy":"0","co2e":"0","weight":"0","description":"","title":"Zucchini","placename":"Spain","address":"Murcia, Spain"}},{"local_stop_id":27,"id":27,"geometry":"POINT(2075385.037924 8428326.96544)","attributes":{"description":"","title":"Butter","placename":"Sweden","address":"Sweden"}},{"local_stop_id":26,"id":26,"geometry":"POINT(2429471.298754 4732306.812978)","attributes":{"description":"","title":"Feta","placename":"Greece","address":"Greece"}},{"local_stop_id":25,"id":25,"geometry":"POINT(-8350648.52242 -1027437.355768)","attributes":{"description":"","title":"Asparragus","placename":"Peru","address":"Peru"}},{"local_stop_id":24,"id":24,"geometry":"POINT(19468217.238607 -4997684.890551)","attributes":{"description":"","title":"Gul kiwi","placename":"New Zealand","address":"New Zeeland"}},{"local_stop_id":23,"id":23,"geometry":"POINT(942758.756276 8505587.038689)","attributes":{"description":"","title":"Salmon","placename":"Norway","address":"Norway"}},{"local_stop_id":22,"id":22,"geometry":"POINT(2075385.037924 8428326.96544)","attributes":{"description":"","title":"Butter","placename":"Sweden","address":"Sweden"}},{"local_stop_id":21,"id":21,"geometry":"POINT(-13293543.424503 4408244.1333355)","attributes":{"co2e_reference":"http:\/\/www.footprinted.org\/raisingrapes49567537","unit":"Kilogram","footprintmethodology":"\nCO2e factor referenced from \nLoijos, Alex. (2008) Life Cycle GHG Emissions of Foods\n","youtube:link":"","water":"0","energy":"0","co2e":"0.401429","weight":"0.2","description":"","title":"Raisin grapes","placename":"United States","address":"California, USA"}},{"local_stop_id":20,"id":20,"geometry":"POINT(-125778.74603906 4577087.395737)","attributes":{"youtube:link":"","water":"0","energy":"0","co2e":"0","weight":"0","description":"","title":"Broccoli","placename":"Spain","address":"Murcia, Spain"}},{"local_stop_id":19,"id":19,"geometry":"POINT(1149880.0010607 5591324.4184333)","attributes":{"youtube:link":"","water":"0","energy":"0","co2e":"0","weight":"0","description":"","title":"Prosciutto","placename":"Italy","address":"Parma, Italy"}},{"local_stop_id":18,"id":18,"geometry":"POINT(2075385.037924 8428326.96544)","attributes":{"description":"","title":"Lasagne plates","placename":"Sweden","address":"Sweden"}},{"local_stop_id":17,"id":17,"geometry":"POINT(2075385.037924 8428326.96544)","attributes":{"description":"","title":"Creme Fraiche","placename":"Sweden","address":"Sweden"}},{"local_stop_id":16,"id":16,"geometry":"POINT(2075385.037924 8428326.96544)","attributes":{"description":"","title":"Pate","placename":"Sweden","address":"Sweden"}},{"local_stop_id":15,"id":15,"geometry":"POINT(915882.446336 5912448.054871)","attributes":{"description":"","title":"Chocolate","placename":"Switzerland","address":"Switzerland"}},{"local_stop_id":14,"id":14,"geometry":"POINT(2075385.037924 8428326.96544)","attributes":{"description":"","title":"Rutagaba","placename":"Sweden","address":"Sweden"}},{"local_stop_id":13,"id":13,"geometry":"POINT(2075385.037924 8428326.96544)","attributes":{"description":"","title":"Basil","placename":"Sweden","address":"Sweden"}},{"local_stop_id":12,"id":12,"geometry":"POINT(2075385.037924 8428326.96544)","attributes":{"description":"","title":"Shrimps","placename":"Sweden","address":"Sweden"}},{"local_stop_id":11,"id":11,"geometry":"POINT(1183080.649567 5573825.2034542)","attributes":{"youtube:link":"","water":"0","energy":"0","co2e":"0","weight":"0","description":"","title":"Parmesan cheese","placename":"Italy","address":"Reggio Emilia Province of Reggio Emilia, Italy"}},{"local_stop_id":10,"id":10,"geometry":"POINT(2075385.037924 8428326.96544)","attributes":{"description":"","title":"Pate","placename":"Sweden","address":"Sweden"}},{"local_stop_id":9,"id":9,"geometry":"POINT(2075385.037924 8428326.96544)","attributes":{"description":"","title":"Bean","placename":"Sweden","address":"Sweden"}},{"local_stop_id":8,"id":8,"geometry":"POINT(589021.036772 6824142.821624)","attributes":{"description":"","title":"Pepper","placename":"The Netherlands","address":"Holland"}},{"local_stop_id":7,"id":7,"geometry":"POINT(2075385.037924 8428326.96544)","attributes":{"description":"","title":"Sardins","placename":"Sweden","address":"Sweden"}},{"local_stop_id":6,"id":6,"geometry":"POINT(1398994.342206 5141815.937641)","attributes":{"description":"","title":"Capers","placename":"Italy","address":"Italy"}},{"local_stop_id":5,"id":5,"geometry":"POINT(2075385.037924 8428326.96544)","attributes":{"description":"","title":"Rucula","placename":"Sweden","address":"Sweden"}},{"local_stop_id":4,"id":4,"geometry":"POINT(2075385.037924 8428326.96544)","attributes":{"description":"","title":"Fish reduction","placename":"Sweden","address":"Sweden"}},{"local_stop_id":3,"id":3,"geometry":"POINT(2075385.037924 8428326.96544)","attributes":{"description":"","title":"Baby spinach","placename":"Sweden","address":"Sweden"}},{"local_stop_id":2,"id":2,"geometry":"POINT(5976525.942406 3819612.201442)","attributes":{"description":"","title":"Saffran","placename":"Iran","address":"Iran"}},{"local_stop_id":1,"id":1,"geometry":"POINT(-9391518.7105991 1497073.7625904)","attributes":{"title":"Retail coffee","address":"El Porvenir, Nicaragua","description":"","stop_instance_id":"stop-3520","supplychain_instance_id":"supplychain-1","weight":"0.5","co2e":"8.09537","energy":"0","water":"0","youtube:link":"","footprintmethodology":"\nCO2e factor referenced from \nLoijos, Alex. (2008) Life Cycle GHG Emissions of Foods\n","unit":"Kilogram","co2e_reference":"http:\/\/www.footprinted.org\/retailcoffee69298202","flickr:setid":"72157603502123926"}}],"hops":[{"from_stop_id":87,"to_stop_id":88,"geometry":"MULTILINESTRING((2075385.037924 8428326.96544,2010976.582426 8251823.489735))","attributes":{"title":"A-fil to Home","distance":"94.602335"}},{"from_stop_id":86,"to_stop_id":88,"geometry":"MULTILINESTRING((2075385.037924 8428326.96544,2010976.582426 8251823.489735))","attributes":{"distance":"94.602335","title":"Milk to Home"}},{"from_stop_id":85,"to_stop_id":88,"geometry":"MULTILINESTRING((2075385.037924 8428326.96544,2010976.582426 8251823.489735))","attributes":{"distance":"94.602335","title":"Blueberry juice to Home"}},{"from_stop_id":84,"to_stop_id":88,"geometry":"MULTILINESTRING((2075385.037924 8428326.96544,2010976.582426 8251823.489735))","attributes":{"distance":"94.602335","title":"Bread to Home"}},{"from_stop_id":83,"to_stop_id":88,"geometry":"MULTILINESTRING((2075385.037924 8428326.96544,2010976.582426 8251823.489735))","attributes":{"distance":"94.602335","title":"Yoghourt to Home"}},{"from_stop_id":82,"to_stop_id":88,"geometry":"MULTILINESTRING((-7964126.878919 -4256013.675159,2010976.582426 8251823.489735))","attributes":{"distance":"13334.351162","title":"Wine to Home"}},{"from_stop_id":81,"to_stop_id":88,"geometry":"MULTILINESTRING((2075385.037924 8428326.96544,2010976.582426 8251823.489735))","attributes":{"distance":"94.602335","title":"Potato to Home"}},{"from_stop_id":80,"to_stop_id":88,"geometry":"MULTILINESTRING((-7964126.878919 -4256013.675159,2010976.582426 8251823.489735))","attributes":{"title":"Avocado to Home","distance":"13334.351162"}},{"from_stop_id":79,"to_stop_id":88,"geometry":"MULTILINESTRING((2075385.037924 8428326.96544,2010976.582426 8251823.489735))","attributes":{"title":"Carrots to Home","distance":"94.602335"}},{"from_stop_id":78,"to_stop_id":88,"geometry":"MULTILINESTRING((2075385.037924 8428326.96544,2010976.582426 8251823.489735))","attributes":{"distance":"94.602335","title":"Apple to Home"}},{"from_stop_id":77,"to_stop_id":88,"geometry":"MULTILINESTRING((2075385.037924 8428326.96544,2010976.582426 8251823.489735))","attributes":{"distance":"94.602335","title":"Egg to Home"}},{"from_stop_id":76,"to_stop_id":88,"geometry":"MULTILINESTRING((1398994.342206 5141815.937641,2010976.582426 8251823.489735))","attributes":{"distance":"1977.896858","title":"Tomato can to Home"}},{"from_stop_id":75,"to_stop_id":88,"geometry":"MULTILINESTRING((2075385.037924 8428326.96544,2010976.582426 8251823.489735))","attributes":{"distance":"94.602335","title":"Polar bread to Home"}},{"from_stop_id":74,"to_stop_id":88,"geometry":"MULTILINESTRING((2131226.790688 6785571.898792,2010976.582426 8251823.489735))","attributes":{"title":"Actimel to Home","distance":"826.655683"}},{"from_stop_id":73,"to_stop_id":88,"geometry":"MULTILINESTRING((1398994.342206 5141815.937641,2010976.582426 8251823.489735))","attributes":{"title":"Rice arborio to Home","distance":"1977.896858"}},{"from_stop_id":72,"to_stop_id":88,"geometry":"MULTILINESTRING((0 0,2010976.582426 8251823.489735))","attributes":{"distance":"6781.770986","title":"Cous cous to Home"}},{"from_stop_id":71,"to_stop_id":88,"geometry":"MULTILINESTRING((2075385.037924 8428326.96544,2010976.582426 8251823.489735))","attributes":{"distance":"94.602335","title":"Whipping cream to Home"}},{"from_stop_id":70,"to_stop_id":88,"geometry":"MULTILINESTRING((-6505937.618248 -2685620.33203,2010976.582426 8251823.489735))","attributes":{"distance":"11505.706910","title":"Sugar to Home"}},{"from_stop_id":69,"to_stop_id":88,"geometry":"MULTILINESTRING((2075385.037924 8428326.96544,2010976.582426 8251823.489735))","attributes":{"title":"Onions to Home","distance":"94.602335"}},{"from_stop_id":68,"to_stop_id":88,"geometry":"MULTILINESTRING((2075385.037924 8428326.96544,2010976.582426 8251823.489735))","attributes":{"distance":"94.602335","title":"Onion to Home"}},{"from_stop_id":67,"to_stop_id":88,"geometry":"MULTILINESTRING((2075385.037924 8428326.96544,2010976.582426 8251823.489735))","attributes":{"distance":"94.602335","title":"Beets to Home"}},{"from_stop_id":66,"to_stop_id":88,"geometry":"MULTILINESTRING((2075385.037924 8428326.96544,2010976.582426 8251823.489735))","attributes":{"distance":"94.602335","title":"Chicken to Home"}},{"from_stop_id":65,"to_stop_id":88,"geometry":"MULTILINESTRING((2075385.037924 8428326.96544,2010976.582426 8251823.489735))","attributes":{"distance":"94.602335","title":"Cheese Chedar to Home"}},{"from_stop_id":64,"to_stop_id":88,"geometry":"MULTILINESTRING((2075385.037924 8428326.96544,2010976.582426 8251823.489735))","attributes":{"distance":"94.602335","title":"Sausage to Home"}},{"from_stop_id":63,"to_stop_id":88,"geometry":"MULTILINESTRING((2075385.037924 8428326.96544,2010976.582426 8251823.489735))","attributes":{"distance":"94.602335","title":"Herbs to Home"}},{"from_stop_id":62,"to_stop_id":88,"geometry":"MULTILINESTRING((-417361.261272 4933551.652462,2010976.582426 8251823.489735))","attributes":{"distance":"2590.116841","title":"Clementin to Home"}},{"from_stop_id":61,"to_stop_id":88,"geometry":"MULTILINESTRING((497590.999399 6534001.856289,2010976.582426 8251823.489735))","attributes":{"title":"Rapeseed Oil to Home","distance":"1305.739245"}},{"from_stop_id":60,"to_stop_id":88,"geometry":"MULTILINESTRING((589021.036772 6824142.821624,2010976.582426 8251823.489735))","attributes":{"distance":"1127.774886","title":"Leek to Home"}},{"from_stop_id":59,"to_stop_id":88,"geometry":"MULTILINESTRING((589021.036772 6824142.821624,2010976.582426 8251823.489735))","attributes":{"distance":"1127.774886","title":"Pumpkin to Home"}},{"from_stop_id":58,"to_stop_id":88,"geometry":"MULTILINESTRING((-417361.261272 4933551.652462,2010976.582426 8251823.489735))","attributes":{"title":"Brown Rice to Home","distance":"2590.116841"}},{"from_stop_id":57,"to_stop_id":88,"geometry":"MULTILINESTRING((2075385.037924 8428326.96544,2010976.582426 8251823.489735))","attributes":{"distance":"94.602335","title":"Butter bregott to Home"}},{"from_stop_id":56,"to_stop_id":88,"geometry":"MULTILINESTRING((942758.756276 8505587.038689,2010976.582426 8251823.489735))","attributes":{"distance":"549.462901","title":"Salmon to Home"}},{"from_stop_id":55,"to_stop_id":88,"geometry":"MULTILINESTRING((-382490.764739 7435586.530983,2010976.582426 8251823.489735))","attributes":{"title":"Quorn to Home","distance":"1355.390470"}},{"from_stop_id":54,"to_stop_id":88,"geometry":"MULTILINESTRING((-417361.261272 4933551.652462,2010976.582426 8251823.489735))","attributes":{"distance":"2590.116841","title":"Tomatoes to Home"}},{"from_stop_id":53,"to_stop_id":88,"geometry":"MULTILINESTRING((2429471.298754 4732306.812978,2010976.582426 8251823.489735))","attributes":{"distance":"2267.852452","title":"Kalamata olives to Home"}},{"from_stop_id":52,"to_stop_id":88,"geometry":"MULTILINESTRING((2075385.037924 8428326.96544,2010976.582426 8251823.489735))","attributes":{"title":"Hard bread to Home","distance":"94.602335"}},{"from_stop_id":51,"to_stop_id":88,"geometry":"MULTILINESTRING((2075385.037924 8428326.96544,2010976.582426 8251823.489735))","attributes":{"distance":"94.602335","title":"Cottage cheese to Home"}},{"from_stop_id":50,"to_stop_id":88,"geometry":"MULTILINESTRING((2075385.037924 8428326.96544,2010976.582426 8251823.489735))","attributes":{"distance":"94.602335","title":"Cream to Home"}},{"from_stop_id":49,"to_stop_id":88,"geometry":"MULTILINESTRING((19468217.238607 -4997684.890551,2010976.582426 8251823.489735))","attributes":{"title":"Lamb to Home","distance":"17410.596088"}},{"from_stop_id":48,"to_stop_id":88,"geometry":"MULTILINESTRING((2075385.037924 8428326.96544,2010976.582426 8251823.489735))","attributes":{"distance":"94.602335","title":"Grounded beef to Home"}},{"from_stop_id":47,"to_stop_id":88,"geometry":"MULTILINESTRING((2075385.037924 8428326.96544,2010976.582426 8251823.489735))","attributes":{"distance":"94.602335","title":"Tomat to Home"}},{"from_stop_id":46,"to_stop_id":88,"geometry":"MULTILINESTRING((-417361.261272 4933551.652462,2010976.582426 8251823.489735))","attributes":{"distance":"2590.116841","title":"Olive Oil to Home"}},{"from_stop_id":45,"to_stop_id":88,"geometry":"MULTILINESTRING((-417361.261272 4933551.652462,2010976.582426 8251823.489735))","attributes":{"distance":"2590.116841","title":"Tomato cherry to Home"}},{"from_stop_id":44,"to_stop_id":88,"geometry":"MULTILINESTRING((1398994.342206 5141815.937641,2010976.582426 8251823.489735))","attributes":{"distance":"1977.896858","title":"Apple to Home"}},{"from_stop_id":43,"to_stop_id":88,"geometry":"MULTILINESTRING((2075385.037924 8428326.96544,2010976.582426 8251823.489735))","attributes":{"title":"Reindeer to Home","distance":"94.602335"}},{"from_stop_id":42,"to_stop_id":88,"geometry":"MULTILINESTRING((2075385.037924 8428326.96544,2010976.582426 8251823.489735))","attributes":{"title":"Cheese V\u00e4sterbotten to Home","distance":"94.602335"}},{"from_stop_id":41,"to_stop_id":88,"geometry":"MULTILINESTRING((2075385.037924 8428326.96544,2010976.582426 8251823.489735))","attributes":{"title":"Celery to Home","distance":"94.602335"}},{"from_stop_id":40,"to_stop_id":88,"geometry":"MULTILINESTRING((2075385.037924 8428326.96544,2010976.582426 8251823.489735))","attributes":{"title":"Crunchyrolls to Home","distance":"94.602335"}},{"from_stop_id":39,"to_stop_id":88,"geometry":"MULTILINESTRING((942758.756276 8505587.038689,2010976.582426 8251823.489735))","attributes":{"distance":"549.462901","title":"Gravlax to Home"}},{"from_stop_id":38,"to_stop_id":88,"geometry":"MULTILINESTRING((-11838468.395229 7584411.732747,2010976.582426 8251823.489735))","attributes":{"distance":"6270.596180","title":"Scallops to Home"}},{"from_stop_id":37,"to_stop_id":88,"geometry":"MULTILINESTRING((942758.756276 8505587.038689,2010976.582426 8251823.489735))","attributes":{"distance":"549.462901","title":"Cod to Home"}},{"from_stop_id":36,"to_stop_id":88,"geometry":"MULTILINESTRING((2075385.037924 8428326.96544,2010976.582426 8251823.489735))","attributes":{"distance":"94.602335","title":"Pizza to Home"}},{"from_stop_id":35,"to_stop_id":88,"geometry":"MULTILINESTRING((2075385.037924 8428326.96544,2010976.582426 8251823.489735))","attributes":{"distance":"94.602335","title":"Rucola to Home"}},{"from_stop_id":34,"to_stop_id":88,"geometry":"MULTILINESTRING((1398994.342206 5141815.937641,2010976.582426 8251823.489735))","attributes":{"distance":"1977.896858","title":"Black Eyed Peas to Home"}},{"from_stop_id":33,"to_stop_id":88,"geometry":"MULTILINESTRING((2075385.037924 8428326.96544,2010976.582426 8251823.489735))","attributes":{"distance":"94.602335","title":"Kale to Home"}},{"from_stop_id":32,"to_stop_id":88,"geometry":"MULTILINESTRING((2075385.037924 8428326.96544,2010976.582426 8251823.489735))","attributes":{"distance":"94.602335","title":"Fennel to Home"}},{"from_stop_id":31,"to_stop_id":88,"geometry":"MULTILINESTRING((2075385.037924 8428326.96544,2010976.582426 8251823.489735))","attributes":{"title":"Tortilla to Home","distance":"94.602335"}},{"from_stop_id":30,"to_stop_id":88,"geometry":"MULTILINESTRING((1163458.552333 6650655.041174,2010976.582426 8251823.489735))","attributes":{"title":"Pizza to Home","distance":"1026.515437"}},{"from_stop_id":29,"to_stop_id":88,"geometry":"MULTILINESTRING((2075385.037924 8428326.96544,2010976.582426 8251823.489735))","attributes":{"title":"Chunky Salsa to Home","distance":"94.602335"}},{"from_stop_id":28,"to_stop_id":88,"geometry":"MULTILINESTRING((-417361.261272 4933551.652462,2010976.582426 8251823.489735))","attributes":{"distance":"2590.116841","title":"Zucchini to Home"}},{"from_stop_id":27,"to_stop_id":88,"geometry":"MULTILINESTRING((2075385.037924 8428326.96544,2010976.582426 8251823.489735))","attributes":{"title":"Butter to Home","distance":"94.602335"}},{"from_stop_id":26,"to_stop_id":88,"geometry":"MULTILINESTRING((2429471.298754 4732306.812978,2010976.582426 8251823.489735))","attributes":{"distance":"2267.852452","title":"Feta to Home"}},{"from_stop_id":25,"to_stop_id":88,"geometry":"MULTILINESTRING((-8350648.52242 -1027437.355768,2010976.582426 8251823.489735))","attributes":{"distance":"11059.865437","title":"Asparragus to Home"}},{"from_stop_id":24,"to_stop_id":88,"geometry":"MULTILINESTRING((19468217.238607 -4997684.890551,2010976.582426 8251823.489735))","attributes":{"title":"Gul kiwi to Home","distance":"17410.596088"}},{"from_stop_id":23,"to_stop_id":88,"geometry":"MULTILINESTRING((942758.756276 8505587.038689,2010976.582426 8251823.489735))","attributes":{"distance":"549.462901","title":"Salmon to Home"}},{"from_stop_id":22,"to_stop_id":88,"geometry":"MULTILINESTRING((2075385.037924 8428326.96544,2010976.582426 8251823.489735))","attributes":{"title":"Butter to Home","distance":"94.602335"}},{"from_stop_id":21,"to_stop_id":88,"geometry":"MULTILINESTRING((-10654710.288472 4451692.554811,2010976.582426 8251823.489735))","attributes":{"weight":"0.2","transportcat":"4.22774e-06","title":"Raisins to Home","distance":"7697.821874","co2e":"4.22774e-06","transport":"Oceanic Freight Ship","unit":"kg","description":"","youtube:link":""}},{"from_stop_id":20,"to_stop_id":88,"geometry":"MULTILINESTRING((-417361.261272 4933551.652462,2010976.582426 8251823.489735))","attributes":{"title":"Broccoli to Home","distance":"2590.116841"}},{"from_stop_id":19,"to_stop_id":88,"geometry":"MULTILINESTRING((1398994.342206 5141815.937641,2010976.582426 8251823.489735))","attributes":{"title":"Prosciutto to Home","distance":"1977.896858"}},{"from_stop_id":18,"to_stop_id":88,"geometry":"MULTILINESTRING((2075385.037924 8428326.96544,2010976.582426 8251823.489735))","attributes":{"distance":"94.602335","title":"Lasagne plates to Home"}},{"from_stop_id":17,"to_stop_id":88,"geometry":"MULTILINESTRING((2075385.037924 8428326.96544,2010976.582426 8251823.489735))","attributes":{"title":"Creme Fraiche to Home","distance":"94.602335"}},{"from_stop_id":16,"to_stop_id":88,"geometry":"MULTILINESTRING((2075385.037924 8428326.96544,2010976.582426 8251823.489735))","attributes":{"distance":"94.602335","title":"Pate to Home"}},{"from_stop_id":15,"to_stop_id":88,"geometry":"MULTILINESTRING((915882.446336 5912448.054871,2010976.582426 8251823.489735))","attributes":{"title":"Chocolate to Home","distance":"1534.796234"}},{"from_stop_id":14,"to_stop_id":88,"geometry":"MULTILINESTRING((2075385.037924 8428326.96544,2010976.582426 8251823.489735))","attributes":{"distance":"94.602335","title":"Rutagaba to Home"}},{"from_stop_id":13,"to_stop_id":88,"geometry":"MULTILINESTRING((2075385.037924 8428326.96544,2010976.582426 8251823.489735))","attributes":{"distance":"94.602335","title":"Basil to Home"}},{"from_stop_id":12,"to_stop_id":88,"geometry":"MULTILINESTRING((2075385.037924 8428326.96544,2010976.582426 8251823.489735))","attributes":{"distance":"94.602335","title":"Shrimps to Home"}},{"from_stop_id":11,"to_stop_id":88,"geometry":"MULTILINESTRING((1398994.342206 5141815.937641,2010976.582426 8251823.489735))","attributes":{"distance":"1977.896858","title":"Parmesan cheese to Home"}},{"from_stop_id":10,"to_stop_id":88,"geometry":"MULTILINESTRING((2075385.037924 8428326.96544,2010976.582426 8251823.489735))","attributes":{"title":"Pate to Home","distance":"94.602335"}},{"from_stop_id":9,"to_stop_id":88,"geometry":"MULTILINESTRING((2075385.037924 8428326.96544,2010976.582426 8251823.489735))","attributes":{"title":"Bean to Home","distance":"94.602335"}},{"from_stop_id":8,"to_stop_id":88,"geometry":"MULTILINESTRING((589021.036772 6824142.821624,2010976.582426 8251823.489735))","attributes":{"distance":"1127.774886","title":"Pepper to Home"}},{"from_stop_id":7,"to_stop_id":88,"geometry":"MULTILINESTRING((2075385.037924 8428326.96544,2010976.582426 8251823.489735))","attributes":{"title":"Sardins to Home","distance":"94.602335"}},{"from_stop_id":6,"to_stop_id":88,"geometry":"MULTILINESTRING((1398994.342206 5141815.937641,2010976.582426 8251823.489735))","attributes":{"distance":"1977.896858","title":"Capers to Home"}},{"from_stop_id":5,"to_stop_id":88,"geometry":"MULTILINESTRING((2075385.037924 8428326.96544,2010976.582426 8251823.489735))","attributes":{"title":"Rucula to Home","distance":"94.602335"}},{"from_stop_id":4,"to_stop_id":88,"geometry":"MULTILINESTRING((2075385.037924 8428326.96544,2010976.582426 8251823.489735))","attributes":{"title":"Fish reduction to Home","distance":"94.602335"}},{"from_stop_id":3,"to_stop_id":88,"geometry":"MULTILINESTRING((2075385.037924 8428326.96544,2010976.582426 8251823.489735))","attributes":{"distance":"94.602335","title":"Baby spinach to Home"}},{"from_stop_id":2,"to_stop_id":88,"geometry":"MULTILINESTRING((5976525.942406 3819612.201442,2010976.582426 8251823.489735))","attributes":{"distance":"3979.122836","title":"Saffran to Home"}},{"from_stop_id":1,"to_stop_id":88,"geometry":"MULTILINESTRING((-9391518.7105991 1497073.7625904,2010976.582426 8251823.489735))","attributes":{"footprintmethodology":"\nCO2e factor referenced from: \n(2010) Okala Design Guide 2010","title":"Coffee to Home","description":"","transportcat":"Method of Transportation","weight":"0.5","co2e":"4.79144e-05","youtube:link":"","co2e_reference":"http:\/\/footprinted.org\/container-ship9270853","transport":"Container ship","distance":"9424.346312"}}]},"editable":false}