{"type":"FeatureCollection","features":[{"type":"Feature","geometry":{"type":"Point","coordinates":[18.064909999997,59.328929999998]},"properties":{"description":"","title":"Home","placename":"Stockholm, Sweden","address":"Stockholm Sweden"}},{"type":"Feature","geometry":{"type":"Point","coordinates":[18.643501000001,60.128160999999]},"properties":{"description":"","title":"A-fil","placename":"Sweden","address":"Sweden"}},{"type":"Feature","geometry":{"type":"Point","coordinates":[18.643501000001,60.128160999999]},"properties":{"description":"","title":"Milk","placename":"Sweden","address":"Sweden"}},{"type":"Feature","geometry":{"type":"Point","coordinates":[18.643501000001,60.128160999999]},"properties":{"description":"","title":"Blueberry juice","placename":"Sweden","address":"Sweden"}},{"type":"Feature","geometry":{"type":"Point","coordinates":[18.643501000001,60.128160999999]},"properties":{"description":"","title":"Bread","placename":"Sweden","address":"Sweden"}},{"type":"Feature","geometry":{"type":"Point","coordinates":[18.643501000001,60.128160999999]},"properties":{"description":"","title":"Yoghourt","placename":"Sweden","address":"Sweden"}},{"type":"Feature","geometry":{"type":"Point","coordinates":[-71.542969,-35.675146999998]},"properties":{"description":"","title":"Wine","placename":"Chile","address":"Chile"}},{"type":"Feature","geometry":{"type":"Point","coordinates":[18.643501000001,60.128160999999]},"properties":{"description":"","title":"Potato","placename":"Sweden","address":"Sweden"}},{"type":"Feature","geometry":{"type":"Point","coordinates":[-71.542969,-35.675146999998]},"properties":{"description":"","title":"Avocado","placename":"Chile","address":"Chile"}},{"type":"Feature","geometry":{"type":"Point","coordinates":[18.643501000001,60.128160999999]},"properties":{"description":"","title":"Carrots","placename":"Sweden","address":"Sweden"}},{"type":"Feature","geometry":{"type":"Point","coordinates":[18.643501000001,60.128160999999]},"properties":{"description":"","title":"Apple","placename":"Sweden","address":"Sweden"}},{"type":"Feature","geometry":{"type":"Point","coordinates":[18.643501000001,60.128160999999]},"properties":{"description":"","title":"Egg","placename":"Sweden","address":"Sweden"}},{"type":"Feature","geometry":{"type":"Point","coordinates":[12.567380000004,41.871939999999]},"properties":{"description":"","title":"Tomato can","placename":"Italy","address":"Italy"}},{"type":"Feature","geometry":{"type":"Point","coordinates":[18.643501000001,60.128160999999]},"properties":{"description":"","title":"Polar bread","placename":"Sweden","address":"Sweden"}},{"type":"Feature","geometry":{"type":"Point","coordinates":[19.145136,51.919437999998]},"properties":{"description":"","title":"Actimel","placename":"Poland","address":"Poland"}},{"type":"Feature","geometry":{"type":"Point","coordinates":[7.6843403989304,45.070851495026]},"properties":{"youtube:link":"","water":"0","energy":"0","co2e":"0","weight":"0","description":"","title":"Rice arborio","placename":"Italy","address":"Turin, Italy"}},{"type":"Feature","geometry":{"type":"Point","coordinates":[12.56737999825,41.871939995212]},"properties":{"youtube:link":"","water":"0","energy":"0","co2e":"0","weight":"0","description":"","title":"Cous cous","address":"Italy"}},{"type":"Feature","geometry":{"type":"Point","coordinates":[18.643501000001,60.128160999999]},"properties":{"description":"","title":"Whipping cream","placename":"Sweden","address":"Sweden"}},{"type":"Feature","geometry":{"type":"Point","coordinates":[-58.443832000003,-23.442502999998]},"properties":{"description":"","title":"Sugar","placename":"Paraguay","address":"Paraguay"}},{"type":"Feature","geometry":{"type":"Point","coordinates":[18.643501000001,60.128160999999]},"properties":{"description":"","title":"Onions","placename":"Sweden","address":"Sweden"}},{"type":"Feature","geometry":{"type":"Point","coordinates":[18.643501000001,60.128160999999]},"properties":{"description":"","title":"Onion","placename":"Sweden","address":"Sweden"}},{"type":"Feature","geometry":{"type":"Point","coordinates":[18.643501000001,60.128160999999]},"properties":{"description":"","title":"Beets","placename":"Sweden","address":"Sweden"}},{"type":"Feature","geometry":{"type":"Point","coordinates":[18.643501000001,60.128160999999]},"properties":{"description":"","title":"Chicken","placename":"Sweden","address":"Sweden"}},{"type":"Feature","geometry":{"type":"Point","coordinates":[18.643501000001,60.128160999999]},"properties":{"description":"","title":"Cheese Chedar","placename":"Sweden","address":"Sweden"}},{"type":"Feature","geometry":{"type":"Point","coordinates":[18.643501000001,60.128160999999]},"properties":{"description":"","title":"Sausage","placename":"Sweden","address":"Sweden"}},{"type":"Feature","geometry":{"type":"Point","coordinates":[18.643501000001,60.128160999999]},"properties":{"description":"","title":"Herbs","placename":"Sweden","address":"Sweden"}},{"type":"Feature","geometry":{"type":"Point","coordinates":[-0.37680489994754,39.470239295377]},"properties":{"youtube:link":"","water":"0","energy":"0","co2e":"0","weight":"0","description":"","title":"Clementines","placename":"Spain","address":"Valencia, Spain"}},{"type":"Feature","geometry":{"type":"Point","coordinates":[4.4699360000043,50.503887000001]},"properties":{"description":"","title":"Rapeseed Oil","placename":"Belgium","address":"Belgium"}},{"type":"Feature","geometry":{"type":"Point","coordinates":[5.2912660000021,52.132633000001]},"properties":{"description":"","title":"Leek","placename":"The Netherlands","address":"Holland"}},{"type":"Feature","geometry":{"type":"Point","coordinates":[5.2912660000021,52.132633000001]},"properties":{"description":"","title":"Pumpkin","placename":"The Netherlands","address":"Holland"}},{"type":"Feature","geometry":{"type":"Point","coordinates":[0.74852819989581,40.647496895294]},"properties":{"youtube:link":"","water":"0","energy":"0","co2e":"0","weight":"0","description":"","title":"Brown Rice","placename":"Spain","address":"Parc Natural del Delta de l'Ebre, Av Sant Jaume, 1, 43870 Amposta, Spain"}},{"type":"Feature","geometry":{"type":"Point","coordinates":[18.643501000001,60.128160999999]},"properties":{"description":"","title":"Butter bregott","placename":"Sweden","address":"Sweden"}},{"type":"Feature","geometry":{"type":"Point","coordinates":[8.4689460000024,60.472024]},"properties":{"description":"","title":"Salmon","placename":"Norway","address":"Norway"}},{"type":"Feature","geometry":{"type":"Point","coordinates":[-3.4359729999961,55.378051000001]},"properties":{"description":"","title":"Quorn","placename":"United Kingdom","address":"UK"}},{"type":"Feature","geometry":{"type":"Point","coordinates":[-1.1298896998428,37.983444895489]},"properties":{"youtube:link":"","water":"0","energy":"0","co2e":"0","weight":"0","description":"","title":"Tomatoes","placename":"Spain","address":"Murcia, Spain"}},{"type":"Feature","geometry":{"type":"Point","coordinates":[21.824312000004,39.074207999997]},"properties":{"description":"","title":"Kalamata olives","placename":"Greece","address":"Greece"}},{"type":"Feature","geometry":{"type":"Point","coordinates":[18.643501000001,60.128160999999]},"properties":{"description":"","title":"Hard bread","placename":"Sweden","address":"Sweden"}},{"type":"Feature","geometry":{"type":"Point","coordinates":[18.643501000001,60.128160999999]},"properties":{"description":"","title":"Cottage cheese","placename":"Sweden","address":"Sweden"}},{"type":"Feature","geometry":{"type":"Point","coordinates":[18.643501000001,60.128160999999]},"properties":{"description":"","title":"Cream","placename":"Sweden","address":"Sweden"}},{"type":"Feature","geometry":{"type":"Point","coordinates":[174.885971,-40.900556999999]},"properties":{"description":"","title":"Lamb","placename":"New Zealand","address":"New Zeeland","footprintmethodology":"\nCO2e factor referenced from \nLoijos, Alex. (2008) Life Cycle GHG Emissions of Foods\n","unit":"Kilogram","co2e":"12.3456","co2e_reference":"http:\/\/www.footprinted.org\/lamb16983543","weight":"0.5","energy":"0","water":"0","youtube:link":""}},{"type":"Feature","geometry":{"type":"Point","coordinates":[18.643501000001,60.128160999999]},"properties":{"description":"","title":"Grounded beef","placename":"Sweden","address":"Sweden"}},{"type":"Feature","geometry":{"type":"Point","coordinates":[18.643501000001,60.128160999999]},"properties":{"description":"","title":"Tomat","placename":"Sweden","address":"Sweden"}},{"type":"Feature","geometry":{"type":"Point","coordinates":[-4.7791516993347,37.884726695496]},"properties":{"youtube:link":"","water":"0","energy":"0","co2e":"0","weight":"0","description":"","title":"Olive Oil","placename":"Spain","address":"Cordova, Spain"}},{"type":"Feature","geometry":{"type":"Point","coordinates":[-1.1298896998428,37.983444895489]},"properties":{"youtube:link":"","water":"0","energy":"0","co2e":"0","weight":"0","description":"","title":"Tomato cherry","placename":"Spain","address":"Murcia, Spain"}},{"type":"Feature","geometry":{"type":"Point","coordinates":[11.119059098452,46.066712294976]},"properties":{"youtube:link":"","water":"0","energy":"0","co2e":"0","weight":"0","description":"","title":"Apple","placename":"Italy","address":"Trento, Italy"}},{"type":"Feature","geometry":{"type":"Point","coordinates":[24.127615596642,65.841785894967]},"properties":{"youtube:link":"","water":"0","energy":"0","co2e":"0","weight":"0","description":"","title":"Reindeer","placename":"Sweden","address":"Haparanda, Sweden"}},{"type":"Feature","geometry":{"type":"Point","coordinates":[20.656677397124,64.519790694898]},"properties":{"youtube:link":"","water":"0","energy":"0","co2e":"0","weight":"0","description":"","title":"Cheese V\u00e4sterbotten","placename":"Sweden","address":"Burtr\u00e4sk, Sweden"}},{"type":"Feature","geometry":{"type":"Point","coordinates":[18.643501000001,60.128160999999]},"properties":{"description":"","title":"Celery","placename":"Sweden","address":"Sweden"}},{"type":"Feature","geometry":{"type":"Point","coordinates":[18.643501000001,60.128160999999]},"properties":{"description":"","title":"Crunchyrolls","placename":"Sweden","address":"Sweden"}},{"type":"Feature","geometry":{"type":"Point","coordinates":[8.4689460000024,60.472024]},"properties":{"description":"","title":"Gravlax","placename":"Norway","address":"Norway"}},{"type":"Feature","geometry":{"type":"Point","coordinates":[-66.920096990685,52.939578994746]},"properties":{"youtube:link":"","water":"0","energy":"0","co2e":"0","weight":"0","description":"","title":"Scallops","placename":"Canada","address":"Labrador City, NL, Canada"}},{"type":"Feature","geometry":{"type":"Point","coordinates":[8.4689460000024,60.472024]},"properties":{"description":"","title":"Cod","placename":"Norway","address":"Norway"}},{"type":"Feature","geometry":{"type":"Point","coordinates":[18.643501000001,60.128160999999]},"properties":{"description":"","title":"Pizza","placename":"Sweden","address":"Sweden"}},{"type":"Feature","geometry":{"type":"Point","coordinates":[18.643501000001,60.128160999999]},"properties":{"description":"","title":"Rucola","placename":"Sweden","address":"Sweden"}},{"type":"Feature","geometry":{"type":"Point","coordinates":[12.567380000004,41.871939999999]},"properties":{"description":"","title":"Black Eyed Peas","placename":"Italy","address":"Italy"}},{"type":"Feature","geometry":{"type":"Point","coordinates":[18.643501000001,60.128160999999]},"properties":{"description":"","title":"Kale","placename":"Sweden","address":"Sweden"}},{"type":"Feature","geometry":{"type":"Point","coordinates":[18.643501000001,60.128160999999]},"properties":{"description":"","title":"Fennel","placename":"Sweden","address":"Sweden"}},{"type":"Feature","geometry":{"type":"Point","coordinates":[18.643501000001,60.128160999999]},"properties":{"description":"","title":"Tortilla","placename":"Sweden","address":"Sweden"}},{"type":"Feature","geometry":{"type":"Point","coordinates":[10.451526000003,51.165690999999]},"properties":{"description":"","title":"Pizza","placename":"Germany","address":"Germany"}},{"type":"Feature","geometry":{"type":"Point","coordinates":[18.643501000001,60.128160999999]},"properties":{"description":"","title":"Chunky Salsa","placename":"Sweden","address":"Sweden"}},{"type":"Feature","geometry":{"type":"Point","coordinates":[-1.1298896998428,37.983444895489]},"properties":{"youtube:link":"","water":"0","energy":"0","co2e":"0","weight":"0","description":"","title":"Zucchini","placename":"Spain","address":"Murcia, Spain"}},{"type":"Feature","geometry":{"type":"Point","coordinates":[18.643501000001,60.128160999999]},"properties":{"description":"","title":"Butter","placename":"Sweden","address":"Sweden"}},{"type":"Feature","geometry":{"type":"Point","coordinates":[21.824312000004,39.074207999997]},"properties":{"description":"","title":"Feta","placename":"Greece","address":"Greece"}},{"type":"Feature","geometry":{"type":"Point","coordinates":[-75.015152,-9.1899670000004]},"properties":{"description":"","title":"Asparragus","placename":"Peru","address":"Peru"}},{"type":"Feature","geometry":{"type":"Point","coordinates":[174.885971,-40.900556999999]},"properties":{"description":"","title":"Gul kiwi","placename":"New Zealand","address":"New Zeeland"}},{"type":"Feature","geometry":{"type":"Point","coordinates":[8.4689460000024,60.472024]},"properties":{"description":"","title":"Salmon","placename":"Norway","address":"Norway"}},{"type":"Feature","geometry":{"type":"Point","coordinates":[18.643501000001,60.128160999999]},"properties":{"description":"","title":"Butter","placename":"Sweden","address":"Sweden"}},{"type":"Feature","geometry":{"type":"Point","coordinates":[-119.41793238338,36.778260995585]},"properties":{"co2e_reference":"http:\/\/www.footprinted.org\/raisingrapes49567537","unit":"Kilogram","footprintmethodology":"\nCO2e factor referenced from \nLoijos, Alex. (2008) Life Cycle GHG Emissions of Foods\n","youtube:link":"","water":"0","energy":"0","co2e":"0.401429","weight":"0.2","description":"","title":"Raisin grapes","placename":"United States","address":"California, USA"}},{"type":"Feature","geometry":{"type":"Point","coordinates":[-1.1298896998428,37.983444895489]},"properties":{"youtube:link":"","water":"0","energy":"0","co2e":"0","weight":"0","description":"","title":"Broccoli","placename":"Spain","address":"Murcia, Spain"}},{"type":"Feature","geometry":{"type":"Point","coordinates":[10.329547798562,44.80786569504]},"properties":{"youtube:link":"","water":"0","energy":"0","co2e":"0","weight":"0","description":"","title":"Prosciutto","placename":"Italy","address":"Parma, Italy"}},{"type":"Feature","geometry":{"type":"Point","coordinates":[18.643501000001,60.128160999999]},"properties":{"description":"","title":"Lasagne plates","placename":"Sweden","address":"Sweden"}},{"type":"Feature","geometry":{"type":"Point","coordinates":[18.643501000001,60.128160999999]},"properties":{"description":"","title":"Creme Fraiche","placename":"Sweden","address":"Sweden"}},{"type":"Feature","geometry":{"type":"Point","coordinates":[18.643501000001,60.128160999999]},"properties":{"description":"","title":"Pate","placename":"Sweden","address":"Sweden"}},{"type":"Feature","geometry":{"type":"Point","coordinates":[8.2275120000041,46.818187999999]},"properties":{"description":"","title":"Chocolate","placename":"Switzerland","address":"Switzerland"}},{"type":"Feature","geometry":{"type":"Point","coordinates":[18.643501000001,60.128160999999]},"properties":{"description":"","title":"Rutagaba","placename":"Sweden","address":"Sweden"}},{"type":"Feature","geometry":{"type":"Point","coordinates":[18.643501000001,60.128160999999]},"properties":{"description":"","title":"Basil","placename":"Sweden","address":"Sweden"}},{"type":"Feature","geometry":{"type":"Point","coordinates":[18.643501000001,60.128160999999]},"properties":{"description":"","title":"Shrimps","placename":"Sweden","address":"Sweden"}},{"type":"Feature","geometry":{"type":"Point","coordinates":[10.627794298521,44.696229895045]},"properties":{"youtube:link":"","water":"0","energy":"0","co2e":"0","weight":"0","description":"","title":"Parmesan cheese","placename":"Italy","address":"Reggio Emilia Province of Reggio Emilia, Italy"}},{"type":"Feature","geometry":{"type":"Point","coordinates":[18.643501000001,60.128160999999]},"properties":{"description":"","title":"Pate","placename":"Sweden","address":"Sweden"}},{"type":"Feature","geometry":{"type":"Point","coordinates":[18.643501000001,60.128160999999]},"properties":{"description":"","title":"Bean","placename":"Sweden","address":"Sweden"}},{"type":"Feature","geometry":{"type":"Point","coordinates":[5.2912660000021,52.132633000001]},"properties":{"description":"","title":"Pepper","placename":"The Netherlands","address":"Holland"}},{"type":"Feature","geometry":{"type":"Point","coordinates":[18.643501000001,60.128160999999]},"properties":{"description":"","title":"Sardins","placename":"Sweden","address":"Sweden"}},{"type":"Feature","geometry":{"type":"Point","coordinates":[12.567380000004,41.871939999999]},"properties":{"description":"","title":"Capers","placename":"Italy","address":"Italy"}},{"type":"Feature","geometry":{"type":"Point","coordinates":[18.643501000001,60.128160999999]},"properties":{"description":"","title":"Rucula","placename":"Sweden","address":"Sweden"}},{"type":"Feature","geometry":{"type":"Point","coordinates":[18.643501000001,60.128160999999]},"properties":{"description":"","title":"Fish reduction","placename":"Sweden","address":"Sweden"}},{"type":"Feature","geometry":{"type":"Point","coordinates":[18.643501000001,60.128160999999]},"properties":{"description":"","title":"Baby spinach","placename":"Sweden","address":"Sweden"}},{"type":"Feature","geometry":{"type":"Point","coordinates":[53.688046000001,32.427908000001]},"properties":{"description":"","title":"Saffran","placename":"Iran","address":"Iran"}},{"type":"Feature","geometry":{"type":"Point","coordinates":[-84.365447988256,13.326629998178]},"properties":{"title":"Retail coffee","address":"El Porvenir, Nicaragua","description":"","stop_instance_id":"stop-3520","supplychain_instance_id":"supplychain-1","weight":"0.5","co2e":"8.09537","energy":"0","water":"0","youtube:link":"","footprintmethodology":"\nCO2e factor referenced from \nLoijos, Alex. (2008) Life Cycle GHG Emissions of Foods\n","unit":"Kilogram","co2e_reference":"http:\/\/www.footprinted.org\/retailcoffee69298202","flickr:setid":"72157603502123926"}},{"type":"Feature","geometry":{"type":"LineString","coordinates":[[18.643501000001,60.128160999999],[18.064909999997,59.328929999998]]},"properties":{"title":"A-fil to Home","distance":"94.602335"}},{"type":"Feature","geometry":{"type":"LineString","coordinates":[[18.643501000001,60.128160999999],[18.064909999997,59.328929999998]]},"properties":{"distance":"94.602335","title":"Milk to Home"}},{"type":"Feature","geometry":{"type":"LineString","coordinates":[[18.643501000001,60.128160999999],[18.064909999997,59.328929999998]]},"properties":{"distance":"94.602335","title":"Blueberry juice to Home"}},{"type":"Feature","geometry":{"type":"LineString","coordinates":[[18.643501000001,60.128160999999],[18.064909999997,59.328929999998]]},"properties":{"distance":"94.602335","title":"Bread to Home"}},{"type":"Feature","geometry":{"type":"LineString","coordinates":[[18.643501000001,60.128160999999],[18.064909999997,59.328929999998]]},"properties":{"distance":"94.602335","title":"Yoghourt to Home"}},{"type":"Feature","geometry":{"type":"LineString","coordinates":[[-71.542969,-35.675146999998],[18.064909999997,59.328929999998]]},"properties":{"distance":"13334.351162","title":"Wine to Home"}},{"type":"Feature","geometry":{"type":"LineString","coordinates":[[18.643501000001,60.128160999999],[18.064909999997,59.328929999998]]},"properties":{"distance":"94.602335","title":"Potato to Home"}},{"type":"Feature","geometry":{"type":"LineString","coordinates":[[-71.542969,-35.675146999998],[18.064909999997,59.328929999998]]},"properties":{"title":"Avocado to Home","distance":"13334.351162"}},{"type":"Feature","geometry":{"type":"LineString","coordinates":[[18.643501000001,60.128160999999],[18.064909999997,59.328929999998]]},"properties":{"title":"Carrots to Home","distance":"94.602335"}},{"type":"Feature","geometry":{"type":"LineString","coordinates":[[18.643501000001,60.128160999999],[18.064909999997,59.328929999998]]},"properties":{"distance":"94.602335","title":"Apple to Home"}},{"type":"Feature","geometry":{"type":"LineString","coordinates":[[18.643501000001,60.128160999999],[18.064909999997,59.328929999998]]},"properties":{"distance":"94.602335","title":"Egg to Home"}},{"type":"Feature","geometry":{"type":"LineString","coordinates":[[12.567380000004,41.871939999999],[18.064909999997,59.328929999998]]},"properties":{"distance":"1977.896858","title":"Tomato can to Home"}},{"type":"Feature","geometry":{"type":"LineString","coordinates":[[18.643501000001,60.128160999999],[18.064909999997,59.328929999998]]},"properties":{"distance":"94.602335","title":"Polar bread to Home"}},{"type":"Feature","geometry":{"type":"LineString","coordinates":[[19.145136,51.919437999998],[18.064909999997,59.328929999998]]},"properties":{"title":"Actimel to Home","distance":"826.655683"}},{"type":"Feature","geometry":{"type":"LineString","coordinates":[[12.567380000004,41.871939999999],[18.064909999997,59.328929999998]]},"properties":{"title":"Rice arborio to Home","distance":"1977.896858"}},{"type":"Feature","geometry":{"type":"LineString","coordinates":[[0,0],[18.064909999997,59.328929999998]]},"properties":{"distance":"6781.770986","title":"Cous cous to Home"}},{"type":"Feature","geometry":{"type":"LineString","coordinates":[[18.643501000001,60.128160999999],[18.064909999997,59.328929999998]]},"properties":{"distance":"94.602335","title":"Whipping cream to Home"}},{"type":"Feature","geometry":{"type":"LineString","coordinates":[[-58.443832000003,-23.442502999998],[18.064909999997,59.328929999998]]},"properties":{"distance":"11505.706910","title":"Sugar to Home"}},{"type":"Feature","geometry":{"type":"LineString","coordinates":[[18.643501000001,60.128160999999],[18.064909999997,59.328929999998]]},"properties":{"title":"Onions to Home","distance":"94.602335"}},{"type":"Feature","geometry":{"type":"LineString","coordinates":[[18.643501000001,60.128160999999],[18.064909999997,59.328929999998]]},"properties":{"distance":"94.602335","title":"Onion to Home"}},{"type":"Feature","geometry":{"type":"LineString","coordinates":[[18.643501000001,60.128160999999],[18.064909999997,59.328929999998]]},"properties":{"distance":"94.602335","title":"Beets to Home"}},{"type":"Feature","geometry":{"type":"LineString","coordinates":[[18.643501000001,60.128160999999],[18.064909999997,59.328929999998]]},"properties":{"distance":"94.602335","title":"Chicken to Home"}},{"type":"Feature","geometry":{"type":"LineString","coordinates":[[18.643501000001,60.128160999999],[18.064909999997,59.328929999998]]},"properties":{"distance":"94.602335","title":"Cheese Chedar to Home"}},{"type":"Feature","geometry":{"type":"LineString","coordinates":[[18.643501000001,60.128160999999],[18.064909999997,59.328929999998]]},"properties":{"distance":"94.602335","title":"Sausage to Home"}},{"type":"Feature","geometry":{"type":"LineString","coordinates":[[18.643501000001,60.128160999999],[18.064909999997,59.328929999998]]},"properties":{"distance":"94.602335","title":"Herbs to Home"}},{"type":"Feature","geometry":{"type":"LineString","coordinates":[[-3.7492200000004,40.463667000002],[18.064909999997,59.328929999998]]},"properties":{"distance":"2590.116841","title":"Clementin to Home"}},{"type":"Feature","geometry":{"type":"LineString","coordinates":[[4.4699360000043,50.503887000001],[18.064909999997,59.328929999998]]},"properties":{"title":"Rapeseed Oil to Home","distance":"1305.739245"}},{"type":"Feature","geometry":{"type":"LineString","coordinates":[[5.2912660000021,52.132633000001],[18.064909999997,59.328929999998]]},"properties":{"distance":"1127.774886","title":"Leek to Home"}},{"type":"Feature","geometry":{"type":"LineString","coordinates":[[5.2912660000021,52.132633000001],[18.064909999997,59.328929999998]]},"properties":{"distance":"1127.774886","title":"Pumpkin to Home"}},{"type":"Feature","geometry":{"type":"LineString","coordinates":[[-3.7492200000004,40.463667000002],[18.064909999997,59.328929999998]]},"properties":{"title":"Brown Rice to Home","distance":"2590.116841"}},{"type":"Feature","geometry":{"type":"LineString","coordinates":[[18.643501000001,60.128160999999],[18.064909999997,59.328929999998]]},"properties":{"distance":"94.602335","title":"Butter bregott to Home"}},{"type":"Feature","geometry":{"type":"LineString","coordinates":[[8.4689460000024,60.472024],[18.064909999997,59.328929999998]]},"properties":{"distance":"549.462901","title":"Salmon to Home"}},{"type":"Feature","geometry":{"type":"LineString","coordinates":[[-3.4359729999961,55.378051000001],[18.064909999997,59.328929999998]]},"properties":{"title":"Quorn to Home","distance":"1355.390470"}},{"type":"Feature","geometry":{"type":"LineString","coordinates":[[-3.7492200000004,40.463667000002],[18.064909999997,59.328929999998]]},"properties":{"distance":"2590.116841","title":"Tomatoes to Home"}},{"type":"Feature","geometry":{"type":"LineString","coordinates":[[21.824312000004,39.074207999997],[18.064909999997,59.328929999998]]},"properties":{"distance":"2267.852452","title":"Kalamata olives to Home"}},{"type":"Feature","geometry":{"type":"LineString","coordinates":[[18.643501000001,60.128160999999],[18.064909999997,59.328929999998]]},"properties":{"title":"Hard bread to Home","distance":"94.602335"}},{"type":"Feature","geometry":{"type":"LineString","coordinates":[[18.643501000001,60.128160999999],[18.064909999997,59.328929999998]]},"properties":{"distance":"94.602335","title":"Cottage cheese to Home"}},{"type":"Feature","geometry":{"type":"LineString","coordinates":[[18.643501000001,60.128160999999],[18.064909999997,59.328929999998]]},"properties":{"distance":"94.602335","title":"Cream to Home"}},{"type":"Feature","geometry":{"type":"LineString","coordinates":[[174.885971,-40.900556999999],[18.064909999997,59.328929999998]]},"properties":{"title":"Lamb to Home","distance":"17410.596088"}},{"type":"Feature","geometry":{"type":"LineString","coordinates":[[18.643501000001,60.128160999999],[18.064909999997,59.328929999998]]},"properties":{"distance":"94.602335","title":"Grounded beef to Home"}},{"type":"Feature","geometry":{"type":"LineString","coordinates":[[18.643501000001,60.128160999999],[18.064909999997,59.328929999998]]},"properties":{"distance":"94.602335","title":"Tomat to Home"}},{"type":"Feature","geometry":{"type":"LineString","coordinates":[[-3.7492200000004,40.463667000002],[18.064909999997,59.328929999998]]},"properties":{"distance":"2590.116841","title":"Olive Oil to Home"}},{"type":"Feature","geometry":{"type":"LineString","coordinates":[[-3.7492200000004,40.463667000002],[18.064909999997,59.328929999998]]},"properties":{"distance":"2590.116841","title":"Tomato cherry to Home"}},{"type":"Feature","geometry":{"type":"LineString","coordinates":[[12.567380000004,41.871939999999],[18.064909999997,59.328929999998]]},"properties":{"distance":"1977.896858","title":"Apple to Home"}},{"type":"Feature","geometry":{"type":"LineString","coordinates":[[18.643501000001,60.128160999999],[18.064909999997,59.328929999998]]},"properties":{"title":"Reindeer to Home","distance":"94.602335"}},{"type":"Feature","geometry":{"type":"LineString","coordinates":[[18.643501000001,60.128160999999],[18.064909999997,59.328929999998]]},"properties":{"title":"Cheese V\u00e4sterbotten to Home","distance":"94.602335"}},{"type":"Feature","geometry":{"type":"LineString","coordinates":[[18.643501000001,60.128160999999],[18.064909999997,59.328929999998]]},"properties":{"title":"Celery to Home","distance":"94.602335"}},{"type":"Feature","geometry":{"type":"LineString","coordinates":[[18.643501000001,60.128160999999],[18.064909999997,59.328929999998]]},"properties":{"title":"Crunchyrolls to Home","distance":"94.602335"}},{"type":"Feature","geometry":{"type":"LineString","coordinates":[[8.4689460000024,60.472024],[18.064909999997,59.328929999998]]},"properties":{"distance":"549.462901","title":"Gravlax to Home"}},{"type":"Feature","geometry":{"type":"LineString","coordinates":[[-106.346771,56.130366000001],[18.064909999997,59.328929999998]]},"properties":{"distance":"6270.596180","title":"Scallops to Home"}},{"type":"Feature","geometry":{"type":"LineString","coordinates":[[8.4689460000024,60.472024],[18.064909999997,59.328929999998]]},"properties":{"distance":"549.462901","title":"Cod to Home"}},{"type":"Feature","geometry":{"type":"LineString","coordinates":[[18.643501000001,60.128160999999],[18.064909999997,59.328929999998]]},"properties":{"distance":"94.602335","title":"Pizza to Home"}},{"type":"Feature","geometry":{"type":"LineString","coordinates":[[18.643501000001,60.128160999999],[18.064909999997,59.328929999998]]},"properties":{"distance":"94.602335","title":"Rucola to Home"}},{"type":"Feature","geometry":{"type":"LineString","coordinates":[[12.567380000004,41.871939999999],[18.064909999997,59.328929999998]]},"properties":{"distance":"1977.896858","title":"Black Eyed Peas to Home"}},{"type":"Feature","geometry":{"type":"LineString","coordinates":[[18.643501000001,60.128160999999],[18.064909999997,59.328929999998]]},"properties":{"distance":"94.602335","title":"Kale to Home"}},{"type":"Feature","geometry":{"type":"LineString","coordinates":[[18.643501000001,60.128160999999],[18.064909999997,59.328929999998]]},"properties":{"distance":"94.602335","title":"Fennel to Home"}},{"type":"Feature","geometry":{"type":"LineString","coordinates":[[18.643501000001,60.128160999999],[18.064909999997,59.328929999998]]},"properties":{"title":"Tortilla to Home","distance":"94.602335"}},{"type":"Feature","geometry":{"type":"LineString","coordinates":[[10.451526000003,51.165690999999],[18.064909999997,59.328929999998]]},"properties":{"title":"Pizza to Home","distance":"1026.515437"}},{"type":"Feature","geometry":{"type":"LineString","coordinates":[[18.643501000001,60.128160999999],[18.064909999997,59.328929999998]]},"properties":{"title":"Chunky Salsa to Home","distance":"94.602335"}},{"type":"Feature","geometry":{"type":"LineString","coordinates":[[-3.7492200000004,40.463667000002],[18.064909999997,59.328929999998]]},"properties":{"distance":"2590.116841","title":"Zucchini to Home"}},{"type":"Feature","geometry":{"type":"LineString","coordinates":[[18.643501000001,60.128160999999],[18.064909999997,59.328929999998]]},"properties":{"title":"Butter to Home","distance":"94.602335"}},{"type":"Feature","geometry":{"type":"LineString","coordinates":[[21.824312000004,39.074207999997],[18.064909999997,59.328929999998]]},"properties":{"distance":"2267.852452","title":"Feta to Home"}},{"type":"Feature","geometry":{"type":"LineString","coordinates":[[-75.015152,-9.1899670000004],[18.064909999997,59.328929999998]]},"properties":{"distance":"11059.865437","title":"Asparragus to Home"}},{"type":"Feature","geometry":{"type":"LineString","coordinates":[[174.885971,-40.900556999999],[18.064909999997,59.328929999998]]},"properties":{"title":"Gul kiwi to Home","distance":"17410.596088"}},{"type":"Feature","geometry":{"type":"LineString","coordinates":[[8.4689460000024,60.472024],[18.064909999997,59.328929999998]]},"properties":{"distance":"549.462901","title":"Salmon to Home"}},{"type":"Feature","geometry":{"type":"LineString","coordinates":[[18.643501000001,60.128160999999],[18.064909999997,59.328929999998]]},"properties":{"title":"Butter to Home","distance":"94.602335"}},{"type":"Feature","geometry":{"type":"LineString","coordinates":[[-95.712890999999,37.090240000003],[18.064909999997,59.328929999998]]},"properties":{"weight":"0.2","transportcat":"4.22774e-06","title":"Raisins to Home","distance":"7697.821874","co2e":"4.22774e-06","transport":"Oceanic Freight Ship","unit":"kg","description":"","youtube:link":""}},{"type":"Feature","geometry":{"type":"LineString","coordinates":[[-3.7492200000004,40.463667000002],[18.064909999997,59.328929999998]]},"properties":{"title":"Broccoli to Home","distance":"2590.116841"}},{"type":"Feature","geometry":{"type":"LineString","coordinates":[[12.567380000004,41.871939999999],[18.064909999997,59.328929999998]]},"properties":{"title":"Prosciutto to Home","distance":"1977.896858"}},{"type":"Feature","geometry":{"type":"LineString","coordinates":[[18.643501000001,60.128160999999],[18.064909999997,59.328929999998]]},"properties":{"distance":"94.602335","title":"Lasagne plates to Home"}},{"type":"Feature","geometry":{"type":"LineString","coordinates":[[18.643501000001,60.128160999999],[18.064909999997,59.328929999998]]},"properties":{"title":"Creme Fraiche to Home","distance":"94.602335"}},{"type":"Feature","geometry":{"type":"LineString","coordinates":[[18.643501000001,60.128160999999],[18.064909999997,59.328929999998]]},"properties":{"distance":"94.602335","title":"Pate to Home"}},{"type":"Feature","geometry":{"type":"LineString","coordinates":[[8.2275120000041,46.818187999999],[18.064909999997,59.328929999998]]},"properties":{"title":"Chocolate to Home","distance":"1534.796234"}},{"type":"Feature","geometry":{"type":"LineString","coordinates":[[18.643501000001,60.128160999999],[18.064909999997,59.328929999998]]},"properties":{"distance":"94.602335","title":"Rutagaba to Home"}},{"type":"Feature","geometry":{"type":"LineString","coordinates":[[18.643501000001,60.128160999999],[18.064909999997,59.328929999998]]},"properties":{"distance":"94.602335","title":"Basil to Home"}},{"type":"Feature","geometry":{"type":"LineString","coordinates":[[18.643501000001,60.128160999999],[18.064909999997,59.328929999998]]},"properties":{"distance":"94.602335","title":"Shrimps to Home"}},{"type":"Feature","geometry":{"type":"LineString","coordinates":[[12.567380000004,41.871939999999],[18.064909999997,59.328929999998]]},"properties":{"distance":"1977.896858","title":"Parmesan cheese to Home"}},{"type":"Feature","geometry":{"type":"LineString","coordinates":[[18.643501000001,60.128160999999],[18.064909999997,59.328929999998]]},"properties":{"title":"Pate to Home","distance":"94.602335"}},{"type":"Feature","geometry":{"type":"LineString","coordinates":[[18.643501000001,60.128160999999],[18.064909999997,59.328929999998]]},"properties":{"title":"Bean to Home","distance":"94.602335"}},{"type":"Feature","geometry":{"type":"LineString","coordinates":[[5.2912660000021,52.132633000001],[18.064909999997,59.328929999998]]},"properties":{"distance":"1127.774886","title":"Pepper to Home"}},{"type":"Feature","geometry":{"type":"LineString","coordinates":[[18.643501000001,60.128160999999],[18.064909999997,59.328929999998]]},"properties":{"title":"Sardins to Home","distance":"94.602335"}},{"type":"Feature","geometry":{"type":"LineString","coordinates":[[12.567380000004,41.871939999999],[18.064909999997,59.328929999998]]},"properties":{"distance":"1977.896858","title":"Capers to Home"}},{"type":"Feature","geometry":{"type":"LineString","coordinates":[[18.643501000001,60.128160999999],[18.064909999997,59.328929999998]]},"properties":{"title":"Rucula to Home","distance":"94.602335"}},{"type":"Feature","geometry":{"type":"LineString","coordinates":[[18.643501000001,60.128160999999],[18.064909999997,59.328929999998]]},"properties":{"title":"Fish reduction to Home","distance":"94.602335"}},{"type":"Feature","geometry":{"type":"LineString","coordinates":[[18.643501000001,60.128160999999],[18.064909999997,59.328929999998]]},"properties":{"distance":"94.602335","title":"Baby spinach to Home"}},{"type":"Feature","geometry":{"type":"LineString","coordinates":[[53.688046000001,32.427908000001],[18.064909999997,59.328929999998]]},"properties":{"distance":"3979.122836","title":"Saffran to Home"}},{"type":"Feature","geometry":{"type":"LineString","coordinates":[[-84.365447988256,13.326629998178],[18.064909999997,59.328929999998]]},"properties":{"footprintmethodology":"\nCO2e factor referenced from: \n(2010) Okala Design Guide 2010","title":"Coffee to Home","description":"","transportcat":"Method of Transportation","weight":"0.5","co2e":"4.79144e-05","youtube:link":"","co2e_reference":"http:\/\/footprinted.org\/container-ship9270853","transport":"Container ship","distance":"9424.346312"}}],"properties":{"description":"Real data November 2011. Description by product.","sm:ui:co2e":"1","sm:ui:tileset":"cloudmade","tags":"","title":"Food for a month"}}