{"type":"FeatureCollection","features":[{"type":"Feature","geometry":{"type":"Point","coordinates":[-72.993698,44.404701]},"properties":{"url:moreinfo":"http:\/\/foodtree.com\/sources\/8739","address":"52 Bridge Street, Richmond, VT, United States, 05477","title":"Vermont Fresh Network"}},{"type":"Feature","geometry":{"type":"Point","coordinates":[-73.205597,44.493099]},"properties":{"url:moreinfo":"http:\/\/foodtree.com\/sources\/9653","address":"180 Intervale Road, Burlington, VT, United States, 05401","title":"Intervale Food Hub"}},{"type":"Feature","geometry":{"type":"Point","coordinates":[-73.25183,44.167837]},"properties":{"url:moreinfo":"http:\/\/foodtree.com\/sources\/10892","address":"10 Green Street, Vergennes, VT, USA, 05443","title":"Graze"}},{"type":"Feature","geometry":{"type":"Point","coordinates":[-72.992401,44.4053]},"properties":{"url:moreinfo":"http:\/\/foodtree.com\/sources\/9679","address":"P.O. Box 697, Richmond, VT, United States, 05477","title":"Vermont Organic Farmers"}},{"type":"Feature","geometry":{"type":"Point","coordinates":[-73.202003,44.489101]},"properties":{"url:moreinfo":"http:\/\/foodtree.com\/sources\/6021","address":"30 Community Drive, South Burlington, VT, United States, 05401","title":"Sugarsnap"}},{"type":"Feature","geometry":{"type":"Point","coordinates":[-72.992401,44.4053]},"properties":{"url:moreinfo":"http:\/\/foodtree.com\/sources\/8738","address":"P.O. Box 697, Richmond, VT, United States, 05477","title":"NOFA Vermont"}},{"type":"Feature","geometry":{"type":"Point","coordinates":[-72.446667,44.866667]},"properties":{"url:moreinfo":"http:\/\/foodtree.com\/sources\/9648","address":"421 Trumpass Road,  Westfield, Vermont, USA, 05874","title":"Butterworks Farm"}}],"properties":{"title":"Butterworks Farm"}}