{"type":"FeatureCollection","features":[{"type":"Feature","geometry":{"type":"Point","coordinates":[-123.147003,49.270802]},"properties":{"url:moreinfo":"http:\/\/foodtree.com\/sources\/7437","urltitle:moreinfo":"Please visit Kitsilano Daily Kitchen on Foodtree","address":"1809 W 1st Ave, Vancouver, British Columbia, Canada, V6J 1G5","title":"Kitsilano Daily Kitchen"}},{"type":"Feature","geometry":{"type":"Point","coordinates":[-123.089996,49.249599]},"properties":{"url:moreinfo":"http:\/\/foodtree.com\/sources\/5988","urltitle:moreinfo":"Please visit Savoury City on Foodtree","address":"3925 Fraser St, Vancouver, British Columbia, Canada, V5V4E5","title":"Savoury City"}},{"type":"Feature","geometry":{"type":"Point","coordinates":[-123.154999,49.268299]},"properties":{"url:moreinfo":"http:\/\/foodtree.com\/sources\/278","urltitle:moreinfo":"Please visit Bishop's Fine Dining Restaurant on Foodtree","address":"2183 West 4th Avenue , Kitsilano, Vancouver, British Columbia, Canada","title":"Bishop's Fine Dining Restaurant"}},{"type":"Feature","geometry":{"type":"Point","coordinates":[-123.119003,49.283199]},"properties":{"url:moreinfo":"http:\/\/foodtree.com\/sources\/7435","urltitle:moreinfo":"Please visit YEW Restaurant + Bar on Foodtree","address":"791 West Georgia Street, Vancouver, British Columbia, Canada, V6C 2T4","title":"YEW Restaurant + Bar"}},{"type":"Feature","geometry":{"type":"Point","coordinates":[-123.149002,49.268002]},"properties":{"url:moreinfo":"http:\/\/foodtree.com\/sources\/2310","urltitle:moreinfo":"Please visit Refuel on Foodtree","address":"1944 West 4th Avenue, Vancouver, British Columbia, Canada, V6J 1M5","title":"Refuel"}},{"type":"Feature","geometry":{"type":"Point","coordinates":[-123.140999,49.287701]},"properties":{"url:moreinfo":"http:\/\/foodtree.com\/sources\/310","urltitle:moreinfo":"Please visit Raincity Grill on Foodtree","address":"1193 Denman Street, Vancouver, British Columbia, Canada, V6G 2N1","title":"Raincity Grill"}},{"type":"Feature","geometry":{"type":"Point","coordinates":[-123.133003,49.2742]},"properties":{"url:moreinfo":"http:\/\/foodtree.com\/sources\/267","urltitle:moreinfo":"Please visit C Restaurant on Foodtree","address":"2 - 1600 Howe Street, Vancouver, British Columbia, Canada","title":"C Restaurant"}},{"type":"Feature","geometry":{"type":"Point","coordinates":[-123.057999,49.281399]},"properties":{"url:moreinfo":"http:\/\/foodtree.com\/sources\/281","urltitle:moreinfo":"Please visit Campagnolo Roma on Foodtree","address":"2297 East Hastings Street, Vancouver, British Columbia, Canada, V5L1V3","title":"Campagnolo Roma"}},{"type":"Feature","geometry":{"type":"Point","coordinates":[-123.103996,49.2831]},"properties":{"url:moreinfo":"http:\/\/foodtree.com\/sources\/2705","urltitle:moreinfo":"Please visit The Salty Tongue on Foodtree","address":"213 Carrall St, Vancouver, British Columbia, Canada, V6B 2J2","title":"The Salty Tongue"}},{"type":"Feature","geometry":{"type":"Point","coordinates":[-123.129997,49.300098]},"properties":{"url:moreinfo":"http:\/\/foodtree.com\/sources\/5999","urltitle:moreinfo":"Please visit Oceanwise on Foodtree","address":"845 Avison Way, Vancouver, British Columbia, Canada, V6G2E2","title":"Oceanwise"}},{"type":"Feature","geometry":{"type":"Point","coordinates":[-123.139999,49.2714]},"properties":{"url:moreinfo":"http:\/\/foodtree.com\/sources\/271","urltitle:moreinfo":"Please visit Organic Ocean - Vancouver on Foodtree","address":"1505 West 1st Avenue , Vancouver, British Columbia, Canada","title":"Organic Ocean - Vancouver"}}],"properties":{"title":"Organic Ocean - Vancouver - connections"}}