{"type":"FeatureCollection","features":[{"type":"Feature","geometry":{"type":"Point","coordinates":[-122.407997,37.7771]},"properties":{"description":"Coffee","url:moreinfo":"http:\/\/foodtree.com\/sources\/5755","address":"270 Seventh Street, San Francisco, California, USA, 94103","title":"Sightglass Coffee Roaster"}},{"type":"Feature","geometry":{"type":"Point","coordinates":[-114.110001,51.023998]},"properties":{"description":"Coffee","url:moreinfo":"http:\/\/foodtree.com\/sources\/6648","address":"2043 33rd Avenue SW, Calgary, Alberta, Canada, T2T 1Z5","title":"Phil & Sebastian Coffee Roasters"}},{"type":"Feature","geometry":{"type":"Point","coordinates":[-122.642998,45.523102]},"properties":{"description":"Coffee","url:moreinfo":"http:\/\/foodtree.com\/sources\/7233","address":"2211 East Burnside, Portland, Oregon, USA, 97214","title":"Heart Coffee Roasters"}},{"type":"Feature","geometry":{"type":"Point","coordinates":[-122.407997,37.7789]},"properties":{"description":"Coffee","url:moreinfo":"http:\/\/foodtree.com\/sources\/5759","address":"1050 Howard Street, San Francisco, California, USA, 94103","title":"Ritual Coffee Roasters"}},{"type":"Feature","geometry":{"type":"Point","coordinates":[-122.660589,45.513584]},"properties":{"url:moreinfo":"http:\/\/foodtree.com\/sources\/11082","address":"1300 SE Grand Ave, Portland, Oregon, USA, 97214","title":"Coava Roastery and Coffee Bar"}},{"type":"Feature","geometry":{"type":"Point","coordinates":[-123.109001,49.283199]},"properties":{"url:moreinfo":"http:\/\/foodtree.com\/sources\/2711","address":"325 Cambie St., Vancouver, British Columbia, Canada, V6B 1H7","title":"Revolver Coffee"}}],"properties":{"title":"Revolver Coffee - connections"}}