{"type":"FeatureCollection","features":[{"type":"Feature","geometry":{"type":"Point","coordinates":[-119.475517,49.871942]},"properties":{"url:moreinfo":"http:\/\/foodtree.com\/sources\/12191","urltitle:moreinfo":"Please visit Codfathers Seafood Market on Foodtree","address":"2355 Gordon Drive, Kelowna, BC, Canada, V1W 3C2","title":"Codfathers Seafood Market"}},{"type":"Feature","geometry":{"type":"Point","coordinates":[-119.716692,49.105696]},"properties":{"url:moreinfo":"http:\/\/foodtree.com\/sources\/12181","urltitle:moreinfo":"Please visit Harkers Organics on Foodtree","address":"2238 Hwy 3, Cawston, British Columbia, Canada, V0X 1C2","title":"Harkers Organics"}},{"type":"Feature","geometry":{"type":"Point","coordinates":[-119.565411,49.543034]},"properties":{"url:moreinfo":"http:\/\/foodtree.com\/sources\/10001","urltitle:moreinfo":"Please visit Laughing Stock Vineyards on Foodtree","address":"1548 Naramata Road, Penticton, British Columbia, Canada, V2A 8T7","title":"Laughing Stock Vineyards"}},{"type":"Feature","geometry":{"type":"Point","coordinates":[-119.565002,49.307301]},"properties":{"url:moreinfo":"http:\/\/foodtree.com\/sources\/7449","urltitle:moreinfo":"Please visit See Ya Later Ranch Wines on Foodtree","address":"PO Box 480, Green Lake Road, Okanagen Falls, British Columbia, Canada, V0H 1R0","title":"See Ya Later Ranch Wines"}},{"type":"Feature","geometry":{"type":"Point","coordinates":[-119.456001,49.833]},"properties":{"url:moreinfo":"http:\/\/foodtree.com\/sources\/7466","urltitle:moreinfo":"Please visit Tantalus Vineyards on Foodtree","address":"1670 Dehart Road, Kelowna, British Columbia, Canada, V1W 4N6","title":"Tantalus Vineyards"}},{"type":"Feature","geometry":{"type":"Point","coordinates":[-119.533997,49.101002]},"properties":{"url:moreinfo":"http:\/\/foodtree.com\/sources\/5695","urltitle:moreinfo":"Please visit Burrowing Owl Winery on Foodtree","address":"100 Burrowing Owl Place, Oliver, British Columbia, Canada, V0H 1T0","title":"Burrowing Owl Winery"}},{"type":"Feature","geometry":{"type":"Point","coordinates":[-119.566002,49.138699]},"properties":{"url:moreinfo":"http:\/\/foodtree.com\/sources\/9999","urltitle:moreinfo":"Please visit Stoneboat Vineyards on Foodtree","address":"7148 Orchard Grove Rd , Oliver, British Columbia, Canada, V0H 1T0","title":"Stoneboat Vineyards"}},{"type":"Feature","geometry":{"type":"Point","coordinates":[-119.595001,49.144798]},"properties":{"url:moreinfo":"http:\/\/foodtree.com\/sources\/7462","urltitle:moreinfo":"Please visit Hester Creek Estate Winery on Foodtree","address":"13163 326th AVenue, Oliver, British Columbia, Canada, V0H1T0","title":"Hester Creek Estate Winery"}},{"type":"Feature","geometry":{"type":"Point","coordinates":[-119.556,49.5186]},"properties":{"url:moreinfo":"http:\/\/foodtree.com\/sources\/9998","urltitle:moreinfo":"Please visit La Frenz Winery on Foodtree","address":"740 Naramata Roda, Penticton, British Columbia, Canada, V2A 8T5","title":"La Frenz Winery"}},{"type":"Feature","geometry":{"type":"Point","coordinates":[-119.59252,49.587603]},"properties":{"url:moreinfo":"http:\/\/foodtree.com\/sources\/11017","urltitle:moreinfo":"Please visit Kettle Valley Winery on Foodtree","address":"2988 Hayman Road, Naramata, British Columbia, Canada, V0H1N0","title":"Kettle Valley Winery"}},{"type":"Feature","geometry":{"type":"Point","coordinates":[-119.760922,49.744312]},"properties":{"url:moreinfo":"http:\/\/foodtree.com\/sources\/10049","urltitle:moreinfo":"Please visit 8th Generation Vineyard on Foodtree","address":"6807 Highway 97, Summerland, British Columbia, Canada, V0H1Z9","title":"8th Generation Vineyard"}},{"type":"Feature","geometry":{"type":"Point","coordinates":[-119.666,49.566898]},"properties":{"url:moreinfo":"http:\/\/foodtree.com\/sources\/7454","urltitle:moreinfo":"Please visit Dirty Laundry Vineyard on Foodtree","address":"7311 Fiske Street, Summerland, British Columbia, Canada, V0H 1Z2","title":"Dirty Laundry Vineyard"}},{"type":"Feature","geometry":{"type":"Point","coordinates":[-119.58151,49.445839]},"properties":{"url:moreinfo":"http:\/\/foodtree.com\/sources\/11016","urltitle:moreinfo":"Please visit Pent\u00e2ge Winery on Foodtree","address":"4400 Lakeside Road, Penticton, British Columbia, Canada, V2A8W3","title":"Pent\u00e2ge Winery"}},{"type":"Feature","geometry":{"type":"Point","coordinates":[-119.617996,49.4375]},"properties":{"url:moreinfo":"http:\/\/foodtree.com\/sources\/7453","urltitle:moreinfo":"Please visit Inniskillin Okanagen Vineyards on Foodtree","address":"Road II RR1, Oliver, British Columbia, Canada, V0H 1T0","title":"Inniskillin Okanagen Vineyards"}},{"type":"Feature","geometry":{"type":"Point","coordinates":[-119.487999,49.894501]},"properties":{"url:moreinfo":"http:\/\/foodtree.com\/sources\/7455","urltitle:moreinfo":"Please visit Sandhill Wines on Foodtree","address":"1125 Richter Street, Kelowna, British Columbia, Canada, V1Y2K6","title":"Sandhill Wines"}},{"type":"Feature","geometry":{"type":"Point","coordinates":[-119.566002,49.8438]},"properties":{"url:moreinfo":"http:\/\/foodtree.com\/sources\/5697","urltitle:moreinfo":"Please visit Quail's Gate Winery on Foodtree","address":"3303 Boucherie Road, West Kelowna, BC, Canada, V1Z 2H3","title":"Quail's Gate Winery"}},{"type":"Feature","geometry":{"type":"Point","coordinates":[-119.528999,49.316601]},"properties":{"url:moreinfo":"http:\/\/foodtree.com\/sources\/8390","urltitle:moreinfo":"Please visit Blue Mountain Vineyard on Foodtree","address":"2385 Allendale Road, Okanagen, British Columbia, Canada, V0H1R2","title":"Blue Mountain Vineyard"}},{"type":"Feature","geometry":{"type":"Point","coordinates":[-119.584999,49.837502]},"properties":{"url:moreinfo":"http:\/\/foodtree.com\/sources\/7457","urltitle:moreinfo":"Please visit Mission Hill Winery on Foodtree","address":"1730 Mission Hill Road, West Kelowna, British Columbia, Canada, V4T2E4","title":"Mission Hill Winery"}},{"type":"Feature","geometry":{"type":"Point","coordinates":[-119.544017,49.78966]},"properties":{"url:moreinfo":"http:\/\/foodtree.com\/sources\/11018","urltitle:moreinfo":"Please visit Cedar Creek Estate Winery on Foodtree","address":"5445 Lakeshore Road, Kelowna, British Columbia, Canada, V1W4S5","title":"Cedar Creek Estate Winery"}},{"type":"Feature","geometry":{"type":"Point","coordinates":[-119.588997,49.1506]},"properties":{"url:moreinfo":"http:\/\/foodtree.com\/sources\/7465","urltitle:moreinfo":"Please visit Tinhorn Creek Vineyards on Foodtree","address":"32830 Tinhorn Creek Road, Oliver, British Columbia, Canada, V0H1T0","title":"Tinhorn Creek Vineyards"}},{"type":"Feature","geometry":{"type":"Point","coordinates":[-119.436996,49.8615]},"properties":{"url:moreinfo":"http:\/\/foodtree.com\/sources\/10000","urltitle:moreinfo":"Please visit Osoyoos Larose Winery on Foodtree","address":"38691 Hwy 97 North, Oliver, British Columbia, Canada, V0H 1T0","title":"Osoyoos Larose Winery"}},{"type":"Feature","geometry":{"type":"Point","coordinates":[-119.761002,49.744301]},"properties":{"url:moreinfo":"http:\/\/foodtree.com\/sources\/7451","urltitle:moreinfo":"Please visit Sumac Ridge Estate Winery on Foodtree","address":"17403 Highway 97N, Summerland, British Columbia, Canada, V0H1Z0","title":"Sumac Ridge Estate Winery"}},{"type":"Feature","geometry":{"type":"Point","coordinates":[-119.748001,49.188301]},"properties":{"url:moreinfo":"http:\/\/foodtree.com\/sources\/7301","urltitle:moreinfo":"Please visit Orofino Vineyard on Foodtree","address":"2152 Barcelo Road, Cawston, British Columbia, Canada, V0X 1C0","title":"Orofino Vineyard"}},{"type":"Feature","geometry":{"type":"Point","coordinates":[-123.431803,48.553614]},"properties":{"url:moreinfo":"http:\/\/foodtree.com\/sources\/10003","urltitle:moreinfo":"Please visit Victoria Spirits on Foodtree","address":"6170 Old West Saanich Rd, Victoria, British Columbia, Canada, V9E 2G8","title":"Victoria Spirits"}},{"type":"Feature","geometry":{"type":"Point","coordinates":[-119.466003,49.880299]},"properties":{"url:moreinfo":"http:\/\/foodtree.com\/sources\/8606","urltitle:moreinfo":"Please visit Valroso Foods on Foodtree","address":"1467 Sutherland Avenue, Kelowna, British Columbia, Canada, V1Y 5Y4","title":"Valroso Foods"}},{"type":"Feature","geometry":{"type":"Point","coordinates":[-113.499001,53.542999]},"properties":{"url:moreinfo":"http:\/\/foodtree.com\/sources\/893","urltitle:moreinfo":"Please visit Sunshine Organic Farm on Foodtree","address":"102nd Avenue and 104th Street, Edmonton, Alberta, Canada","title":"Sunshine Organic Farm"}},{"type":"Feature","geometry":{"type":"Point","coordinates":[-119.462997,49.817799]},"properties":{"url:moreinfo":"http:\/\/foodtree.com\/sources\/118","urltitle:moreinfo":"Please visit Stoney Paradise Produce on Foodtree","address":"1085 Crawford Rd, Kelowna, British Columbia, Canada","title":"Stoney Paradise Produce"}},{"type":"Feature","geometry":{"type":"Point","coordinates":[-123.097,49.319302]},"properties":{"url:moreinfo":"http:\/\/foodtree.com\/sources\/273","urltitle:moreinfo":"Please visit Two Rivers Specialty Meats on Foodtree","address":"180 Donaghy Ave, North Vancouver, British Columbia, Canada, V7P 2L5","title":"Two Rivers Specialty Meats"}},{"type":"Feature","geometry":{"type":"Point","coordinates":[-119.384003,49.842899]},"properties":{"url:moreinfo":"http:\/\/foodtree.com\/sources\/1074","urltitle:moreinfo":"Please visit Mikuni Wild Harvest on Foodtree","address":"3885 Gallaghers Grange, Kelowna, British Columbia, Canada, V1W 3Z9","title":"Mikuni Wild Harvest"}},{"type":"Feature","geometry":{"type":"Point","coordinates":[-119.497002,49.885601]},"properties":{"url:moreinfo":"http:\/\/foodtree.com\/sources\/4102","urltitle:moreinfo":"Please visit Raudz Regional Table on Foodtree","address":"1560 Water Street, Kelowna, British Columbia, Canada, V1Y 1J8","title":"Raudz Regional Table"}}],"properties":{"title":"Raudz Regional Table - connections"}}