{"type":"FeatureCollection","features":[{"type":"Feature","geometry":{"type":"Point","coordinates":[-116.469185,49.028676]},"properties":{"description":"Cheese","url:moreinfo":"http:\/\/foodtree.com\/sources\/74","address":"3071 16th St., Creston, British Columbia, Canada, V0B1G2","title":"Kootenay Alpine Cheese"}},{"type":"Feature","geometry":{"type":"Point","coordinates":[-123.155998,49.234501]},"properties":{"description":"Cheese","url:moreinfo":"http:\/\/foodtree.com\/sources\/5886","address":"2104 West 41st Ave, Vancouver, British Columbia, Canada, V6M 1Z1","title":"Benton Brothers Fine Cheese - Kerrisdale"}},{"type":"Feature","geometry":{"type":"Point","coordinates":[-123.105003,49.283001]},"properties":{"url:moreinfo":"http:\/\/foodtree.com\/sources\/313","address":"45 Blood Alley, Gastown, Vancouver, British Columbia, Canada, V6B 1C7","title":"Salt Tasting Room"}},{"type":"Feature","geometry":{"type":"Point","coordinates":[-123.128998,49.287201]},"properties":{"url:moreinfo":"http:\/\/foodtree.com\/sources\/307","address":"1300 Robson, Vancouver, British Columbia, Canada","title":"O'Doul's Restaurant & Bar"}},{"type":"Feature","geometry":{"type":"Point","coordinates":[-123.136002,49.272202]},"properties":{"url:moreinfo":"http:\/\/foodtree.com\/sources\/12","address":"1661 Duranleau Street, Vancouver, British Columbia, Canada, V6H 3S3","title":"Granville Island Farmers Market"}},{"type":"Feature","geometry":{"type":"Point","coordinates":[-123.114998,49.254501]},"properties":{"description":"Cheese","url:moreinfo":"http:\/\/foodtree.com\/sources\/5884","address":"3432 Cambie Street, Vancouver, British Columbia, Canada, V5Z2W8","title":"Benton Brothers Fine Cheese - Cambie"}},{"type":"Feature","geometry":{"type":"Point","coordinates":[-123.136002,49.272499]},"properties":{"description":"Cheese","url:moreinfo":"http:\/\/foodtree.com\/sources\/5887","address":"1689 Johnston Street, Granville Island, Vancouver, British Columbia, Canada, V6H 3R9","title":"Benton Brothers Fine Cheese - Granville Island"}},{"type":"Feature","geometry":{"type":"Point","coordinates":[-123.135002,49.271999]},"properties":{"url:moreinfo":"http:\/\/foodtree.com\/sources\/5936","address":"1596 Johnston Street, Vancouver, British Columbia, Canada, V6H 3R9","title":"Edible Canada Bistro"}},{"type":"Feature","geometry":{"type":"Point","coordinates":[-123.136002,49.272598]},"properties":{"description":"Bacon","url:moreinfo":"http:\/\/foodtree.com\/sources\/5885","address":"1689 Johnston Street, Granville Island, Vancouver, British Columbia, Canada, V6H 3R9","title":"Oyama Sausage Company"}}],"properties":{"title":"Oyama Sausage Company - connections"}}