{"type":"FeatureCollection","features":[{"type":"Feature","geometry":{"type":"Point","coordinates":[-97.731092,30.263243]},"properties":{"url:moreinfo":"http:\/\/foodtree.com\/sources\/15791","address":"414 Waller Street, Austin, TX, USA","title":"HOPE Farmers Market"}},{"type":"Feature","geometry":{"type":"Point","coordinates":[-97.747299,30.267799]},"properties":{"url:moreinfo":"http:\/\/foodtree.com\/sources\/7306","address":"400 Guadalupe Street, Austin, Texas, USA, 78701","title":"Dai Due Butcher Shop & Supper Club"}},{"type":"Feature","geometry":{"type":"Point","coordinates":[-96.778316,32.836383]},"properties":{"url:moreinfo":"http:\/\/foodtree.com\/sources\/14641","address":"5680 North Central Expressway, Dallas , TX, USA, 75206","title":"Central 214 Restaurant"}},{"type":"Feature","geometry":{"type":"Point","coordinates":[-97.744003,30.296101]},"properties":{"url:moreinfo":"http:\/\/foodtree.com\/sources\/5359","address":"2900 Rio Grande Street, Austin, Texas, USA, 78705","title":"Texas French Bread"}},{"type":"Feature","geometry":{"type":"Point","coordinates":[-97.74983,30.249589]},"properties":{"url:moreinfo":"http:\/\/foodtree.com\/sources\/14601","address":"1400 S Congress Ave , STE 190A, Austin, Texas, USA, 78704","title":"Hop Doddy Burger Bar"}},{"type":"Feature","geometry":{"type":"Point","coordinates":[-97.778999,30.393801]},"properties":{"url:moreinfo":"http:\/\/foodtree.com\/sources\/5263","address":"8600 White Cliff Dr, Austin, TX, 78741","title":"Dish a Licious"}},{"type":"Feature","geometry":{"type":"Point","coordinates":[-97.751724,30.276488]},"properties":{"url:moreinfo":"http:\/\/foodtree.com\/sources\/14551","address":"1112 N. Lamar, Austin, TX , 78703","title":"Food 4 Fitness Cafe"}},{"type":"Feature","geometry":{"type":"Point","coordinates":[-97.741024,30.297524]},"properties":{"url:moreinfo":"http:\/\/foodtree.com\/sources\/14521","address":"3101 Guadaloup, Austin, TX, USA, 78705","title":"Wheatsville Good Co-Op"}},{"type":"Feature","geometry":{"type":"Point","coordinates":[-97.719737,30.339477]},"properties":{"url:moreinfo":"http:\/\/foodtree.com\/sources\/14481","address":"7020 Easy Wind Dr, Suite 100,, Austin, TX , 78752 ","title":"Black Star Pub and Brewary"}},{"type":"Feature","geometry":{"type":"Point","coordinates":[-97.686027,30.233741]},"properties":{"url:moreinfo":"http:\/\/foodtree.com\/sources\/14461","address":"720 Bastrop Hwy. Suite #110, Austin, TX, USA, 78741","title":"Farmhouse Delivery"}},{"type":"Feature","geometry":{"type":"Point","coordinates":[-97.735834,30.21311]},"properties":{"url:moreinfo":"http:\/\/foodtree.com\/sources\/14411","address":"3913 Todd Ln Suite 618, Austin, TX, 78744 ","title":"Greenling Organic Delivery"}},{"type":"Feature","geometry":{"type":"Point","coordinates":[-97.719635,30.317107]},"properties":{"url:moreinfo":"http:\/\/foodtree.com\/sources\/14401","address":"306 E.53rd St., Austin, TX, USA, 78751","title":"Foreign & Domestic"}},{"type":"Feature","geometry":{"type":"Point","coordinates":[-97.769402,30.248501]},"properties":{"url:moreinfo":"http:\/\/foodtree.com\/sources\/7319","address":"2043 S. Lamar, Austin, Texas, USA, 78704","title":"Olivia Restaurant"}},{"type":"Feature","geometry":{"type":"Point","coordinates":[-97.742699,30.268101]},"properties":{"url:moreinfo":"http:\/\/foodtree.com\/sources\/7307","address":"100 East 6th Street, Austin, Texas, USA, 78702","title":"East Side Show Room"}},{"type":"Feature","geometry":{"type":"Point","coordinates":[-97.738494,30.260356]},"properties":{"url:moreinfo":"http:\/\/foodtree.com\/sources\/13811","address":" 90 RAINEY STREET, Austin, TX, USA, 78701","title":"Cazamance"}},{"type":"Feature","geometry":{"type":"Point","coordinates":[-97.768836,30.245673]},"properties":{"url:moreinfo":"http:\/\/foodtree.com\/sources\/13781","address":"1950 IH35, South Austin, TX, USA, 78704","title":"Whip In"}},{"type":"Feature","geometry":{"type":"Point","coordinates":[-97.7687,30.2495]},"properties":{"url:moreinfo":"http:\/\/foodtree.com\/sources\/7304","address":"2024 S Lamar Boulevard, Austin, Texas, USA, 78704","title":"Barley Swine"}},{"type":"Feature","geometry":{"type":"Point","coordinates":[-97.803001,30.2589]},"properties":{"url:moreinfo":"http:\/\/foodtree.com\/sources\/7322","address":"3031 Tamarron , Austin, Texas, USA, 78746","title":"Salt & Time"}},{"type":"Feature","geometry":{"type":"Point","coordinates":[-98.632401,31.804501]},"properties":{"url:moreinfo":"http:\/\/foodtree.com\/sources\/7416","address":"3000 Hwy 573, Comanche, Texas, USA, 76442","title":"Windy Hill Organics"}}],"properties":{"title":"Windy Hill Organics"}}