{"type":"FeatureCollection","features":[{"type":"Feature","geometry":{"type":"Point","coordinates":[-97.743061,30.267153]},"properties":{"url:moreinfo":"http:\/\/foodtree.com\/sources\/16591","urltitle:moreinfo":"Please visit Bola Pizza Catering on Foodtree","address":"Austin, TX, USA, 78749","title":"Bola Pizza Catering"}},{"type":"Feature","geometry":{"type":"Point","coordinates":[-95.382103,29.8069]},"properties":{"url:moreinfo":"http:\/\/foodtree.com\/sources\/7347","urltitle:moreinfo":"Please visit Houston Dairymaids Cheese & Specialty Foods on Foodtree","address":"2201 Airline Drive, Houston, Texas, USA, 77009","title":"Houston Dairymaids Cheese & Specialty Foods"}},{"type":"Feature","geometry":{"type":"Point","coordinates":[-97.726501,30.3043]},"properties":{"url:moreinfo":"http:\/\/foodtree.com\/sources\/7359","urltitle:moreinfo":"Please visit Antonelli's Cheese Shop on Foodtree","address":"4220 Duval Street, Austin, Texas, USA, 78751","title":"Antonelli's Cheese Shop"}},{"type":"Feature","geometry":{"type":"Point","coordinates":[-97.746902,30.267401]},"properties":{"url:moreinfo":"http:\/\/foodtree.com\/sources\/2696","urltitle:moreinfo":"Please visit Downtown Austin Farmers Market on Foodtree","address":"422 W Guadalupe St, Austin, TEXAS, USA, 78701","title":"Downtown Austin Farmers Market"}},{"type":"Feature","geometry":{"type":"Point","coordinates":[-98.3246,30.009199]},"properties":{"url:moreinfo":"http:\/\/foodtree.com\/sources\/5254","urltitle:moreinfo":"Please visit CKC Farms on Foodtree","address":"17505 FM 32, Blanco, TX, 78606","title":"CKC Farms"}}],"properties":{"title":"CKC Farms - connections"}}