{"type":"FeatureCollection","features":[{"type":"Feature","geometry":{"type":"Point","coordinates":[-71.093201,42.375599]},"properties":{"url:moreinfo":"http:\/\/foodtree.com\/sources\/5169","urltitle:moreinfo":"Please visit Taza Chocolate on Foodtree","address":"561 Windsor Street, Somerville, MA, USA, 02143","title":"Taza Chocolate"}},{"type":"Feature","geometry":{"type":"Point","coordinates":[-71.419601,42.9067]},"properties":{"url:moreinfo":"http:\/\/foodtree.com\/sources\/8399","urltitle:moreinfo":"Please visit Stonyfield on Foodtree","address":"10 Burton Drive, Londonberry, United States, 03053","title":"Stonyfield"}},{"type":"Feature","geometry":{"type":"Point","coordinates":[-91.9058,41.8908]},"properties":{"url:moreinfo":"http:\/\/foodtree.com\/sources\/5831","urltitle:moreinfo":"Please visit Frontier Natural Products Co-Op on Foodtree","address":"3021 78th Street, Norway, Iowa, USA, 52318","title":"Frontier Natural Products Co-Op"}},{"type":"Feature","geometry":{"type":"Point","coordinates":[-71.411301,42.412498]},"properties":{"url:moreinfo":"http:\/\/foodtree.com\/sources\/5153","urltitle:moreinfo":"Please visit Siena Farms on Foodtree","address":"113 Haynes Road, Sudbury, MA, USA, 01776","title":"Siena Farms"}},{"type":"Feature","geometry":{"type":"Point","coordinates":[-72.782045,42.50943]},"properties":{"url:moreinfo":"http:\/\/foodtree.com\/sources\/14911","urltitle:moreinfo":"Please visit Sangha Farm on Foodtree","address":" 188 Creamery Rd, Ashfield, MA, USA","title":"Sangha Farm"}},{"type":"Feature","geometry":{"type":"Point","coordinates":[-71.332353,42.410262]},"properties":{"url:moreinfo":"http:\/\/foodtree.com\/sources\/10970","urltitle:moreinfo":"Please visit Drumlin Farm\u00a0 on Foodtree","address":"208 South Great Road, Lincoln, MA, USA, 01773","title":"Drumlin Farm\u00a0"}},{"type":"Feature","geometry":{"type":"Point","coordinates":[-72.218803,42.333]},"properties":{"url:moreinfo":"http:\/\/foodtree.com\/sources\/5190","urltitle:moreinfo":"Please visit Chestnut Farms on Foodtree","address":"404 Turkey Street, Hardwick, MA, USA, 01031","title":"Chestnut Farms"}},{"type":"Feature","geometry":{"type":"Point","coordinates":[-72.577202,42.328701]},"properties":{"url:moreinfo":"http:\/\/foodtree.com\/sources\/5188","urltitle:moreinfo":"Please visit Winter Moon Farm on Foodtree","address":"17 Lawrence Plain Road, Hadley, MA, USA, 01035","title":"Winter Moon Farm"}},{"type":"Feature","geometry":{"type":"Point","coordinates":[-72.189149,42.364909]},"properties":{"url:moreinfo":"http:\/\/foodtree.com\/sources\/14871","urltitle:moreinfo":"Please visit Robinson Farm on Foodtree","address":"42 Jackson Road, Hardwick, MA, USA, 01037","title":"Robinson Farm"}},{"type":"Feature","geometry":{"type":"Point","coordinates":[-72.495499,42.226601]},"properties":{"url:moreinfo":"http:\/\/foodtree.com\/sources\/5151","urltitle:moreinfo":"Please visit Red Fire Farm on Foodtree","address":"7 Carver Street, Granby, MA, USA, 01033","title":"Red Fire Farm"}},{"type":"Feature","geometry":{"type":"Point","coordinates":[-72.521599,42.3577]},"properties":{"url:moreinfo":"http:\/\/foodtree.com\/sources\/5161","urltitle:moreinfo":"Please visit Old Friends Farm on Foodtree","address":"593 South Pleasant Street, Amherst, MA, USA, 01002","title":"Old Friends Farm"}},{"type":"Feature","geometry":{"type":"Point","coordinates":[-71.350502,42.254799]},"properties":{"url:moreinfo":"http:\/\/foodtree.com\/sources\/5192","urltitle:moreinfo":"Please visit Natick Community Organic Farm on Foodtree","address":"117 Eliot Street, Natick, MA, USA, 01760","title":"Natick Community Organic Farm"}},{"type":"Feature","geometry":{"type":"Point","coordinates":[-72.567497,42.549099]},"properties":{"url:moreinfo":"http:\/\/foodtree.com\/sources\/5156","urltitle:moreinfo":"Please visit Atlas Farm on Foodtree","address":"635 River Road, Deerfield, MA, USA, 01342","title":"Atlas Farm"}},{"type":"Feature","geometry":{"type":"Point","coordinates":[-72.299551,42.682182]},"properties":{"url:moreinfo":"http:\/\/foodtree.com\/sources\/14841","urltitle:moreinfo":"Please visit Chase Hill Farm on Foodtree","address":"71 Chase Hill Road, Warwick, MA, USA","title":"Chase Hill Farm"}},{"type":"Feature","geometry":{"type":"Point","coordinates":[-71.340599,42.478001]},"properties":{"url:moreinfo":"http:\/\/foodtree.com\/sources\/5167","urltitle:moreinfo":"Please visit Hutchins Farm on Foodtree","address":"754 Monument Street, Concord, MA, USA, 01742","title":"Hutchins Farm"}},{"type":"Feature","geometry":{"type":"Point","coordinates":[-72.157967,42.421401]},"properties":{"url:moreinfo":"http:\/\/foodtree.com\/sources\/15001","urltitle:moreinfo":"Please visit NOFA Massachusetts on Foodtree","address":"411 Sheldon Road, Barre, MA, USA, 01005","title":"NOFA Massachusetts"}}],"properties":{"title":"NOFA Massachusetts"}}