{"type":"FeatureCollection","features":[{"type":"Feature","geometry":{"type":"Point","coordinates":[-72.599958,44.561688]},"properties":{"url:moreinfo":"http:\/\/foodtree.com\/sources\/38031","urltitle:moreinfo":"Please visit Bee's Knees on Foodtree","address":"82 Lower Main St., Morrisville, VT, US, 05661","title":"Bee's Knees"}},{"type":"Feature","geometry":{"type":"Point","coordinates":[-73.210131,44.467405]},"properties":{"url:moreinfo":"http:\/\/foodtree.com\/sources\/38021","urltitle:moreinfo":"Please visit Bite Me Organic Pizza on Foodtree","address":"457 St Paul Street, Burlington, VT, US, 05401","title":"Bite Me Organic Pizza"}},{"type":"Feature","geometry":{"type":"Point","coordinates":[-73.211353,44.47706]},"properties":{"url:moreinfo":"http:\/\/foodtree.com\/sources\/38011","urltitle:moreinfo":"Please visit Bueno Y Sano - Burlington on Foodtree","address":"213 College St., Burlington, VT, US, 05401","title":"Bueno Y Sano - Burlington"}},{"type":"Feature","geometry":{"type":"Point","coordinates":[-72.309689,43.66819]},"properties":{"url:moreinfo":"http:\/\/foodtree.com\/sources\/38001","urltitle:moreinfo":"Please visit Coop Commissary Kitchen on Foodtree","address":"47 \u201cA\u201d Street, Wilder, VT, US, 05088","title":"Coop Commissary Kitchen"}},{"type":"Feature","geometry":{"type":"Point","coordinates":[-72.516108,43.625846]},"properties":{"url:moreinfo":"http:\/\/foodtree.com\/sources\/37991","urltitle:moreinfo":"Please visit Daily Grind Coffee & Sweets on Foodtree","address":"61 Central St, Woodstock, VT, US, 05091","title":"Daily Grind Coffee & Sweets"}},{"type":"Feature","geometry":{"type":"Point","coordinates":[-72.425163,44.278083]},"properties":{"url:moreinfo":"http:\/\/foodtree.com\/sources\/37981","urltitle:moreinfo":"Please visit Dancing Goat Cafe on Foodtree","address":"20 School St., Plainfield, VT, US, 05667","title":"Dancing Goat Cafe"}},{"type":"Feature","geometry":{"type":"Point","coordinates":[-73.169962,44.493279]},"properties":{"url:moreinfo":"http:\/\/foodtree.com\/sources\/37971","urltitle:moreinfo":"Please visit Fanny Allen Campus on Foodtree","address":"11 College Parkway , Colchester, VT, US, 05446","title":"Fanny Allen Campus"}},{"type":"Feature","geometry":{"type":"Point","coordinates":[-72.492209,44.388687]},"properties":{"url:moreinfo":"http:\/\/foodtree.com\/sources\/37961","urltitle:moreinfo":"Please visit Farmers to You on Foodtree","address":"PO Box 202, Calais, VT, US, 05648","title":"Farmers to You"}},{"type":"Feature","geometry":{"type":"Point","coordinates":[-72.440337,44.284152]},"properties":{"url:moreinfo":"http:\/\/foodtree.com\/sources\/37951","urltitle:moreinfo":"Please visit Goddard College on Foodtree","address":"123 Pitkin Rd, Plainfield, VT, US, 05667","title":"Goddard College"}},{"type":"Feature","geometry":{"type":"Point","coordinates":[-72.209999,44.935688]},"properties":{"url:moreinfo":"http:\/\/foodtree.com\/sources\/37941","urltitle:moreinfo":"Please visit Green Mountain Farm to School on Foodtree","address":"194 Main St Ste 301 , Newport, VT, US, 05855","title":"Green Mountain Farm to School"}},{"type":"Feature","geometry":{"type":"Point","coordinates":[-72.671707,44.641575]},"properties":{"url:moreinfo":"http:\/\/foodtree.com\/sources\/37931","urltitle:moreinfo":"Please visit Johnson State College on Foodtree","address":"337 College Hill, Johnson, VT, US, 05656","title":"Johnson State College"}},{"type":"Feature","geometry":{"type":"Point","coordinates":[-72.015036,44.538367]},"properties":{"url:moreinfo":"http:\/\/foodtree.com\/sources\/37921","urltitle:moreinfo":"Please visit Lyndon Institute on Foodtree","address":"168 Institute Circle, P.O. Box 127, Lyndon Center, VT, US, 05850","title":"Lyndon Institute"}},{"type":"Feature","geometry":{"type":"Point","coordinates":[-72.734734,42.838955]},"properties":{"url:moreinfo":"http:\/\/foodtree.com\/sources\/37911","urltitle:moreinfo":"Please visit Marlboro College on Foodtree","address":"2582 South Rd , Marlboro, VT, US, 05344","title":"Marlboro College"}},{"type":"Feature","geometry":{"type":"Point","coordinates":[-73.18041,44.013905]},"properties":{"url:moreinfo":"http:\/\/foodtree.com\/sources\/37901","urltitle:moreinfo":"Please visit Middlebury College - FIC Hamlin on Foodtree","address":"203 Freeman Way , Middlebury, VT, US, 05753","title":"Middlebury College - FIC Hamlin"}},{"type":"Feature","geometry":{"type":"Point","coordinates":[-72.576296,44.26029]},"properties":{"url:moreinfo":"http:\/\/foodtree.com\/sources\/37881","urltitle:moreinfo":"Please visit Positive Pie 2 on Foodtree","address":"22 State Street, Montpelier, VT, US, 05602","title":"Positive Pie 2"}},{"type":"Feature","geometry":{"type":"Point","coordinates":[-72.992813,44.40506]},"properties":{"url:moreinfo":"http:\/\/foodtree.com\/sources\/37861","urltitle:moreinfo":"Please visit Richmond Corner Market on Foodtree","address":"10 E Main, Richmond, VT, US, 05477","title":"Richmond Corner Market"}},{"type":"Feature","geometry":{"type":"Point","coordinates":[-72.977433,43.605656]},"properties":{"url:moreinfo":"http:\/\/foodtree.com\/sources\/37851","urltitle:moreinfo":"Please visit Roots the Restaurant on Foodtree","address":"77 Wales St., Rutland, VT, US, 05701","title":"Roots the Restaurant"}},{"type":"Feature","geometry":{"type":"Point","coordinates":[-72.702507,44.475095]},"properties":{"url:moreinfo":"http:\/\/foodtree.com\/sources\/37841","urltitle:moreinfo":"Please visit Rusty Nail on Foodtree","address":"1190 Mountain Rd., Stowe, VT, US, 05672","title":"Rusty Nail"}},{"type":"Feature","geometry":{"type":"Point","coordinates":[-72.977433,43.605656]},"properties":{"url:moreinfo":"http:\/\/foodtree.com\/sources\/37831","urltitle:moreinfo":"Please visit Rutland Area Food Coop on Foodtree","address":"77 Wales St., Rutland, VT, US, 05701","title":"Rutland Area Food Coop"}},{"type":"Feature","geometry":{"type":"Point","coordinates":[-73.083675,44.810623]},"properties":{"url:moreinfo":"http:\/\/foodtree.com\/sources\/19591","urltitle:moreinfo":"Please visit Rail City Market on Foodtree","address":"8 S Main St , Ste 1, St. Albans, Vermont, USA, 5478","title":"Rail City Market"}},{"type":"Feature","geometry":{"type":"Point","coordinates":[-72.422785,44.278057]},"properties":{"url:moreinfo":"http:\/\/foodtree.com\/sources\/19241","urltitle:moreinfo":"Please visit Plainfield Co-op on Foodtree","address":"153 Main Street , Plainfield, Vermont, USA, 5667","title":"Plainfield Co-op"}},{"type":"Feature","geometry":{"type":"Point","coordinates":[-72.379167,44.658056]},"properties":{"url:moreinfo":"http:\/\/foodtree.com\/sources\/9664","urltitle:moreinfo":"Please visit Pete's Greens on Foodtree","address":"South Craftsbury Road,  Craftsbury, Vermont, USA, 05826","title":"Pete's Greens"}},{"type":"Feature","geometry":{"type":"Point","coordinates":[-72.209999,44.935688]},"properties":{"url:moreinfo":"http:\/\/foodtree.com\/sources\/19171","urltitle:moreinfo":"Please visit Newport Natural Foods on Foodtree","address":"194 Main Street, Newport, Vermont, USA, 5855","title":"Newport Natural Foods"}},{"type":"Feature","geometry":{"type":"Point","coordinates":[-73.117688,44.451985]},"properties":{"url:moreinfo":"http:\/\/foodtree.com\/sources\/20001","urltitle:moreinfo":"Please visit Natural Provisions on Foodtree","address":"29 Harvest Ln # 100, Williston , Vermont, USA, 5495","title":"Natural Provisions"}},{"type":"Feature","geometry":{"type":"Point","coordinates":[-73.164902,44.014816]},"properties":{"url:moreinfo":"http:\/\/foodtree.com\/sources\/19021","urltitle:moreinfo":"Please visit Middlebury Natural Foods Co-op on Foodtree","address":"9 Washington St, Middlebury, Vermont, USA, 5753","title":"Middlebury Natural Foods Co-op"}},{"type":"Feature","geometry":{"type":"Point","coordinates":[-72.8125,44.188889]},"properties":{"url:moreinfo":"http:\/\/foodtree.com\/sources\/19801","urltitle:moreinfo":"Please visit Mehuron's Market on Foodtree","address":"Village Square Shopping Center, Waitsfield, Vermont, USA, 5673","title":"Mehuron's Market"}},{"type":"Feature","geometry":{"type":"Point","coordinates":[-72.511841,43.626173]},"properties":{"url:moreinfo":"http:\/\/foodtree.com\/sources\/20071","urltitle:moreinfo":"Please visit Mac's Market on Foodtree","address":"37 Pleasant St, Woodstock, Vermont, USA, 5091","title":"Mac's Market"}},{"type":"Feature","geometry":{"type":"Point","coordinates":[-72.312401,43.703201]},"properties":{"url:moreinfo":"http:\/\/foodtree.com\/sources\/6017","urltitle:moreinfo":"Please visit King Arthur Flour on Foodtree","address":"135 Route 5 South, Norwich, VT, United States, 05055","title":"King Arthur Flour"}},{"type":"Feature","geometry":{"type":"Point","coordinates":[-72.069382,44.303665]},"properties":{"url:moreinfo":"http:\/\/foodtree.com\/sources\/17901","urltitle:moreinfo":"Please visit Karme Choling on Foodtree","address":"369 Patneaude Lane, Barnet , Vermont, USA, 5821","title":"Karme Choling"}},{"type":"Feature","geometry":{"type":"Point","coordinates":[-72.571691,44.253137]},"properties":{"url:moreinfo":"http:\/\/foodtree.com\/sources\/6014","urltitle:moreinfo":"Please visit Hunger Mountain Co-op on Foodtree","address":"623 Stone Cutters Way, Montpelier, Vermont, USA, 5602","title":"Hunger Mountain Co-op"}},{"type":"Feature","geometry":{"type":"Point","coordinates":[-73.179802,44.462799]},"properties":{"url:moreinfo":"http:\/\/foodtree.com\/sources\/6013","urltitle:moreinfo":"Please visit Healthy Living Natural Foods Market on Foodtree","address":"222 Dorset Street, South Burlington, VT, United States, 05403","title":"Healthy Living Natural Foods Market"}},{"type":"Feature","geometry":{"type":"Point","coordinates":[-72.598449,44.561719]},"properties":{"url:moreinfo":"http:\/\/foodtree.com\/sources\/19131","urltitle:moreinfo":"Please visit Green Top Market on Foodtree","address":"Morrisville, Vermont, USA","title":"Green Top Market"}},{"type":"Feature","geometry":{"type":"Point","coordinates":[-73.212097,44.475899]},"properties":{"url:moreinfo":"http:\/\/foodtree.com\/sources\/9009","urltitle:moreinfo":"Please visit Fletcher Allen's Farmers Market on Foodtree","address":"111 Colchester Ave 204 EN3, Burlington, Vermont, USA, 05401","title":"Fletcher Allen's Farmers Market"}},{"type":"Feature","geometry":{"type":"Point","coordinates":[-72.819168,44.108814]},"properties":{"url:moreinfo":"http:\/\/foodtree.com\/sources\/19851","urltitle:moreinfo":"Please visit East Warren Community Market on Foodtree","address":"42 Roxbury Mountain Road , Warren , Vermont, USA, 5674","title":"East Warren Community Market"}},{"type":"Feature","geometry":{"type":"Point","coordinates":[-72.366985,44.504006]},"properties":{"url:moreinfo":"http:\/\/foodtree.com\/sources\/18741","urltitle:moreinfo":"Please visit Claire\u2019s on Foodtree","address":"41 South Main St, Hardwick, Vermont, USA, 5836","title":"Claire\u2019s"}},{"type":"Feature","geometry":{"type":"Point","coordinates":[-73.210197,44.478199]},"properties":{"url:moreinfo":"http:\/\/foodtree.com\/sources\/6010","urltitle:moreinfo":"Please visit City Market\/Onion River Co-op on Foodtree","address":"82 South Winooski Ave., Burlington, VT, United States, 05401","title":"City Market\/Onion River Co-op"}},{"type":"Feature","geometry":{"type":"Point","coordinates":[-72.36623,44.50448]},"properties":{"url:moreinfo":"http:\/\/foodtree.com\/sources\/18761","urltitle:moreinfo":"Please visit Buffalo Mountain Co-op on Foodtree","address":"30 South Main Street, Hardwick, Vermont, USA, 5843","title":"Buffalo Mountain Co-op"}},{"type":"Feature","geometry":{"type":"Point","coordinates":[-72.559094,42.850357]},"properties":{"url:moreinfo":"http:\/\/foodtree.com\/sources\/18041","urltitle:moreinfo":"Please visit Brattleboro Food Coop on Foodtree","address":" 2 Main Street, Brattleboro, Vermont, USA, 5301","title":"Brattleboro Food Coop"}},{"type":"Feature","geometry":{"type":"Point","coordinates":[-72.591271,44.572126]},"properties":{"url:moreinfo":"http:\/\/foodtree.com\/sources\/32721","urltitle:moreinfo":"Please visit Apple Tree Natural Foods Market on Foodtree","address":"30 Mountain View Plz # 2, Morrisville, VT, US, 05661","title":"Apple Tree Natural Foods Market"}},{"type":"Feature","geometry":{"type":"Point","coordinates":[-72.502998,44.32925]},"properties":{"url:moreinfo":"http:\/\/foodtree.com\/sources\/17831","urltitle:moreinfo":"Please visit Adamant Food Co-op on Foodtree","address":"1313 Haggett Rd., Adamant, Vermont, USA","title":"Adamant Food Co-op"}},{"type":"Feature","geometry":{"type":"Point","coordinates":[-73.202003,44.489101]},"properties":{"url:moreinfo":"http:\/\/foodtree.com\/sources\/6021","urltitle:moreinfo":"Please visit Sugarsnap on Foodtree","address":"30 Community Drive, South Burlington, VT, United States, 05401","title":"Sugarsnap"}},{"type":"Feature","geometry":{"type":"Point","coordinates":[-73.25183,44.167837]},"properties":{"url:moreinfo":"http:\/\/foodtree.com\/sources\/10892","urltitle:moreinfo":"Please visit Graze on Foodtree","address":"10 Green Street, Vergennes, VT, USA, 05443","title":"Graze"}},{"type":"Feature","geometry":{"type":"Point","coordinates":[-72.992401,44.4053]},"properties":{"url:moreinfo":"http:\/\/foodtree.com\/sources\/9679","urltitle:moreinfo":"Please visit Vermont Organic Farmers on Foodtree","address":"P.O. Box 697, Richmond, VT, United States, 05477","title":"Vermont Organic Farmers"}},{"type":"Feature","geometry":{"type":"Point","coordinates":[-72.992401,44.4053]},"properties":{"url:moreinfo":"http:\/\/foodtree.com\/sources\/8738","urltitle:moreinfo":"Please visit NOFA Vermont on Foodtree","address":"P.O. Box 697, Richmond, VT, United States, 05477","title":"NOFA Vermont"}},{"type":"Feature","geometry":{"type":"Point","coordinates":[-72.993698,44.404701]},"properties":{"url:moreinfo":"http:\/\/foodtree.com\/sources\/8739","urltitle:moreinfo":"Please visit Vermont Fresh Network on Foodtree","address":"52 Bridge Street, Richmond, VT, United States, 05477","title":"Vermont Fresh Network"}},{"type":"Feature","geometry":{"type":"Point","coordinates":[-72.349701,44.518101]},"properties":{"url:moreinfo":"http:\/\/foodtree.com\/sources\/9681","urltitle:moreinfo":"Please visit Vermont Soy on Foodtree","address":"180 Junction Road, Hardwick, VT, United States, 05843","title":"Vermont Soy"}}],"properties":{"title":"Vermont Soy - connections"}}