{"type":"FeatureCollection","features":[{"type":"Feature","geometry":{"type":"Point","coordinates":[-72.146156,44.416938]},"properties":{"url:moreinfo":"http:\/\/foodtree.com\/sources\/39321","urltitle:moreinfo":"Please visit Vermont Chevon Meats on Foodtree","address":"173 Crystal Ave., Danville, VT, USA","title":"Vermont Chevon Meats"}},{"type":"Feature","geometry":{"type":"Point","coordinates":[-72.274736,44.51927]},"properties":{"url:moreinfo":"http:\/\/foodtree.com\/sources\/39141","urltitle:moreinfo":"Please visit Surfing Veggie Farm on Foodtree","address":"412 Richard Crossing, East Hardwick, VT, USA","title":"Surfing Veggie Farm"}},{"type":"Feature","geometry":{"type":"Point","coordinates":[-72.569182,43.278849]},"properties":{"url:moreinfo":"http:\/\/foodtree.com\/sources\/39131","urltitle:moreinfo":"Please visit Sunshine Acres on Foodtree","address":"Hopkins Hill Road, Hardwick, VT, USA","title":"Sunshine Acres"}},{"type":"Feature","geometry":{"type":"Point","coordinates":[-72.32991,44.511101]},"properties":{"url:moreinfo":"http:\/\/foodtree.com\/sources\/39061","urltitle:moreinfo":"Please visit Snug Valley Farm on Foodtree","address":"824 Pumpkin Lane, East Hardwick, VT, USA","title":"Snug Valley Farm"}},{"type":"Feature","geometry":{"type":"Point","coordinates":[-72.29079,44.408835]},"properties":{"url:moreinfo":"http:\/\/foodtree.com\/sources\/39001","urltitle:moreinfo":"Please visit Provender Farm on Foodtree","address":"Menard Road, Cabot, VT, USA","title":"Provender Farm"}},{"type":"Feature","geometry":{"type":"Point","coordinates":[-72.320419,44.773624]},"properties":{"url:moreinfo":"http:\/\/foodtree.com\/sources\/38951","urltitle:moreinfo":"Please visit Peace of Earth Farm on Foodtree","address":"43 West Griggs Road, Albany, VT, USA","title":"Peace of Earth Farm"}},{"type":"Feature","geometry":{"type":"Point","coordinates":[-72.325884,44.50747]},"properties":{"url:moreinfo":"http:\/\/foodtree.com\/sources\/38931","urltitle:moreinfo":"Please visit Patchwork Farm & Bakery on Foodtree","address":"PO Box 805, Pumpkin Lane, Hardwick, VT, USA","title":"Patchwork Farm & Bakery"}},{"type":"Feature","geometry":{"type":"Point","coordinates":[-72.288618,44.535954]},"properties":{"url:moreinfo":"http:\/\/foodtree.com\/sources\/38911","urltitle:moreinfo":"Please visit Old Barn Farm on Foodtree","address":"3534 BAYLEY-HAZEN RD, East Hardwick, VT, USA","title":"Old Barn Farm"}},{"type":"Feature","geometry":{"type":"Point","coordinates":[-72.264826,44.548942]},"properties":{"url:moreinfo":"http:\/\/foodtree.com\/sources\/38831","urltitle:moreinfo":"Please visit Mystic Morning Farm on Foodtree","address":"P.O. Box 72, Greensboro Bend, VT, USA","title":"Mystic Morning Farm"}},{"type":"Feature","geometry":{"type":"Point","coordinates":[-72.133894,44.544537]},"properties":{"url:moreinfo":"http:\/\/foodtree.com\/sources\/38821","urltitle:moreinfo":"Please visit Mountain Foot Farm on Foodtree","address":"154 Blakely Road, Wheelock, VT, USA","title":"Mountain Foot Farm"}},{"type":"Feature","geometry":{"type":"Point","coordinates":[-72.525655,44.542466]},"properties":{"url:moreinfo":"http:\/\/foodtree.com\/sources\/38601","urltitle:moreinfo":"Please visit Elmore Mountain Bread on Foodtree","address":"Elmore, VT, USA","title":"Elmore Mountain Bread"}},{"type":"Feature","geometry":{"type":"Point","coordinates":[-71.609234,44.700902]},"properties":{"url:moreinfo":"http:\/\/foodtree.com\/sources\/38581","urltitle:moreinfo":"Please visit Eastview Farm on Foodtree","address":"Porter Brook Road, East Hardwick, VT, USA","title":"Eastview Farm"}},{"type":"Feature","geometry":{"type":"Point","coordinates":[-72.308891,44.522312]},"properties":{"url:moreinfo":"http:\/\/foodtree.com\/sources\/21121","urltitle:moreinfo":"Please visit Caledonia Farm on Foodtree","address":"332 Stevens Hill Road, East Hardwick, VT, USA","title":"Caledonia Farm"}},{"type":"Feature","geometry":{"type":"Point","coordinates":[-72.40699,44.363453]},"properties":{"url:moreinfo":"http:\/\/foodtree.com\/sources\/38511","urltitle:moreinfo":"Please visit Bohemian Bread on Foodtree","address":"1614 East Hill Road, Marshfield, VT, USA","title":"Bohemian Bread"}},{"type":"Feature","geometry":{"type":"Point","coordinates":[-72.615365,44.551777]},"properties":{"url:moreinfo":"http:\/\/foodtree.com\/sources\/11006","urltitle:moreinfo":"Please visit Winding Brook Farm on Foodtree","address":"1224 Laporte Rd, Morrisville, Vermont, USA","title":"Winding Brook Farm"}},{"type":"Feature","geometry":{"type":"Point","coordinates":[-72.379167,44.658056]},"properties":{"url:moreinfo":"http:\/\/foodtree.com\/sources\/24891","urltitle:moreinfo":"Please visit Wild Branch Valley Farm on Foodtree","address":" Craftsbury, Vermont, USA","title":"Wild Branch Valley Farm"}},{"type":"Feature","geometry":{"type":"Point","coordinates":[-72.902603,44.717999]},"properties":{"url:moreinfo":"http:\/\/foodtree.com\/sources\/9677","urltitle:moreinfo":"Please visit Vermont Cranberry Company on Foodtree","address":"2563 North Road, East Fairfield, VT, United States","title":"Vermont Cranberry Company"}},{"type":"Feature","geometry":{"type":"Point","coordinates":[-72.487099,44.1721]},"properties":{"url:moreinfo":"http:\/\/foodtree.com\/sources\/9675","urltitle:moreinfo":"Please visit Vermont Butter & Cheese Company on Foodtree","address":"40 Pitman Road,  Websterville, VT, United States","title":"Vermont Butter & Cheese Company"}},{"type":"Feature","geometry":{"type":"Point","coordinates":[-72.049378,44.296832]},"properties":{"url:moreinfo":"http:\/\/foodtree.com\/sources\/24541","urltitle:moreinfo":"Please visit Too Little Farm on Foodtree","address":" Barnet, Vermont, USA","title":"Too Little Farm"}},{"type":"Feature","geometry":{"type":"Point","coordinates":[-72.377873,43.866457]},"properties":{"url:moreinfo":"http:\/\/foodtree.com\/sources\/24341","urltitle:moreinfo":"Please visit Strafford Organic Creamery on Foodtree","address":" Strafford, Vermont, USA","title":"Strafford Organic Creamery"}},{"type":"Feature","geometry":{"type":"Point","coordinates":[-72.30917,44.52167]},"properties":{"url:moreinfo":"http:\/\/foodtree.com\/sources\/23871","urltitle:moreinfo":"Please visit Riverside Farm on Foodtree","address":" E Hardwick, Vermont, USA","title":"Riverside Farm"}},{"type":"Feature","geometry":{"type":"Point","coordinates":[-72.379167,44.658056]},"properties":{"url:moreinfo":"http:\/\/foodtree.com\/sources\/9664","urltitle:moreinfo":"Please visit Pete's Greens on Foodtree","address":"South Craftsbury Road,  Craftsbury, Vermont, USA","title":"Pete's Greens"}},{"type":"Feature","geometry":{"type":"Point","coordinates":[-73.1968,42.878101]},"properties":{"url:moreinfo":"http:\/\/foodtree.com\/sources\/9658","urltitle:moreinfo":"Please visit Maplebrook Farm on Foodtree","address":"PO Box 966, Bennington, VT, United States","title":"Maplebrook Farm"}},{"type":"Feature","geometry":{"type":"Point","coordinates":[-72.267998,44.587601]},"properties":{"url:moreinfo":"http:\/\/foodtree.com\/sources\/8672","urltitle:moreinfo":"Please visit Jasper Hill Farm on Foodtree","address":"148 Town Hwy 41, Greensboro, Vermont, USA","title":"Jasper Hill Farm"}},{"type":"Feature","geometry":{"type":"Point","coordinates":[-72.300278,44.589167]},"properties":{"url:moreinfo":"http:\/\/foodtree.com\/sources\/9688","urltitle:moreinfo":"Please visit Hazendale Farm on Foodtree","address":"P.O. Box 74,  Greensboro, Vermont, USA","title":"Hazendale Farm"}},{"type":"Feature","geometry":{"type":"Point","coordinates":[-72.246111,44.48]},"properties":{"url:moreinfo":"http:\/\/foodtree.com\/sources\/22191","urltitle:moreinfo":"Please visit Harvest Hill Farm on Foodtree","address":" Walden, Vermont, USA","title":"Harvest Hill Farm"}},{"type":"Feature","geometry":{"type":"Point","coordinates":[-72.446667,44.866667]},"properties":{"url:moreinfo":"http:\/\/foodtree.com\/sources\/9648","urltitle:moreinfo":"Please visit Butterworks Farm on Foodtree","address":"421 Trumpass Road,  Westfield, Vermont, USA","title":"Butterworks Farm"}},{"type":"Feature","geometry":{"type":"Point","coordinates":[-72.317881,44.666446]},"properties":{"url:moreinfo":"http:\/\/foodtree.com\/sources\/13351","urltitle:moreinfo":"Please visit Bonnieview Farm on Foodtree","address":"2228 South Albany Road, Craftsbury Common, VT, USA","title":"Bonnieview Farm"}},{"type":"Feature","geometry":{"type":"Point","coordinates":[-72.312302,44.401395]},"properties":{"url:moreinfo":"http:\/\/foodtree.com\/sources\/20831","urltitle:moreinfo":"Please visit Blackwell Roots Farm on Foodtree","address":" Cabot, Vermont, USA","title":"Blackwell Roots Farm"}},{"type":"Feature","geometry":{"type":"Point","coordinates":[-72.616519,44.593932]},"properties":{"url:moreinfo":"http:\/\/foodtree.com\/sources\/6004","urltitle:moreinfo":"Please visit Applecheek Farm on Foodtree","address":"567 McFarlane Road,  Hyde Park, Vermont, USA","title":"Applecheek Farm"}},{"type":"Feature","geometry":{"type":"Point","coordinates":[-72.349701,44.518101]},"properties":{"url:moreinfo":"http:\/\/foodtree.com\/sources\/9681","urltitle:moreinfo":"Please visit Vermont Soy on Foodtree","address":"180 Junction Road, Hardwick, VT, United States","title":"Vermont Soy"}},{"type":"Feature","geometry":{"type":"Point","coordinates":[-73.167351,44.015329]},"properties":{"url:moreinfo":"http:\/\/foodtree.com\/sources\/9676","urltitle:moreinfo":"Please visit Vermont Coffee Company on Foodtree","address":"1197 Exchange Street, #3,  Middlebury, Vermont, USA","title":"Vermont Coffee Company"}},{"type":"Feature","geometry":{"type":"Point","coordinates":[-72.366985,44.504006]},"properties":{"url:moreinfo":"http:\/\/foodtree.com\/sources\/18741","urltitle:moreinfo":"Please visit Claire's on Foodtree","address":"41 South Main St, Hardwick, Vermont, USA","title":"Claire's"}}],"properties":{"title":"Claire's - connections"}}