{"type":"FeatureCollection","features":[{"type":"Feature","geometry":{"type":"Point","coordinates":[-123.054616,49.32563]},"properties":{"url:moreinfo":"http:\/\/foodtree.com\/sources\/85351","urltitle:moreinfo":"Please visit Learning Together Intergenerational Garden on Foodtree","address":"1858 Sutherland Avenue, North Vancouver, BC, Canada","title":"Learning Together Intergenerational Garden"}},{"type":"Feature","geometry":{"type":"Point","coordinates":[-123.062219,49.314675]},"properties":{"url:moreinfo":"http:\/\/foodtree.com\/sources\/85341","urltitle:moreinfo":"Please visit Ridgeway Intergenerational Garden on Foodtree","address":"420 East 8th Street, North Vancouver, BC, Canada","title":"Ridgeway Intergenerational Garden"}},{"type":"Feature","geometry":{"type":"Point","coordinates":[-123.09083,49.324349]},"properties":{"url:moreinfo":"http:\/\/foodtree.com\/sources\/85331","urltitle:moreinfo":"Please visit Westview Intergenerational Garden on Foodtree","address":"641 West 17th Street, North Vancouver, BC, Canada","title":"Westview Intergenerational Garden"}},{"type":"Feature","geometry":{"type":"Point","coordinates":[-123.111131,49.320202]},"properties":{"url:moreinfo":"http:\/\/foodtree.com\/sources\/85321","urltitle:moreinfo":"Please visit Novaco Intergenerational Garden on Foodtree","address":"1370 Redwood Street\u00a0, North Vancouver, BC, Canada","title":"Novaco Intergenerational Garden"}},{"type":"Feature","geometry":{"type":"Point","coordinates":[-123.074784,49.311318]},"properties":{"url:moreinfo":"http:\/\/foodtree.com\/sources\/85311","urltitle:moreinfo":"Please visit Lower Lonsdale Community Garden on Foodtree","address":"East 2nd St and St Georges Ave, North Vancouver, BC, Canada","title":"Lower Lonsdale Community Garden"}},{"type":"Feature","geometry":{"type":"Point","coordinates":[-123.075557,49.310568]},"properties":{"url:moreinfo":"http:\/\/foodtree.com\/sources\/85301","urltitle:moreinfo":"Please visit Charros Community Garden on Foodtree","address":"East 1st St and St Georges Ave, North Vancouver, BC, Canada","title":"Charros Community Garden"}},{"type":"Feature","geometry":{"type":"Point","coordinates":[-123.02433,49.313982]},"properties":{"url:moreinfo":"http:\/\/foodtree.com\/sources\/85291","urltitle:moreinfo":"Please visit Lillooet Park Community Garden on Foodtree","address":"Old Lillooet Road and Lillooet Road, North Vancouver, BC, Canada","title":"Lillooet Park Community Garden"}},{"type":"Feature","geometry":{"type":"Point","coordinates":[-123.078225,49.33643]},"properties":{"url:moreinfo":"http:\/\/foodtree.com\/sources\/85281","urltitle:moreinfo":"Please visit Queen Mary Community Garden on Foodtree","address":"Keith Rd W and Mahon Ave, North Vancouver, BC, Canada","title":"Queen Mary Community Garden"}},{"type":"Feature","geometry":{"type":"Point","coordinates":[-123.064018,49.331135]},"properties":{"url:moreinfo":"http:\/\/foodtree.com\/sources\/85271","urltitle:moreinfo":"Please visit Community Orchard on Foodtree","address":"341 E 24th Street, North Vancouver, BC, Canada","title":"Community Orchard"}},{"type":"Feature","geometry":{"type":"Point","coordinates":[-123.078225,49.33643]},"properties":{"url:moreinfo":"http:\/\/foodtree.com\/sources\/85261","urltitle:moreinfo":"Please visit Queen Mary Food Forest on Foodtree","address":"Keith Rd W and Mahon Ave, North Vancouver, BC, Canada","title":"Queen Mary Food Forest"}},{"type":"Feature","geometry":{"type":"Point","coordinates":[-123.078225,49.33643]},"properties":{"url:moreinfo":"http:\/\/foodtree.com\/sources\/85251","urltitle:moreinfo":"Please visit Urban Grain Demonstration Garden on Foodtree","address":"Keith Rd W and Mahon Ave, North Vancouver, BC, Canada","title":"Urban Grain Demonstration Garden"}},{"type":"Feature","geometry":{"type":"Point","coordinates":[-123.046253,49.322354]},"properties":{"url:moreinfo":"http:\/\/foodtree.com\/sources\/85241","urltitle:moreinfo":"Please visit Loutet Farm on Foodtree","address":"E 14th Street and Rufus Ave, North Vancouver, BC, Canada","title":"Loutet Farm"}},{"type":"Feature","geometry":{"type":"Point","coordinates":[-123.031019,49.313912]},"properties":{"url:moreinfo":"http:\/\/foodtree.com\/sources\/85231","urltitle:moreinfo":"Please visit Norvan Sharing Garden on Foodtree","address":"800 Forsman Avenue, North Vancouver, BC, Canada","title":"Norvan Sharing Garden"}},{"type":"Feature","geometry":{"type":"Point","coordinates":[-123.078225,49.33643]},"properties":{"url:moreinfo":"http:\/\/foodtree.com\/sources\/85221","urltitle:moreinfo":"Please visit Queen Mary Sharing Garden on Foodtree","address":"Keith Rd W and Mahon Ave, North Vancouver, BC, Canada","title":"Queen Mary Sharing Garden"}},{"type":"Feature","geometry":{"type":"Point","coordinates":[-123.02433,49.313982]},"properties":{"url:moreinfo":"http:\/\/foodtree.com\/sources\/85211","urltitle:moreinfo":"Please visit Lillooet Sharing Garden on Foodtree","address":"Old Lillooet Road and Lillooet Road, North Vancouver, BC, Canada","title":"Lillooet Sharing Garden"}},{"type":"Feature","geometry":{"type":"Point","coordinates":[-123.169742,49.330996]},"properties":{"url:moreinfo":"http:\/\/foodtree.com\/sources\/85201","urltitle:moreinfo":"Please visit West Van Community Centre Sharing Garden on Foodtree","address":"2121 Marine Drive, West Vancouver, BC, Canada","title":"West Van Community Centre Sharing Garden"}},{"type":"Feature","geometry":{"type":"Point","coordinates":[-123.151595,49.332457]},"properties":{"url:moreinfo":"http:\/\/foodtree.com\/sources\/85191","urltitle:moreinfo":"Please visit Mary-Ann's Sharing Garden on Foodtree","address":"1309 Gordon Avenue, West Vancouver, BC, Canada","title":"Mary-Ann's Sharing Garden"}},{"type":"Feature","geometry":{"type":"Point","coordinates":[-123.078234,49.312544]},"properties":{"url:moreinfo":"http:\/\/foodtree.com\/sources\/85181","urltitle:moreinfo":"Please visit SecondWave Sharing Garden on Foodtree","address":"139 Lonsdale Avenue, North Vancouver, BC, Canada","title":"SecondWave Sharing Garden"}},{"type":"Feature","geometry":{"type":"Point","coordinates":[-123.068987,49.332299]},"properties":{"url:moreinfo":"http:\/\/foodtree.com\/sources\/85171","urltitle:moreinfo":"Please visit Keating Sharing Garden on Foodtree","address":"172 E 25th Street, North Vancouver, BC, Canada","title":"Keating Sharing Garden"}},{"type":"Feature","geometry":{"type":"Point","coordinates":[-123.05307,49.309431]},"properties":{"url:moreinfo":"http:\/\/foodtree.com\/sources\/85161","urltitle:moreinfo":"Please visit Booth Sharing Garden on Foodtree","address":"827 E 4th Street, North Vancouver, BC, Canada","title":"Booth Sharing Garden"}},{"type":"Feature","geometry":{"type":"Point","coordinates":[-123.085458,49.336561]},"properties":{"url:moreinfo":"http:\/\/foodtree.com\/sources\/85151","urltitle:moreinfo":"Please visit Delbrook Community Recreation Centre on Foodtree","address":"600 West Queens Road, North Vancouver, BC, V7N 2L3, Canada","title":"Delbrook Community Recreation Centre"}},{"type":"Feature","geometry":{"type":"Point","coordinates":[-123.092941,49.336588]},"properties":{"url:moreinfo":"http:\/\/foodtree.com\/sources\/85141","urltitle:moreinfo":"Please visit William Griffin Community Recreation Centre on Foodtree","address":"851 West Queens Road, North Vancouver, BC, V7N 4E3, Canada","title":"William Griffin Community Recreation Centre"}},{"type":"Feature","geometry":{"type":"Point","coordinates":[-123.069735,49.329275]},"properties":{"url:moreinfo":"http:\/\/foodtree.com\/sources\/85131","urltitle:moreinfo":"Please visit Silver Harbour Seniors' Activity Centre on Foodtree","address":"144 East 22nd Street, North Vancouver, BC, V7L 4L5, Canada","title":"Silver Harbour Seniors' Activity Centre"}},{"type":"Feature","geometry":{"type":"Point","coordinates":[-123.021889,49.320915]},"properties":{"url:moreinfo":"http:\/\/foodtree.com\/sources\/85121","urltitle:moreinfo":"Please visit North Shore Equestrian Center on Foodtree","address":"1301 Lillooet Road, North Vancouver, BC, V7J 2J1, Canada","title":"North Shore Equestrian Center"}},{"type":"Feature","geometry":{"type":"Point","coordinates":[-123.07757,49.336471]},"properties":{"url:moreinfo":"http:\/\/foodtree.com\/sources\/85111","urltitle:moreinfo":"Please visit North Vancouver District Hall on Foodtree","address":"355 West Queens Road, North Vancouver, BC, Canada","title":"North Vancouver District Hall"}},{"type":"Feature","geometry":{"type":"Point","coordinates":[-123.038021,49.338243]},"properties":{"url:moreinfo":"http:\/\/foodtree.com\/sources\/85101","urltitle:moreinfo":"Please visit Lynn Valley Parent Participation Preschool on Foodtree","address":"3220 Mountain Hwy, North Vancouver, BC, Canada","title":"Lynn Valley Parent Participation Preschool"}},{"type":"Feature","geometry":{"type":"Point","coordinates":[-122.951047,49.318199]},"properties":{"url:moreinfo":"http:\/\/foodtree.com\/sources\/85091","urltitle:moreinfo":"Please visit Seycove Secondary School on Foodtree","address":"1204 Caledonia Avenue, North Vancouver, BC, Canada","title":"Seycove Secondary School"}},{"type":"Feature","geometry":{"type":"Point","coordinates":[-123.046169,49.333811]},"properties":{"url:moreinfo":"http:\/\/foodtree.com\/sources\/85081","urltitle:moreinfo":"Please visit Vancouver Waldorf School on Foodtree","address":"2725 St. Christophers Road, North Vancouver, BC, Canada","title":"Vancouver Waldorf School"}},{"type":"Feature","geometry":{"type":"Point","coordinates":[-123.085458,49.336561]},"properties":{"url:moreinfo":"http:\/\/foodtree.com\/sources\/85071","urltitle:moreinfo":"Please visit Delbrook Community Center on Foodtree","address":"600 West Queens Road, North Vancouver, BC, Canada","title":"Delbrook Community Center"}},{"type":"Feature","geometry":{"type":"Point","coordinates":[-123.048028,49.331921]},"properties":{"url:moreinfo":"http:\/\/foodtree.com\/sources\/85061","urltitle:moreinfo":"Please visit Mollie Nye House Garden on Foodtree","address":"940 Lynn Valley Road, North Vancouver, BC, V7J 1Z7, Canada","title":"Mollie Nye House Garden"}},{"type":"Feature","geometry":{"type":"Point","coordinates":[-123.023987,49.31565]},"properties":{"url:moreinfo":"http:\/\/foodtree.com\/sources\/85051","urltitle:moreinfo":"Please visit Lillooet Community Garden on Foodtree","address":"900 Lillooet Road, North Vancouver, BC, Canada","title":"Lillooet Community Garden"}},{"type":"Feature","geometry":{"type":"Point","coordinates":[-123.113138,49.330065]},"properties":{"url:moreinfo":"http:\/\/foodtree.com\/sources\/85041","urltitle:moreinfo":"Please visit Sunflower Preschool on Foodtree","address":"2260 Philip Avenue, North Vancouver, BC, V7P 2W8, Canada","title":"Sunflower Preschool"}},{"type":"Feature","geometry":{"type":"Point","coordinates":[-123.051572,49.31242]},"properties":{"url:moreinfo":"http:\/\/foodtree.com\/sources\/85031","urltitle:moreinfo":"Please visit Home on Foodtree","address":"908 Adderley Street, north Vancouver, BC, Canada","title":"Home"}},{"type":"Feature","geometry":{"type":"Point","coordinates":[-123.081478,49.318951]},"properties":{"url:moreinfo":"http:\/\/foodtree.com\/sources\/85021","urltitle:moreinfo":"Please visit Apartment Community Garden on Foodtree","address":"320 West 6th street, North Vancouver, bC, Canada","title":"Apartment Community Garden"}},{"type":"Feature","geometry":{"type":"Point","coordinates":[-123.038805,49.336482]},"properties":{"url:moreinfo":"http:\/\/foodtree.com\/sources\/85011","urltitle:moreinfo":"Please visit YYoga North Shore Elements on Foodtree","address":"231-1233 Lynn Valley Rd, North Vancouver, BC, V7J 0A1, Canada","title":"YYoga North Shore Elements"}},{"type":"Feature","geometry":{"type":"Point","coordinates":[-123.098059,49.337516]},"properties":{"url:moreinfo":"http:\/\/foodtree.com\/sources\/85001","urltitle:moreinfo":"Please visit Highlands School on Foodtree","address":"3150 Colwood Dr, North Vancouver, BC, V7R 2R6, Canada","title":"Highlands School"}},{"type":"Feature","geometry":{"type":"Point","coordinates":[-123.030031,49.335189]},"properties":{"url:moreinfo":"http:\/\/foodtree.com\/sources\/84991","urltitle:moreinfo":"Please visit Ross Road School on Foodtree","address":"2875 Bushnell Place, North Vancouver, BC, V7J 2Y9, canada","title":"Ross Road School"}},{"type":"Feature","geometry":{"type":"Point","coordinates":[-123.073816,49.310794]},"properties":{"url:moreinfo":"http:\/\/foodtree.com\/sources\/29631","urltitle:moreinfo":"Please visit Edible Garden Project on Foodtree","address":"225 East 2nd Street, North Vancouver, BC, V7L 1C4, Canada","title":"Edible Garden Project"}}],"properties":{"title":"Edible Garden Project - connections"}}