{"type":"FeatureCollection","features":[{"type":"Feature","geometry":{"type":"Point","coordinates":[108.27719898493,14.058323998082]},"properties":{"supplychain_instance_id":"supplychain-1","stop_instance_id":"stop-2158","description":"","address":"Vietnam","title":"Vietnam"}},{"type":"Feature","geometry":{"type":"Point","coordinates":[-95.712890986677,37.090239995559]},"properties":{"supplychain_instance_id":"supplychain-1","stop_instance_id":"stop-2067","description":"","address":"United States","title":"United States of America"}},{"type":"Feature","geometry":{"type":"Point","coordinates":[-3.4359729995217,55.378050994717]},"properties":{"supplychain_instance_id":"supplychain-1","stop_instance_id":"stop-1978","description":"","address":"United Kingdom","title":"United Kingdom"}},{"type":"Feature","geometry":{"type":"Point","coordinates":[35.243321995095,38.963744995414]},"properties":{"supplychain_instance_id":"supplychain-1","stop_instance_id":"stop-1891","description":"","address":"Turkey","title":"Turkey"}},{"type":"Feature","geometry":{"type":"Point","coordinates":[100.99254098594,15.870031997848]},"properties":{"youtube:link":"","water":"0","energy":"0","co2e":"0","weight":"0","supplychain_instance_id":"supplychain-1","stop_instance_id":"stop-1764","description":"","address":"Thailand","title":"Thailand"}},{"type":"Feature","geometry":{"type":"Point","coordinates":[120.96051498316,23.697809996889]},"properties":{"supplychain_instance_id":"supplychain-1","stop_instance_id":"stop-1681","description":"","address":"Taiwan","title":"Taiwan"}},{"type":"Feature","geometry":{"type":"Point","coordinates":[80.771796988756,7.873053998911]},"properties":{"supplychain_instance_id":"supplychain-1","stop_instance_id":"stop-1600","description":"","address":"Sri Lanka","title":"Sri Lanka"}},{"type":"Feature","geometry":{"type":"Point","coordinates":[-3.7492199994781,40.463666995306]},"properties":{"supplychain_instance_id":"supplychain-1","stop_instance_id":"stop-1521","description":"","address":"Spain","title":"Spain"}},{"type":"Feature","geometry":{"type":"Point","coordinates":[127.76692198221,35.907756995657]},"properties":{"supplychain_instance_id":"supplychain-1","stop_instance_id":"stop-1444","description":"","address":"South Korea","title":"South Korea"}},{"type":"Feature","geometry":{"type":"Point","coordinates":[22.937505996807,-30.55948199615]},"properties":{"supplychain_instance_id":"supplychain-1","stop_instance_id":"stop-1369","description":"","address":"South Africa","title":"South Africa"}},{"type":"Feature","geometry":{"type":"Point","coordinates":[103.81983598554,1.3520829998118]},"properties":{"supplychain_instance_id":"supplychain-1","stop_instance_id":"stop-1296","description":"","address":"Singapore","title":"Singapore"}},{"type":"Feature","geometry":{"type":"Point","coordinates":[-8.2244539988552,39.399871995382]},"properties":{"supplychain_instance_id":"supplychain-1","stop_instance_id":"stop-1225","description":"","address":"Portugal","title":"Portugal"}},{"type":"Feature","geometry":{"type":"Point","coordinates":[121.77401698304,12.879720998237]},"properties":{"supplychain_instance_id":"supplychain-1","stop_instance_id":"stop-1156","description":"","address":"Philippines","title":"Philippines"}},{"type":"Feature","geometry":{"type":"Point","coordinates":[-75.015151989558,-9.1899669987314]},"properties":{"supplychain_instance_id":"supplychain-1","stop_instance_id":"stop-1089","description":"","address":"Peru","title":"Peru"}},{"type":"Feature","geometry":{"type":"Point","coordinates":[69.345115990347,30.375320996168]},"properties":{"supplychain_instance_id":"supplychain-1","stop_instance_id":"stop-1024","description":"","address":"Pakistan","title":"Pakistan"}},{"type":"Feature","geometry":{"type":"Point","coordinates":[-85.207228988139,12.865415998239]},"properties":{"supplychain_instance_id":"supplychain-1","stop_instance_id":"stop-961","description":"","address":"Nicaragua","title":"Nicaragua"}},{"type":"Feature","geometry":{"type":"Point","coordinates":[-102.55278398572,23.634500996897]},"properties":{"supplychain_instance_id":"supplychain-1","stop_instance_id":"stop-900","description":"","address":"Mexico","title":"Mexico"}},{"type":"Feature","geometry":{"type":"Point","coordinates":[101.97576598581,4.2104839994149]},"properties":{"supplychain_instance_id":"supplychain-1","stop_instance_id":"stop-841","description":"","address":"Malaysia","title":"Malaysia"}},{"type":"Feature","geometry":{"type":"Point","coordinates":[28.23360799607,-29.609987996245]},"properties":{"supplychain_instance_id":"supplychain-1","stop_instance_id":"stop-784","description":"","address":"Lesotho","title":"Lesotho"}},{"type":"Feature","geometry":{"type":"Point","coordinates":[36.238413994956,30.585163996148]},"properties":{"supplychain_instance_id":"supplychain-1","stop_instance_id":"stop-729","description":"","address":"Jordan","title":"Jordan"}},{"type":"Feature","geometry":{"type":"Point","coordinates":[138.25292398076,36.204823995632]},"properties":{"supplychain_instance_id":"supplychain-1","stop_instance_id":"stop-676","description":"","address":"Japan","title":"Japan"}},{"type":"Feature","geometry":{"type":"Point","coordinates":[12.56737999825,41.871939995212]},"properties":{"supplychain_instance_id":"supplychain-1","stop_instance_id":"stop-625","description":"","address":"Italy","title":"Italy"}},{"type":"Feature","geometry":{"type":"Point","coordinates":[34.851611995149,31.046050996101]},"properties":{"supplychain_instance_id":"supplychain-1","stop_instance_id":"stop-484","description":"","address":"Israel","title":"Israel"}},{"type":"Feature","geometry":{"type":"Point","coordinates":[-8.2438899988524,53.412909994738]},"properties":{"supplychain_instance_id":"supplychain-1","stop_instance_id":"stop-441","description":"","address":"Ireland","title":"Ireland"}},{"type":"Feature","geometry":{"type":"Point","coordinates":[113.92132698414,-0.78927499989015]},"properties":{"supplychain_instance_id":"supplychain-1","stop_instance_id":"stop-400","description":"","address":"Indonesia","title":"Indonesia"}},{"type":"Feature","geometry":{"type":"Point","coordinates":[78.962879989009,20.593683997257]},"properties":{"supplychain_instance_id":"supplychain-1","stop_instance_id":"stop-361","description":"","address":"India","title":"India"}},{"type":"Feature","geometry":{"type":"Point","coordinates":[114.10949698411,22.396427997041]},"properties":{"supplychain_instance_id":"supplychain-1","stop_instance_id":"stop-324","description":"","address":"Hong Kong","title":"Hong Kong"}},{"type":"Feature","geometry":{"type":"Point","coordinates":[-86.241904987995,15.199998997934]},"properties":{"supplychain_instance_id":"supplychain-1","stop_instance_id":"stop-289","description":"","address":"Honduras","title":"Honduras"}},{"type":"Feature","geometry":{"type":"Point","coordinates":[-72.285214989938,18.971186997456]},"properties":{"supplychain_instance_id":"supplychain-1","stop_instance_id":"stop-256","description":"","address":"Haiti","title":"Haiti"}},{"type":"Feature","geometry":{"type":"Point","coordinates":[-90.230758987436,15.783470997858]},"properties":{"supplychain_instance_id":"supplychain-1","stop_instance_id":"stop-225","description":"","address":"Guatemala","title":"Guatemala"}},{"type":"Feature","geometry":{"type":"Point","coordinates":[21.824311996962,39.074207995406]},"properties":{"supplychain_instance_id":"supplychain-1","stop_instance_id":"stop-196","description":"","address":"Greece","title":"Greece"}},{"type":"Feature","geometry":{"type":"Point","coordinates":[10.451525998545,51.165690994785]},"properties":{"supplychain_instance_id":"supplychain-1","stop_instance_id":"stop-169","description":"","address":"Germany","title":"Germany"}},{"type":"Feature","geometry":{"type":"Point","coordinates":[2.2137489996918,46.227637994968]},"properties":{"supplychain_instance_id":"supplychain-1","stop_instance_id":"stop-144","description":"","address":"France","title":"France"}},{"type":"Feature","geometry":{"type":"Point","coordinates":[-88.896529987625,13.794184998117]},"properties":{"supplychain_instance_id":"supplychain-1","stop_instance_id":"stop-121","description":"","address":"El Salvador","title":"El Salvador"}},{"type":"Feature","geometry":{"type":"Point","coordinates":[30.802497995712,26.82055299654]},"properties":{"supplychain_instance_id":"supplychain-1","stop_instance_id":"stop-100","description":"","address":"Egypt","title":"Egypt"}},{"type":"Feature","geometry":{"type":"Point","coordinates":[-70.162650990233,18.735692997485]},"properties":{"supplychain_instance_id":"supplychain-1","stop_instance_id":"stop-81","description":"","address":"Dominican Republic","title":"Domincan Republic"}},{"type":"Feature","geometry":{"type":"Point","coordinates":[-74.297332989658,4.5708679993651]},"properties":{"supplychain_instance_id":"supplychain-1","stop_instance_id":"stop-64","description":"","address":"Colombia","title":"Columbia"}},{"type":"Feature","geometry":{"type":"Point","coordinates":[104.19539698549,35.861659995661]},"properties":{"supplychain_instance_id":"supplychain-1","stop_instance_id":"stop-49","description":"","address":"China","title":"China"}},{"type":"Feature","geometry":{"type":"Point","coordinates":[-106.3467709852,56.130365994714]},"properties":{"supplychain_instance_id":"supplychain-1","stop_instance_id":"stop-36","description":"","address":"Canada","title":"Canada"}},{"type":"Feature","geometry":{"type":"Point","coordinates":[104.99096298539,12.565678998279]},"properties":{"supplychain_instance_id":"supplychain-1","stop_instance_id":"stop-25","description":"","address":"Cambodia","title":"Cambodia"}},{"type":"Feature","geometry":{"type":"Point","coordinates":[25.485829996452,42.733882995158]},"properties":{"supplychain_instance_id":"supplychain-1","stop_instance_id":"stop-16","description":"","address":"Bulgaria","title":"Bulgaria"}},{"type":"Feature","geometry":{"type":"Point","coordinates":[-51.925279992772,-14.235003998059]},"properties":{"supplychain_instance_id":"supplychain-1","stop_instance_id":"stop-9","description":"","address":"Brazil","title":"Brazil"}},{"type":"Feature","geometry":{"type":"Point","coordinates":[90.356330987419,23.684993996891]},"properties":{"supplychain_instance_id":"supplychain-1","stop_instance_id":"stop-4","description":"","address":"Bangladesh","title":"Bangladesh"}},{"type":"Feature","geometry":{"type":"Point","coordinates":[50.637771992951,25.930413996637]},"properties":{"supplychain_instance_id":"supplychain-1","stop_instance_id":"stop-1","description":"","address":"Bahrain","title":"Bahrain"}}],"properties":{"description":"This map contains each country included in Gap Inc.'s 2011 list of sourcing countries as a means of visually representing the company's Global Value Chain","tags":"","title":"Gap Inc. Sourcing Countries","sm:ui:tileset":"cloudmade"}}