{"supplychain":{"category":null,"created":1335122431,"enable_comments":true,"flags":0,"id":2685,"modified":1335123488,"other_perms":1,"passcode":null,"user_featured":false,"usergroup_id":null,"usergroup_perms":0,"user_id":718,"owner":{"id":718,"name":"bfowle7","avatar":"http:\/\/free.sourcemap.com\/assets\/images\/default-user.png","banner_url":null,"display_name":null},"taxonomy":null,"attributes":{"description":"This map contains each country included in Gap Inc.'s 2011 list of sourcing countries as a means of visually representing the company's Global Value Chain","tags":"","title":"Gap Inc. Sourcing Countries","sm:ui:tileset":"cloudmade"},"stops":[{"local_stop_id":46,"id":46,"geometry":"POINT(12053362.655524 1580908.7583518)","attributes":{"supplychain_instance_id":"supplychain-1","stop_instance_id":"stop-2158","description":"","address":"Vietnam","title":"Vietnam"}},{"local_stop_id":45,"id":45,"geometry":"POINT(-10654710.286989 4451692.5541908)","attributes":{"supplychain_instance_id":"supplychain-1","stop_instance_id":"stop-2067","description":"","address":"United States","title":"United States of America"}},{"local_stop_id":44,"id":44,"geometry":"POINT(-382490.76468619 7435586.5299477)","attributes":{"supplychain_instance_id":"supplychain-1","stop_instance_id":"stop-1978","description":"","address":"United Kingdom","title":"United Kingdom"}},{"local_stop_id":43,"id":43,"geometry":"POINT(3923268.6583573 4716479.6839723)","attributes":{"supplychain_instance_id":"supplychain-1","stop_instance_id":"stop-1891","description":"","address":"Turkey","title":"Turkey"}},{"local_stop_id":42,"id":42,"geometry":"POINT(11242438.236474 1789676.6232449)","attributes":{"youtube:link":"","water":"0","energy":"0","co2e":"0","weight":"0","supplychain_instance_id":"supplychain-1","stop_instance_id":"stop-1764","description":"","address":"Thailand","title":"Thailand"}},{"local_stop_id":41,"id":41,"geometry":"POINT(13465262.934018 2716627.9388584)","attributes":{"supplychain_instance_id":"supplychain-1","stop_instance_id":"stop-1681","description":"","address":"Taiwan","title":"Taiwan"}},{"local_stop_id":40,"id":40,"geometry":"POINT(8991475.311246 879195.5175163)","attributes":{"supplychain_instance_id":"supplychain-1","stop_instance_id":"stop-1600","description":"","address":"Sri Lanka","title":"Sri Lanka"}},{"local_stop_id":39,"id":39,"geometry":"POINT(-417361.26121386 4933551.651775)","attributes":{"supplychain_instance_id":"supplychain-1","stop_instance_id":"stop-1521","description":"","address":"Spain","title":"Spain"}},{"local_stop_id":38,"id":38,"geometry":"POINT(14222948.695284 4287936.2888022)","attributes":{"supplychain_instance_id":"supplychain-1","stop_instance_id":"stop-1444","description":"","address":"South Korea","title":"South Korea"}},{"local_stop_id":37,"id":37,"geometry":"POINT(2553391.4876322 -3575670.6750294)","attributes":{"supplychain_instance_id":"supplychain-1","stop_instance_id":"stop-1369","description":"","address":"South Africa","title":"South Africa"}},{"local_stop_id":36,"id":36,"geometry":"POINT(11557171.276152 150527.16261961)","attributes":{"supplychain_instance_id":"supplychain-1","stop_instance_id":"stop-1296","description":"","address":"Singapore","title":"Singapore"}},{"local_stop_id":35,"id":35,"geometry":"POINT(-915542.03120526 4779112.7409819)","attributes":{"supplychain_instance_id":"supplychain-1","stop_instance_id":"stop-1225","description":"","address":"Portugal","title":"Portugal"}},{"local_stop_id":34,"id":34,"geometry":"POINT(13555821.562404 1445993.9972958)","attributes":{"supplychain_instance_id":"supplychain-1","stop_instance_id":"stop-1156","description":"","address":"Philippines","title":"Philippines"}},{"local_stop_id":33,"id":33,"geometry":"POINT(-8350648.5212576 -1027437.3556249)","attributes":{"supplychain_instance_id":"supplychain-1","stop_instance_id":"stop-1089","description":"","address":"Peru","title":"Peru"}},{"local_stop_id":32,"id":32,"geometry":"POINT(7719463.0010459 3551885.6644184)","attributes":{"supplychain_instance_id":"supplychain-1","stop_instance_id":"stop-1024","description":"","address":"Pakistan","title":"Pakistan"}},{"local_stop_id":31,"id":31,"geometry":"POINT(-9485225.3428655 1444360.5193557)","attributes":{"supplychain_instance_id":"supplychain-1","stop_instance_id":"stop-961","description":"","address":"Nicaragua","title":"Nicaragua"}},{"local_stop_id":30,"id":30,"geometry":"POINT(-11416123.692723 2708933.2918558)","attributes":{"supplychain_instance_id":"supplychain-1","stop_instance_id":"stop-900","description":"","address":"Mexico","title":"Mexico"}},{"local_stop_id":29,"id":29,"geometry":"POINT(11351890.342794 469131.36759243)","attributes":{"supplychain_instance_id":"supplychain-1","stop_instance_id":"stop-841","description":"","address":"Malaysia","title":"Malaysia"}},{"local_stop_id":28,"id":28,"geometry":"POINT(3142950.8653794 -3453515.3049818)","attributes":{"supplychain_instance_id":"supplychain-1","stop_instance_id":"stop-784","description":"","address":"Lesotho","title":"Lesotho"}},{"local_stop_id":27,"id":27,"geometry":"POINT(4034041.7930743 3578991.1717096)","attributes":{"supplychain_instance_id":"supplychain-1","stop_instance_id":"stop-729","description":"","address":"Jordan","title":"Jordan"}},{"local_stop_id":26,"id":26,"geometry":"POINT(15390245.098219 4328841.5619102)","attributes":{"supplychain_instance_id":"supplychain-1","stop_instance_id":"stop-676","description":"","address":"Japan","title":"Japan"}},{"local_stop_id":25,"id":25,"geometry":"POINT(1398994.3420108 5141815.9369254)","attributes":{"supplychain_instance_id":"supplychain-1","stop_instance_id":"stop-625","description":"","address":"Italy","title":"Italy"}},{"local_stop_id":22,"id":22,"geometry":"POINT(3879663.7006247 3638731.1870765)","attributes":{"supplychain_instance_id":"supplychain-1","stop_instance_id":"stop-484","description":"","address":"Israel","title":"Israel"}},{"local_stop_id":21,"id":21,"geometry":"POINT(-917705.63682801 7059743.326019)","attributes":{"supplychain_instance_id":"supplychain-1","stop_instance_id":"stop-441","description":"","address":"Ireland","title":"Ireland"}},{"local_stop_id":20,"id":20,"geometry":"POINT(12681664.110369 -87864.47003112)","attributes":{"supplychain_instance_id":"supplychain-1","stop_instance_id":"stop-400","description":"","address":"Indonesia","title":"Indonesia"}},{"local_stop_id":19,"id":19,"geometry":"POINT(8790107.5919468 2343495.1653783)","attributes":{"supplychain_instance_id":"supplychain-1","stop_instance_id":"stop-361","description":"","address":"India","title":"India"}},{"local_stop_id":18,"id":18,"geometry":"POINT(12702611.098948 2559188.1798433)","attributes":{"supplychain_instance_id":"supplychain-1","stop_instance_id":"stop-324","description":"","address":"Hong Kong","title":"Hong Kong"}},{"local_stop_id":17,"id":17,"geometry":"POINT(-9600404.9483055 1712260.1402682)","attributes":{"supplychain_instance_id":"supplychain-1","stop_instance_id":"stop-289","description":"","address":"Honduras","title":"Honduras"}},{"local_stop_id":16,"id":16,"geometry":"POINT(-8046753.3245622 2151543.9444501)","attributes":{"supplychain_instance_id":"supplychain-1","stop_instance_id":"stop-256","description":"","address":"Haiti","title":"Haiti"}},{"local_stop_id":15,"id":15,"geometry":"POINT(-10044442.144372 1779661.0115165)","attributes":{"supplychain_instance_id":"supplychain-1","stop_instance_id":"stop-225","description":"","address":"Guatemala","title":"Guatemala"}},{"local_stop_id":14,"id":14,"geometry":"POINT(2429471.2984153 4732306.8123197)","attributes":{"supplychain_instance_id":"supplychain-1","stop_instance_id":"stop-196","description":"","address":"Greece","title":"Greece"}},{"local_stop_id":13,"id":13,"geometry":"POINT(1163458.5521707 6650655.0402484)","attributes":{"supplychain_instance_id":"supplychain-1","stop_instance_id":"stop-169","description":"","address":"Germany","title":"Germany"}},{"local_stop_id":12,"id":12,"geometry":"POINT(246433.41138981 5816903.7126173)","attributes":{"supplychain_instance_id":"supplychain-1","stop_instance_id":"stop-144","description":"","address":"France","title":"France"}},{"local_stop_id":11,"id":11,"geometry":"POINT(-9895916.4515114 1550614.4482931)","attributes":{"supplychain_instance_id":"supplychain-1","stop_instance_id":"stop-121","description":"","address":"El Salvador","title":"El Salvador"}},{"local_stop_id":10,"id":10,"geometry":"POINT(3428918.3920435 3101070.0503622)","attributes":{"supplychain_instance_id":"supplychain-1","stop_instance_id":"stop-100","description":"","address":"Egypt","title":"Egypt"}},{"local_stop_id":9,"id":9,"geometry":"POINT(-7810470.5809389 2123842.6258654)","attributes":{"supplychain_instance_id":"supplychain-1","stop_instance_id":"stop-81","description":"","address":"Dominican Republic","title":"Domincan Republic"}},{"local_stop_id":8,"id":8,"geometry":"POINT(-8270741.275707 509367.28126829)","attributes":{"supplychain_instance_id":"supplychain-1","stop_instance_id":"stop-64","description":"","address":"Colombia","title":"Columbia"}},{"local_stop_id":7,"id":7,"geometry":"POINT(11598978.535428 4281602.6590309)","attributes":{"supplychain_instance_id":"supplychain-1","stop_instance_id":"stop-49","description":"","address":"China","title":"China"}},{"local_stop_id":6,"id":6,"geometry":"POINT(-11838468.393581 7584411.7316911)","attributes":{"supplychain_instance_id":"supplychain-1","stop_instance_id":"stop-36","description":"","address":"Canada","title":"Canada"}},{"local_stop_id":5,"id":5,"geometry":"POINT(11687540.537429 1410155.0120853)","attributes":{"supplychain_instance_id":"supplychain-1","stop_instance_id":"stop-25","description":"","address":"Cambodia","title":"Cambodia"}},{"local_stop_id":4,"id":4,"geometry":"POINT(2837069.617649 5271553.4466849)","attributes":{"supplychain_instance_id":"supplychain-1","stop_instance_id":"stop-16","description":"","address":"Bulgaria","title":"Bulgaria"}},{"local_stop_id":3,"id":3,"geometry":"POINT(-5780295.7280935 -1601191.8132151)","attributes":{"supplychain_instance_id":"supplychain-1","stop_instance_id":"stop-9","description":"","address":"Brazil","title":"Brazil"}},{"local_stop_id":2,"id":2,"geometry":"POINT(10058420.755468 2715069.9669033)","attributes":{"supplychain_instance_id":"supplychain-1","stop_instance_id":"stop-4","description":"","address":"Bangladesh","title":"Bangladesh"}},{"local_stop_id":1,"id":1,"geometry":"POINT(5636970.9931612 2990464.968506)","attributes":{"supplychain_instance_id":"supplychain-1","stop_instance_id":"stop-1","description":"","address":"Bahrain","title":"Bahrain"}}],"hops":[]},"editable":false}