{"type":"FeatureCollection","features":[{"type":"Feature","geometry":{"type":"Point","coordinates":[-123.183185,49.268564]},"properties":{"url:moreinfo":"http:\/\/foodtree.com\/sources\/17631","urltitle:moreinfo":"Please visit Aphrodite's Organic Cafe & Pie Shop on Foodtree","address":"3598 West 4th Avenue, Vancouver, BC, Canada, V6R 1N8","title":"Aphrodite's Organic Cafe & Pie Shop"}},{"type":"Feature","geometry":{"type":"Point","coordinates":[-123.162003,49.263]},"properties":{"url:moreinfo":"http:\/\/foodtree.com\/sources\/2","urltitle:moreinfo":"Please visit Kitsilano Farmers Market on Foodtree","address":"W 10 Ave & Larch St, Vancouver, British Columbia, Canada","title":"Kitsilano Farmers Market"}},{"type":"Feature","geometry":{"type":"Point","coordinates":[-123.128998,49.281799]},"properties":{"url:moreinfo":"http:\/\/foodtree.com\/sources\/3","urltitle:moreinfo":"Please visit West End Farmers Market on Foodtree","address":"1100 Comox Street, Vancouver, British Columbia, Canada","title":"West End Farmers Market"}},{"type":"Feature","geometry":{"type":"Point","coordinates":[-123.061996,49.256302]},"properties":{"url:moreinfo":"http:\/\/foodtree.com\/sources\/1","urltitle:moreinfo":"Please visit Trout Lake Farmers Market on Foodtree","address":"Trout Lake, North end of John Hendry Park, Vancouver, British Columbia, Canada","title":"Trout Lake Farmers Market"}},{"type":"Feature","geometry":{"type":"Point","coordinates":[-122.18,49.056599]},"properties":{"url:moreinfo":"http:\/\/foodtree.com\/sources\/107","urltitle:moreinfo":"Please visit Skeeter Farm on Foodtree","address":"Sumas River Bridge, Abbotsford  , British Columbia, Canada","title":"Skeeter Farm"}}],"properties":{"title":"Skeeter Farm"}}