{"type":"FeatureCollection","features":[{"type":"Feature","geometry":{"type":"Point","coordinates":[-123.0923454,49.126074799998]},"properties":{"description":"","title":"Queso Picante","placename":"12031 No 5 Rd, Richmond, BC V7A 4G1, Canada","address":"12031 No. 5. Road, Richmond, BC"}},{"type":"Feature","geometry":{"type":"Point","coordinates":[-123.0923454,49.126074799998]},"properties":{"description":"","title":"Fritas Del Sol","placename":"12031 No 5 Rd, Richmond, BC V7A 4G1, Canada","address":"12031 No. 5. Road, Richmond, BC"}},{"type":"Feature","geometry":{"type":"Point","coordinates":[-123.0923454,49.126074799998]},"properties":{"description":"","title":"Organic Corn Chips","placename":"12031 No 5 Rd, Richmond, BC V7A 4G1, Canada","address":"12031 No. 5. Road, Richmond, BC"}},{"type":"Feature","geometry":{"type":"Point","coordinates":[-123.0923454,49.126074799998]},"properties":{"description":"","title":"Blue Organic Corn Chips","placename":"12031 No 5 Rd, Richmond, BC V7A 4G1, Canada","address":"12031 No. 5. Road, Richmond, BC"}},{"type":"Feature","geometry":{"type":"Point","coordinates":[-123.0923454,49.126074799998]},"properties":{"description":"","title":"Black Bean Salsa","placename":"12031 No 5 Rd, Richmond, BC V7A 4G1, Canada","address":"12031 No. 5. Road, Richmond, BC"}},{"type":"Feature","geometry":{"type":"Point","coordinates":[-123.0923454,49.126074799998]},"properties":{"description":"","title":"Salsa Mexicana","placename":"12031 No 5 Rd, Richmond, BC V7A 4G1, Canada","address":"12031 No. 5. Road, Richmond, BC"}},{"type":"Feature","geometry":{"type":"Point","coordinates":[-123.0923454,49.126074799998]},"properties":{"description":"","title":"Salsa Pina","placename":"12031 No 5 Rd, Richmond, BC V7A 4G1, Canada","address":"12031 No. 5. Road, Richmond, BC"}},{"type":"Feature","geometry":{"type":"Point","coordinates":[-123.0923454,49.126074799998]},"properties":{"description":"","title":"Salsa Chipotle","placename":"12031 No 5 Rd, Richmond, BC V7A 4G1, Canada","address":"12031 No. 5. Road, Richmond, BC"}},{"type":"Feature","geometry":{"type":"Point","coordinates":[-123.0923454,49.126074799998]},"properties":{"description":"","title":"Burrito \u2013 Beef\/Bean","placename":"12031 No 5 Rd, Richmond, BC V7A 4G1, Canada","address":"12031 No. 5. Road, Richmond, BC"}},{"type":"Feature","geometry":{"type":"Point","coordinates":[-123.0923454,49.126074799998]},"properties":{"description":"","title":"Burrito \u2013 Chicken & Bean","placename":"12031 No 5 Rd, Richmond, BC V7A 4G1, Canada","address":"12031 No. 5. Road, Richmond, BC"}},{"type":"Feature","geometry":{"type":"Point","coordinates":[-123.0923454,49.126074799998]},"properties":{"description":"","title":"Fajita \u2013 Chicken","placename":"12031 No 5 Rd, Richmond, BC V7A 4G1, Canada","address":"12031 No. 5. Road, Richmond, BC"}},{"type":"Feature","geometry":{"type":"Point","coordinates":[-123.0923454,49.126074799998]},"properties":{"description":"","title":"Burrito \u2013 Bean\/Cheese","placename":"12031 No 5 Rd, Richmond, BC V7A 4G1, Canada","address":"12031 No. 5. Road, Richmond, BC"}},{"type":"Feature","geometry":{"type":"Point","coordinates":[-123.0923454,49.126074799998]},"properties":{"description":"","title":"Organic Corn Tortilla","placename":"12031 No 5 Rd, Richmond, BC V7A 4G1, Canada","address":"12031 No. 5. Road, Richmond, BC"}},{"type":"Feature","geometry":{"type":"Point","coordinates":[-123.0923454,49.126074799998]},"properties":{"description":"","title":"Fajita Style Tortilla","placename":"12031 No 5 Rd, Richmond, BC V7A 4G1, Canada","address":"12031 No. 5. Road, Richmond, BC"}},{"type":"Feature","geometry":{"type":"Point","coordinates":[-123.0923454,49.126074799998]},"properties":{"description":"","title":"Salsa Roja(red)-Mild","placename":"12031 No 5 Rd, Richmond, BC V7A 4G1, Canada","address":"12031 No. 5. Road, Richmond, BC"}},{"type":"Feature","geometry":{"type":"Point","coordinates":[-123.0923454,49.126074799998]},"properties":{"description":"","title":"Salsa Roja(red)-Medium","placename":"12031 No 5 Rd, Richmond, BC V7A 4G1, Canada","address":"12031 No. 5. Road, Richmond, BC"}},{"type":"Feature","geometry":{"type":"Point","coordinates":[-123.0923454,49.126074799998]},"properties":{"description":"","title":"Enchilada \u2013 Chicken","placename":"12031 No 5 Rd, Richmond, BC V7A 4G1, Canada","address":"12031 No. 5. Road, Richmond, BC"}},{"type":"Feature","geometry":{"type":"Point","coordinates":[-123.0923454,49.126074799998]},"properties":{"description":"","title":"Salsa Roja(red)-Hot","placename":"12031 No 5 Rd, Richmond, BC V7A 4G1, Canada","address":"12031 No. 5. Road, Richmond, BC"}},{"type":"Feature","geometry":{"type":"Point","coordinates":[-123.0923454,49.126074799998]},"properties":{"description":"","title":"Red Organic Corn Chips","placename":"12031 No 5 Rd, Richmond, BC V7A 4G1, Canada","address":"12031 No. 5. Road, Richmond, BC"}},{"type":"Feature","geometry":{"type":"Point","coordinates":[-123.0923454,49.126074799998]},"properties":{"description":"","title":"Carnival\/Canada Chips","placename":"12031 No 5 Rd, Richmond, BC V7A 4G1, Canada","address":"12031 No. 5. Road, Richmond, BC"}},{"type":"Feature","geometry":{"type":"Point","coordinates":[-123.0923454,49.126074799998]},"properties":{"description":"","title":"Tortilla","placename":"12031 No 5 Rd, Richmond, BC V7A 4G1, Canada","address":"12031 No. 5. Road, Richmond, BC"}},{"type":"Feature","geometry":{"type":"Point","coordinates":[-122.7642253,49.253193999998]},"properties":{"description":"","title":"Butternut Ravioli & Pesto","placename":"1750 McLean Ave, Port Coquitlam, BC V3C 1M9, Canada","address":"1750 McLean Ave, Port Coquitlam"}},{"type":"Feature","geometry":{"type":"Point","coordinates":[-122.7642253,49.253193999998]},"properties":{"description":"","title":"Cheese Tortellini & Tomato Herb Sauce","placename":"1750 McLean Ave, Port Coquitlam, BC V3C 1M9, Canada","address":"1750 McLean Ave, Port Coquitlam"}},{"type":"Feature","geometry":{"type":"Point","coordinates":[-122.7642253,49.253193999998]},"properties":{"description":"","title":"Ravioli, Butternut Squash","placename":"1750 McLean Ave, Port Coquitlam, BC V3C 1M9, Canada","address":"1750 McLean Ave, Port Coquitlam"}},{"type":"Feature","geometry":{"type":"Point","coordinates":[-122.7642253,49.253193999998]},"properties":{"description":"","title":"Tortellini, Garlic Chicken","placename":"1750 McLean Ave, Port Coquitlam, BC V3C 1M9, Canada","address":"1750 McLean Ave, Port Coquitlam"}},{"type":"Feature","geometry":{"type":"Point","coordinates":[-122.8261092,49.282985299999]},"properties":{"description":"","title":"Enviro-Bleach","placename":"255 Newport Dr, Port Moody, BC V3H 5C6, Canada","address":"255 Newport Drive Port Moody, BC"}},{"type":"Feature","geometry":{"type":"Point","coordinates":[-122.8261092,49.282985299999]},"properties":{"description":"","title":"Glass Cleaner","placename":"255 Newport Dr, Port Moody, BC V3H 5C6, Canada","address":"255 Newport Drive Port Moody, BC"}},{"type":"Feature","geometry":{"type":"Point","coordinates":[-122.8261092,49.282985299999]},"properties":{"description":"","title":"All Purpose Cleaner","placename":"255 Newport Dr, Port Moody, BC V3H 5C6, Canada","address":"255 Newport Drive Port Moody, BC"}},{"type":"Feature","geometry":{"type":"Point","coordinates":[-122.8261092,49.282985299999]},"properties":{"description":"","title":"Liquid Laundry Detergent","placename":"255 Newport Dr, Port Moody, BC V3H 5C6, Canada","address":"255 Newport Drive Port Moody, BC"}},{"type":"Feature","geometry":{"type":"Point","coordinates":[-122.8261092,49.282985299999]},"properties":{"description":"","title":"Powder Laundry Detergent","placename":"255 Newport Dr, Port Moody, BC V3H 5C6, Canada","address":"255 Newport Drive Port Moody, BC"}},{"type":"Feature","geometry":{"type":"Point","coordinates":[-122.8261092,49.282985299999]},"properties":{"description":"","title":"Unscented Fabric Softner","placename":"255 Newport Dr, Port Moody, BC V3H 5C6, Canada","address":"255 Newport Drive Port Moody, BC"}},{"type":"Feature","geometry":{"type":"Point","coordinates":[-122.8261092,49.282985299999]},"properties":{"description":"","title":"Lemongrass Fabric Softner","placename":"255 Newport Dr, Port Moody, BC V3H 5C6, Canada","address":"255 Newport Drive Port Moody, BC"}},{"type":"Feature","geometry":{"type":"Point","coordinates":[-122.8261092,49.282985299999]},"properties":{"description":"","title":"Lavender Fabric Softner","placename":"255 Newport Dr, Port Moody, BC V3H 5C6, Canada","address":"255 Newport Drive Port Moody, BC"}},{"type":"Feature","geometry":{"type":"Point","coordinates":[-122.8261092,49.282985299999]},"properties":{"description":"","title":"Auto Dishwashing Powder","placename":"255 Newport Dr, Port Moody, BC V3H 5C6, Canada","address":"255 Newport Drive Port Moody, BC"}},{"type":"Feature","geometry":{"type":"Point","coordinates":[-122.8261092,49.282985299999]},"properties":{"description":"","title":"Dishwashing Liquid","placename":"255 Newport Dr, Port Moody, BC V3H 5C6, Canada","address":"255 Newport Drive Port Moody, BC"}},{"type":"Feature","geometry":{"type":"Point","coordinates":[-122.8261092,49.282985299999]},"properties":{"description":"","title":"Dishwashing Liquid (1L bulk)","placename":"255 Newport Dr, Port Moody, BC V3H 5C6, Canada","address":"255 Newport Drive Port Moody, BC"}},{"type":"Feature","geometry":{"type":"Point","coordinates":[-122.8261092,49.282985299999]},"properties":{"description":"","title":"Laundry Liquid Detergent (1L bulk)","placename":"255 Newport Dr, Port Moody, BC V3H 5C6, Canada","address":"255 Newport Drive Port Moody, BC"}},{"type":"Feature","geometry":{"type":"Point","coordinates":[-122.9961246,49.190041699999]},"properties":{"description":"","title":"Hemp Peanut Butter","placename":"7442 Fraser Park Dr, Burnaby, BC V5J 5B9, Canada","address":"7442 Fraser Park Drive, Burnaby"}},{"type":"Feature","geometry":{"type":"Point","coordinates":[-122.285045,49.056800000002]},"properties":{"description":"","title":"k-9 10\u201d bone","placename":"Abbotsford, BC, Canada","address":"Abbotsford, BC"}},{"type":"Feature","geometry":{"type":"Point","coordinates":[-118.1270146,34.095287000002]},"properties":{"description":"","title":"Cashew Sesame","placename":"Alhambra, CA, USA","address":"Alhambra, CA"}},{"type":"Feature","geometry":{"type":"Point","coordinates":[-118.1270146,34.095287000002]},"properties":{"description":"","title":"Sierra Mix","placename":"Alhambra, CA, USA","address":"Alhambra, CA"}},{"type":"Feature","geometry":{"type":"Point","coordinates":[-118.1270146,34.095287000002]},"properties":{"description":"","title":"Raw Energy","placename":"Alhambra, CA, USA","address":"Alhambra, CA"}},{"type":"Feature","geometry":{"type":"Point","coordinates":[-111.0937311,34.048928099999]},"properties":{"description":"","title":"Mixed Baby Greens","placename":"Arizona, USA","address":"Arizona"}},{"type":"Feature","geometry":{"type":"Point","coordinates":[-111.0937311,34.048928099999]},"properties":{"description":"","title":"Spinach Baby Salad","placename":"Arizona, USA","address":"Arizona"}},{"type":"Feature","geometry":{"type":"Point","coordinates":[14.550071999996,47.516230999997]},"properties":{"description":"","title":"Miso Bouillon, Organic, Vegan","placename":"Austria","address":"Austria"}},{"type":"Feature","geometry":{"type":"Point","coordinates":[14.550071999996,47.516230999997]},"properties":{"description":"","title":"Vege Bouillon, Organic, Vegan","placename":"Austria","address":"Austria"}},{"type":"Feature","geometry":{"type":"Point","coordinates":[-119.0187125,35.373292099999]},"properties":{"description":"","title":"Onions","placename":"Bakersfield, CA, USA","address":"Bakersfield, California"}},{"type":"Feature","geometry":{"type":"Point","coordinates":[-127.6476206,53.726668299998]},"properties":{"description":"","title":"Unbleached White Flour, Bulk","placename":"British Columbia, Canada","address":"BC"}},{"type":"Feature","geometry":{"type":"Point","coordinates":[-127.6476206,53.726668299998]},"properties":{"description":"","title":"Whole Wheat Flour, Bulk","placename":"British Columbia, Canada","address":"BC"}},{"type":"Feature","geometry":{"type":"Point","coordinates":[-72.435055200003,46.350621500002]},"properties":{"description":"","title":"Organic Parmesan (Raw Milk)","placename":"B\u00e9cancour, QC, Canada","address":"Becancour, QC"}},{"type":"Feature","geometry":{"type":"Point","coordinates":[-72.435055200003,46.350621500002]},"properties":{"description":"","title":"Cheddar 2 Year Old","placename":"B\u00e9cancour, QC, Canada","address":"Becancour, QC"}},{"type":"Feature","geometry":{"type":"Point","coordinates":[-72.435055200003,46.350621500002]},"properties":{"description":"","title":"l'ancetre marble","placename":"B\u00e9cancour, QC, Canada","address":"Becancour, QC"}},{"type":"Feature","geometry":{"type":"Point","coordinates":[-72.435055200003,46.350621500002]},"properties":{"description":"","title":"Mozzarella, 20%MF","placename":"B\u00e9cancour, QC, Canada","address":"Becancour, QC"}},{"type":"Feature","geometry":{"type":"Point","coordinates":[-122.2758008,37.520214499998]},"properties":{"description":"","title":"White Jasmine Sparkling Tea","placename":"Belmont, CA, USA","address":"Belmont, CA"}},{"type":"Feature","geometry":{"type":"Point","coordinates":[-122.272747,37.871592599997]},"properties":{"description":"","title":"Caramel Nut","placename":"Berkeley, CA, USA","address":"Berkeley, CA"}},{"type":"Feature","geometry":{"type":"Point","coordinates":[-122.272747,37.871592599997]},"properties":{"description":"","title":"Lemonzest","placename":"Berkeley, CA, USA","address":"Berkeley, CA"}},{"type":"Feature","geometry":{"type":"Point","coordinates":[106.6291304,11.142383399998]},"properties":{"description":"","title":"Pistachio Tube","placename":"Binh Duong province, Vietnam","address":"Binh Duong, Vietnam"}},{"type":"Feature","geometry":{"type":"Point","coordinates":[-63.588652999998,-16.290154000002]},"properties":{"description":"","title":"Organic Quinoa","placename":"Bolivia","address":"Bolivia"}},{"type":"Feature","geometry":{"type":"Point","coordinates":[-63.588652999998,-16.290154000002]},"properties":{"description":"","title":"Organic FT Quinoa","placename":"Bolivia","address":"Bolivia"}},{"type":"Feature","geometry":{"type":"Point","coordinates":[-51.925279999999,-14.235004]},"properties":{"description":"","title":"Band-Aid Assorted Clear","placename":"Brazil","address":"Brazil"}},{"type":"Feature","geometry":{"type":"Point","coordinates":[-119.152152,49.037013999997]},"properties":{"description":"","title":"Sparkling Spring Water","placename":"Bridesville, BC V0H, Canada","address":"Bridesville, BC"}},{"type":"Feature","geometry":{"type":"Point","coordinates":[-75.347411799999,39.800946400002]},"properties":{"description":"","title":"Roast Garlic Sauce","placename":"Bridgeport, Logan Township, NJ 08014, USA","address":"Bridgeport, NJ"}},{"type":"Feature","geometry":{"type":"Point","coordinates":[-75.347411799999,39.800946400002]},"properties":{"description":"","title":"Organic Stone Ground Mustard","placename":"Bridgeport, Logan Township, NJ 08014, USA","address":"Bridgeport, NJ"}},{"type":"Feature","geometry":{"type":"Point","coordinates":[-73.959493999998,40.6528762]},"properties":{"description":"","title":"Q-Tonic, Four-Pack","placename":"Kings, NY, USA","address":"Brooklyn, NY"}},{"type":"Feature","geometry":{"type":"Point","coordinates":[-73.959493999998,40.6528762]},"properties":{"description":"","title":"Q-Tonic","placename":"Kings, NY, USA","address":"Brooklyn, NY"}},{"type":"Feature","geometry":{"type":"Point","coordinates":[-73.959493999998,40.6528762]},"properties":{"description":"","title":"Q-Tonic, Large","placename":"Kings, NY, USA","address":"Brooklyn, NY"}},{"type":"Feature","geometry":{"type":"Point","coordinates":[-105.0866504,39.920541100002]},"properties":{"description":"","title":"Silk Soy","placename":"Broomfield, CO, USA","address":"Broomfield, Colorado"}},{"type":"Feature","geometry":{"type":"Point","coordinates":[-122.973796,49.248869]},"properties":{"description":"","title":"Almond Butter","placename":"Burnaby, BC, Canada","address":"Burnaby, BC"}},{"type":"Feature","geometry":{"type":"Point","coordinates":[-122.973796,49.248869]},"properties":{"description":"","title":"Tahini","placename":"Burnaby, BC, Canada","address":"Burnaby, BC"}},{"type":"Feature","geometry":{"type":"Point","coordinates":[-122.973796,49.248869]},"properties":{"description":"","title":"Organic Granola","placename":"Burnaby, BC, Canada","address":"Burnaby, BC"}},{"type":"Feature","geometry":{"type":"Point","coordinates":[-122.973796,49.248869]},"properties":{"description":"","title":"Mango Chutney, Organic, Kosher, Vegan","placename":"Burnaby, BC, Canada","address":"Burnaby, BC"}},{"type":"Feature","geometry":{"type":"Point","coordinates":[-114.0572222,51.044999999999]},"properties":{"description":"","title":"Almond Milk, Unsweetened","placename":"Calgary, AB, Canada","address":"Calgary"}},{"type":"Feature","geometry":{"type":"Point","coordinates":[-119.4179324,36.778260999999]},"properties":{"description":"","title":"Natural Sodas","placename":"California, USA","address":"California"}},{"type":"Feature","geometry":{"type":"Point","coordinates":[-119.4179324,36.778260999999]},"properties":{"description":"","title":"Natural Cherry Vanilla Cr\u00e8me","placename":"California, USA","address":"California"}},{"type":"Feature","geometry":{"type":"Point","coordinates":[-119.4179324,36.778260999999]},"properties":{"description":"","title":"Natural Cola","placename":"California, USA","address":"California"}},{"type":"Feature","geometry":{"type":"Point","coordinates":[-119.4179324,36.778260999999]},"properties":{"description":"","title":"Natural Jamaican Ginger Ale","placename":"California, USA","address":"California"}},{"type":"Feature","geometry":{"type":"Point","coordinates":[-119.4179324,36.778260999999]},"properties":{"description":"","title":"Natural Creamy Root Beer","placename":"California, USA","address":"California"}},{"type":"Feature","geometry":{"type":"Point","coordinates":[-119.4179324,36.778260999999]},"properties":{"description":"","title":"Natural Creamy Root Beer \u2013 12s","placename":"California, USA","address":"California"}},{"type":"Feature","geometry":{"type":"Point","coordinates":[-119.4179324,36.778260999999]},"properties":{"description":"","title":"Natural Soda 6-pak","placename":"California, USA","address":"California"}},{"type":"Feature","geometry":{"type":"Point","coordinates":[-119.4179324,36.778260999999]},"properties":{"description":"","title":"Prunes","placename":"California, USA","address":"California"}},{"type":"Feature","geometry":{"type":"Point","coordinates":[-106.346771,56.130366000001]},"properties":{"description":"","title":"Sumsuma Sesame Squares","placename":"Canada","address":"Canada"}},{"type":"Feature","geometry":{"type":"Point","coordinates":[-106.346771,56.130366000001]},"properties":{"description":"","title":"Kitchen Catchers","placename":"Canada","address":"Canada"}},{"type":"Feature","geometry":{"type":"Point","coordinates":[-106.346771,56.130366000001]},"properties":{"description":"","title":"Cascade Facial Tissue","placename":"Canada","address":"Canada ?"}},{"type":"Feature","geometry":{"type":"Point","coordinates":[-106.346771,56.130366000001]},"properties":{"description":"","title":"Rice Pasta & Cheddar","placename":"Canada","address":"Canada ?"}},{"type":"Feature","geometry":{"type":"Point","coordinates":[-106.346771,56.130366000001]},"properties":{"description":"","title":"Creamy Deluxe Macaroni","placename":"Canada","address":"Canada ?"}},{"type":"Feature","geometry":{"type":"Point","coordinates":[-106.346771,56.130366000001]},"properties":{"description":"","title":"Organic WW Shells & Cheddar","placename":"Canada","address":"Canada ?"}},{"type":"Feature","geometry":{"type":"Point","coordinates":[-106.346771,56.130366000001]},"properties":{"description":"","title":"Country Wild Rice Mix","placename":"Canada","address":"Canada ?"}},{"type":"Feature","geometry":{"type":"Point","coordinates":[-106.346771,56.130366000001]},"properties":{"description":"","title":"Cocoa Powder","placename":"Canada","address":"Canada ?"}},{"type":"Feature","geometry":{"type":"Point","coordinates":[-123.137766,49.163468999999]},"properties":{"description":"","title":"waffles","placename":"Richmond, BC, Canada","address":"Canada\/dist by Richmond, BC"}},{"type":"Feature","geometry":{"type":"Point","coordinates":[-73.516666700002,45.383333300003]},"properties":{"description":"","title":"Bathroom Tissue \u2013 4 Rolls","placename":"Candiac, QC, Canada","address":"Candiac, QC"}},{"type":"Feature","geometry":{"type":"Point","coordinates":[-73.516666700002,45.383333300003]},"properties":{"description":"","title":"Bathroom Tissue \u2013 12 Rolls","placename":"Candiac, QC, Canada","address":"Candiac, QC"}},{"type":"Feature","geometry":{"type":"Point","coordinates":[-118.2820165,33.831405800002]},"properties":{"description":"","title":"Conditioner, Cherry Almond","placename":"Carson, CA, USA","address":"Carson, CA"}},{"type":"Feature","geometry":{"type":"Point","coordinates":[-121.8374777,39.728494400003]},"properties":{"description":"","title":"Knudsen Tomato","placename":"Chico, CA, USA","address":"Chico, CA"}},{"type":"Feature","geometry":{"type":"Point","coordinates":[-71.542969,-35.675146999998]},"properties":{"description":"","title":"Thompson Raisin","placename":"Chile","address":"Chile"}},{"type":"Feature","geometry":{"type":"Point","coordinates":[-121.9514666,49.157940099998]},"properties":{"description":"","title":"Pure Cranberry Juice","placename":"Chilliwack, BC, Canada","address":"Chilliwack, BC"}},{"type":"Feature","geometry":{"type":"Point","coordinates":[-121.9514666,49.157940099998]},"properties":{"description":"","title":"Harvest Moon Cider","placename":"Chilliwack, BC, Canada","address":"Chilliwack, BC"}},{"type":"Feature","geometry":{"type":"Point","coordinates":[-121.9514666,49.157940099998]},"properties":{"description":"","title":"Triple Jim Apple Cider","placename":"Chilliwack, BC, Canada","address":"Chilliwack, BC"}},{"type":"Feature","geometry":{"type":"Point","coordinates":[-121.9514666,49.157940099998]},"properties":{"description":"","title":"Pancake & Waffle Mix","placename":"Chilliwack, BC, Canada","address":"Chilliwack, BC"}},{"type":"Feature","geometry":{"type":"Point","coordinates":[-121.9514666,49.157940099998]},"properties":{"description":"","title":"7 Grain Cereal","placename":"Chilliwack, BC, Canada","address":"Chilliwack, BC"}},{"type":"Feature","geometry":{"type":"Point","coordinates":[-121.9514666,49.157940099998]},"properties":{"description":"","title":"Oats","placename":"Chilliwack, BC, Canada","address":"Chilliwack, BC"}},{"type":"Feature","geometry":{"type":"Point","coordinates":[-121.9514666,49.157940099998]},"properties":{"description":"","title":"Oats, Quick Rolled","placename":"Chilliwack, BC, Canada","address":"Chilliwack, BC"}},{"type":"Feature","geometry":{"type":"Point","coordinates":[104.195397,35.861660000001]},"properties":{"description":"","title":"Soy Nuts Dry Roasted Salted","placename":"China","address":"China"}},{"type":"Feature","geometry":{"type":"Point","coordinates":[104.195397,35.861660000001]},"properties":{"description":"","title":"Tea Towels","placename":"China","address":"China"}},{"type":"Feature","geometry":{"type":"Point","coordinates":[104.195397,35.861660000001]},"properties":{"description":"","title":"I'm Not A Paper Cup","placename":"China","address":"China"}},{"type":"Feature","geometry":{"type":"Point","coordinates":[104.195397,35.861660000001]},"properties":{"description":"","title":"Eco Cup","placename":"China","address":"China"}},{"type":"Feature","geometry":{"type":"Point","coordinates":[104.195397,35.861660000001]},"properties":{"description":"","title":"I am not a plastic lid","placename":"China","address":"China"}},{"type":"Feature","geometry":{"type":"Point","coordinates":[104.195397,35.861660000001]},"properties":{"description":"","title":"CF 11W Bulb","placename":"China","address":"China"}},{"type":"Feature","geometry":{"type":"Point","coordinates":[104.195397,35.861660000001]},"properties":{"description":"","title":"CF 13W Bulb","placename":"China","address":"China"}},{"type":"Feature","geometry":{"type":"Point","coordinates":[104.195397,35.861660000001]},"properties":{"description":"","title":"CF 40W Bulb","placename":"China","address":"China"}},{"type":"Feature","geometry":{"type":"Point","coordinates":[104.195397,35.861660000001]},"properties":{"description":"","title":"CF 23W 2pk","placename":"China","address":"China"}},{"type":"Feature","geometry":{"type":"Point","coordinates":[104.195397,35.861660000001]},"properties":{"description":"","title":"CF 13W 2pk","placename":"China","address":"China"}},{"type":"Feature","geometry":{"type":"Point","coordinates":[-82.919551400003,42.586888199997]},"properties":{"description":"","title":"Kidney Beans, Organic","placename":"Charter Township of Clinton, MI, USA","address":"Clinton, MI"}},{"type":"Feature","geometry":{"type":"Point","coordinates":[-82.919551400003,42.586888199997]},"properties":{"description":"","title":"Black Beans, Organic","placename":"Charter Township of Clinton, MI, USA","address":"Clinton, MI"}},{"type":"Feature","geometry":{"type":"Point","coordinates":[-82.919551400003,42.586888199997]},"properties":{"description":"","title":"Rice & Cajun, Organic","placename":"Charter Township of Clinton, MI, USA","address":"Clinton, MI"}},{"type":"Feature","geometry":{"type":"Point","coordinates":[-82.919551400003,42.586888199997]},"properties":{"description":"","title":"Refried Pinto Beans","placename":"Charter Township of Clinton, MI, USA","address":"Clinton, MI"}},{"type":"Feature","geometry":{"type":"Point","coordinates":[-90.511734299999,30.765518299996]},"properties":{"description":"","title":"Natural Hand Made Soaps","placename":"Commercial Dr, Roseland, LA 70456, USA","address":"Commercial Drive"}},{"type":"Feature","geometry":{"type":"Point","coordinates":[-90.511734299999,30.765518299996]},"properties":{"description":"","title":"Snow Dragon","placename":"Commercial Dr, Roseland, LA 70456, USA","address":"Commercial Drive"}},{"type":"Feature","geometry":{"type":"Point","coordinates":[-90.511734299999,30.765518299996]},"properties":{"description":"","title":"Forest","placename":"Commercial Dr, Roseland, LA 70456, USA","address":"Commercial Drive"}},{"type":"Feature","geometry":{"type":"Point","coordinates":[-90.511734299999,30.765518299996]},"properties":{"description":"","title":"Six Citrus","placename":"Commercial Dr, Roseland, LA 70456, USA","address":"Commercial Drive"}},{"type":"Feature","geometry":{"type":"Point","coordinates":[-90.511734299999,30.765518299996]},"properties":{"description":"","title":"Kitchen Soap","placename":"Commercial Dr, Roseland, LA 70456, USA","address":"Commercial Drive"}},{"type":"Feature","geometry":{"type":"Point","coordinates":[-90.511734299999,30.765518299996]},"properties":{"description":"","title":"Lavender","placename":"Commercial Dr, Roseland, LA 70456, USA","address":"Commercial Drive"}},{"type":"Feature","geometry":{"type":"Point","coordinates":[-90.511734299999,30.765518299996]},"properties":{"description":"","title":"Surrender","placename":"Commercial Dr, Roseland, LA 70456, USA","address":"Commercial Drive"}},{"type":"Feature","geometry":{"type":"Point","coordinates":[-90.511734299999,30.765518299996]},"properties":{"description":"","title":"Patchouli Lime","placename":"Commercial Dr, Roseland, LA 70456, USA","address":"Commercial Drive"}},{"type":"Feature","geometry":{"type":"Point","coordinates":[-90.511734299999,30.765518299996]},"properties":{"description":"","title":"Faery Meadow","placename":"Commercial Dr, Roseland, LA 70456, USA","address":"Commercial Drive"}},{"type":"Feature","geometry":{"type":"Point","coordinates":[-79.468821999997,43.806866900003]},"properties":{"description":"","title":"Sunflower Oil","placename":"Concord, Vaughan, ON, Canada","address":"Concord, Ontario"}},{"type":"Feature","geometry":{"type":"Point","coordinates":[-124.9489278,50.116727800002]},"properties":{"description":"","title":"Tealights","placename":"Cortes Island, British Columbia, Canada","address":"Cortes Island, BC"}},{"type":"Feature","geometry":{"type":"Point","coordinates":[-124.9489278,50.116727800002]},"properties":{"description":"","title":"Small Frog","placename":"Cortes Island, British Columbia, Canada","address":"Cortes Island, BC"}},{"type":"Feature","geometry":{"type":"Point","coordinates":[-124.9489278,50.116727800002]},"properties":{"description":"","title":"Small Bear","placename":"Cortes Island, British Columbia, Canada","address":"Cortes Island, BC"}},{"type":"Feature","geometry":{"type":"Point","coordinates":[-124.9489278,50.116727800002]},"properties":{"description":"","title":"Boat","placename":"Cortes Island, British Columbia, Canada","address":"Cortes Island, BC"}},{"type":"Feature","geometry":{"type":"Point","coordinates":[-124.9489278,50.116727800002]},"properties":{"description":"","title":"Lighthouse","placename":"Cortes Island, British Columbia, Canada","address":"Cortes Island, BC"}},{"type":"Feature","geometry":{"type":"Point","coordinates":[-122.912533,49.148654999999]},"properties":{"description":"","title":"Biodegradable Poo Bags","placename":"Delta, BC, Canada","address":"Delta, BC"}},{"type":"Feature","geometry":{"type":"Point","coordinates":[-122.912533,49.148654999999]},"properties":{"description":"","title":"Imagine Broth","placename":"Delta, BC, Canada","address":"Delta, BC"}},{"type":"Feature","geometry":{"type":"Point","coordinates":[-122.912533,49.148654999999]},"properties":{"description":"","title":"Imagine Soup","placename":"Delta, BC, Canada","address":"Delta, BC"}},{"type":"Feature","geometry":{"type":"Point","coordinates":[-122.912533,49.148654999999]},"properties":{"description":"","title":"Creamy Butternut Squash Soup","placename":"Delta, BC, Canada","address":"Delta, BC"}},{"type":"Feature","geometry":{"type":"Point","coordinates":[-122.912533,49.148654999999]},"properties":{"description":"","title":"OLYM Org Blueberry 12\/175g*","placename":"Delta, BC, Canada","address":"Delta, BC"}},{"type":"Feature","geometry":{"type":"Point","coordinates":[-122.912533,49.148654999999]},"properties":{"description":"","title":"OLYM Org Peach 12\/175g*","placename":"Delta, BC, Canada","address":"Delta, BC"}},{"type":"Feature","geometry":{"type":"Point","coordinates":[-122.912533,49.148654999999]},"properties":{"description":"","title":"OLYM Org Raspberry 12\/175g*","placename":"Delta, BC, Canada","address":"Delta, BC"}},{"type":"Feature","geometry":{"type":"Point","coordinates":[-122.912533,49.148654999999]},"properties":{"description":"","title":"OLYM Org Strawberry 12\/175g*","placename":"Delta, BC, Canada","address":"Delta, BC"}},{"type":"Feature","geometry":{"type":"Point","coordinates":[-122.912533,49.148654999999]},"properties":{"description":"","title":"Krema Plain Yogurt","placename":"Delta, BC, Canada","address":"Delta, BC"}},{"type":"Feature","geometry":{"type":"Point","coordinates":[-95.845325300003,46.817180799998]},"properties":{"description":"","title":"Swheat Scoop","placename":"Detroit Lakes, MN, USA","address":"Detroit Lakes, MN"}},{"type":"Feature","geometry":{"type":"Point","coordinates":[-3.9269443999955,5.2563888999973]},"properties":{"description":"","title":"Diapers Size 2","placename":"Port Bouet Airport (ABJ), Abidjan, C\u00f4te d'Ivoire","address":"diap"}},{"type":"Feature","geometry":{"type":"Point","coordinates":[-3.9269443999955,5.2563888999973]},"properties":{"description":"","title":"Diapers Size 3","placename":"Port Bouet Airport (ABJ), Abidjan, C\u00f4te d'Ivoire","address":"diap"}},{"type":"Feature","geometry":{"type":"Point","coordinates":[-3.9269443999955,5.2563888999973]},"properties":{"description":"","title":"Diapers Size 4","placename":"Port Bouet Airport (ABJ), Abidjan, C\u00f4te d'Ivoire","address":"diap"}},{"type":"Feature","geometry":{"type":"Point","coordinates":[-79.343147999997,43.736350000001]},"properties":{"description":"","title":"Assorted Creme Biscuits","placename":"Don Mills, Toronto, ON M3C, Canada","address":"Don Mills, ON"}},{"type":"Feature","geometry":{"type":"Point","coordinates":[-79.343147999997,43.736350000001]},"properties":{"description":"","title":"Ritz","placename":"Don Mills, Toronto, ON M3C, Canada","address":"Don Mills, ON"}},{"type":"Feature","geometry":{"type":"Point","coordinates":[-79.343147999997,43.736350000001]},"properties":{"description":"","title":"Organic Baking Powder","placename":"Don Mills, Toronto, ON M3C, Canada","address":"Don Mills, ON"}},{"type":"Feature","geometry":{"type":"Point","coordinates":[-113.5,53.533333300001]},"properties":{"description":"","title":"Rice Spaghetti","placename":"Edmonton, AB, Canada","address":"Edmonton, AB"}},{"type":"Feature","geometry":{"type":"Point","coordinates":[-113.5,53.533333300001]},"properties":{"description":"","title":"Penne Rigate, Organic","placename":"Edmonton, AB, Canada","address":"Edmonton, AB"}},{"type":"Feature","geometry":{"type":"Point","coordinates":[-122.2852473,37.831315999999]},"properties":{"description":"","title":"Pomegranate, Organic Dressing","placename":"Emeryville, CA, USA","address":"Emryville, CA"}},{"type":"Feature","geometry":{"type":"Point","coordinates":[-122.2852473,37.831315999999]},"properties":{"description":"","title":"Herbes de Provence, Organic","placename":"Emeryville, CA, USA","address":"Emryville, CA"}},{"type":"Feature","geometry":{"type":"Point","coordinates":[-79.412977999996,43.767293999999]},"properties":{"description":"","title":"Worcesteshire Sauce","placename":"North York, Toronto, ON, Canada","address":"England\/prep for North York, ON"}},{"type":"Feature","geometry":{"type":"Point","coordinates":[-117.086421,33.119206800004]},"properties":{"description":"","title":"Lavender Liquid Soap, Organic","placename":"Escondido, CA, USA","address":"Escondido, CA, USA"}},{"type":"Feature","geometry":{"type":"Point","coordinates":[-117.086421,33.119206800004]},"properties":{"description":"","title":"Baby Mild Liquid Soap, Organic","placename":"Escondido, CA, USA","address":"Escondido, CA, USA"}},{"type":"Feature","geometry":{"type":"Point","coordinates":[-117.086421,33.119206800004]},"properties":{"description":"","title":"Peppermint Liquid Soap, Organic","placename":"Escondido, CA, USA","address":"Escondido, CA, USA"}},{"type":"Feature","geometry":{"type":"Point","coordinates":[-117.086421,33.119206800004]},"properties":{"description":"","title":"Tea Tree Oil Liquid Soap, Organic","placename":"Escondido, CA, USA","address":"Escondido, CA, USA"}},{"type":"Feature","geometry":{"type":"Point","coordinates":[25.748150999997,61.924109999999]},"properties":{"description":"","title":"Panda Licorice \u2013 box","placename":"Finland","address":"Finland"}},{"type":"Feature","geometry":{"type":"Point","coordinates":[25.748150999997,61.924109999999]},"properties":{"description":"","title":"Panda Licorice \u2013 bar","placename":"Finland","address":"Finland"}},{"type":"Feature","geometry":{"type":"Point","coordinates":[-118.3089624,33.888348699999]},"properties":{"description":"","title":"Soap","placename":"Gardena, CA, USA","address":"Gardena, CA"}},{"type":"Feature","geometry":{"type":"Point","coordinates":[10.451526000003,51.165690999999]},"properties":{"description":"","title":"Apollinaris Mineral Water","placename":"Germany","address":"Germany"}},{"type":"Feature","geometry":{"type":"Point","coordinates":[10.451526000003,51.165690999999]},"properties":{"description":"","title":"Organic Regular Tampons","placename":"Germany","address":"Germany"}},{"type":"Feature","geometry":{"type":"Point","coordinates":[10.451526000003,51.165690999999]},"properties":{"description":"","title":"Organic Tampons w\/Applicator","placename":"Germany","address":"Germany"}},{"type":"Feature","geometry":{"type":"Point","coordinates":[-3.4359729999961,55.378051000001]},"properties":{"description":"","title":"Carrs Crackers","placename":"United Kingdom","address":"Great Britain"}},{"type":"Feature","geometry":{"type":"Point","coordinates":[-3.4359729999961,55.378051000001]},"properties":{"description":"","title":"Orzo, Organic","placename":"United Kingdom","address":"Great Britain"}},{"type":"Feature","geometry":{"type":"Point","coordinates":[-3.4359729999961,55.378051000001]},"properties":{"description":"","title":"Citrus Mints","placename":"United Kingdom","address":"Great Britain"}},{"type":"Feature","geometry":{"type":"Point","coordinates":[-3.4359729999961,55.378051000001]},"properties":{"description":"","title":"Peppermint","placename":"United Kingdom","address":"Great Britain"}},{"type":"Feature","geometry":{"type":"Point","coordinates":[21.824312000004,39.074207999997]},"properties":{"description":"","title":"Krinos balsamic","placename":"Greece","address":"Greece"}},{"type":"Feature","geometry":{"type":"Point","coordinates":[71.1923805,22.258652]},"properties":{"description":"","title":"Tadka Dal (Mixed Lentils)","placename":"Gujarat, India","address":"Gujarat, India"}},{"type":"Feature","geometry":{"type":"Point","coordinates":[71.1923805,22.258652]},"properties":{"description":"","title":"Pav Bhaji (Mashed Vegetables)","placename":"Gujarat, India","address":"Gujarat, India"}},{"type":"Feature","geometry":{"type":"Point","coordinates":[71.1923805,22.258652]},"properties":{"description":"","title":"Palak Paneer","placename":"Gujarat, India","address":"Gujarat, India"}},{"type":"Feature","geometry":{"type":"Point","coordinates":[-79.9333333,43.641666699999]},"properties":{"description":"","title":"TOTAL ISLAND FARMS","placename":"Halton Hills, ON, Canada","address":"halton Hills, ON"}},{"type":"Feature","geometry":{"type":"Point","coordinates":[-73.202613800003,40.825653600002]},"properties":{"description":"","title":"Treats, Peanut Butter","placename":"Hauppauge, NY, USA","address":"Hauppauge, NY"}},{"type":"Feature","geometry":{"type":"Point","coordinates":[-121.5214623,45.705396599997]},"properties":{"description":"","title":"Breakfast Links","placename":"Hood River, OR 97031, USA","address":"Hood River, OR"}},{"type":"Feature","geometry":{"type":"Point","coordinates":[-121.5214623,45.705396599997]},"properties":{"description":"","title":"Franks","placename":"Hood River, OR 97031, USA","address":"Hood River, OR"}},{"type":"Feature","geometry":{"type":"Point","coordinates":[78.962879999997,20.593684000004]},"properties":{"description":"","title":"Sandal Soap","placename":"India","address":"India"}},{"type":"Feature","geometry":{"type":"Point","coordinates":[12.567380000004,41.871939999999]},"properties":{"description":"","title":"Aurora Sauce","placename":"Italy","address":"Italy"}},{"type":"Feature","geometry":{"type":"Point","coordinates":[12.567380000004,41.871939999999]},"properties":{"description":"","title":"Berni Risotto","placename":"Italy","address":"Italy"}},{"type":"Feature","geometry":{"type":"Point","coordinates":[12.567380000004,41.871939999999]},"properties":{"description":"","title":"Italissima Pesto","placename":"Italy","address":"Italy"}},{"type":"Feature","geometry":{"type":"Point","coordinates":[12.567380000004,41.871939999999]},"properties":{"description":"","title":"Italissma Sundried Tomato Pesto","placename":"Italy","address":"Italy"}},{"type":"Feature","geometry":{"type":"Point","coordinates":[12.567380000004,41.871939999999]},"properties":{"description":"","title":"Chinotto","placename":"Italy","address":"Italy"}},{"type":"Feature","geometry":{"type":"Point","coordinates":[12.567380000004,41.871939999999]},"properties":{"description":"","title":"Limonata","placename":"Italy","address":"Italy"}},{"type":"Feature","geometry":{"type":"Point","coordinates":[12.567380000004,41.871939999999]},"properties":{"description":"","title":"New Grapefruit if Available","placename":"Italy","address":"Italy"}},{"type":"Feature","geometry":{"type":"Point","coordinates":[12.567380000004,41.871939999999]},"properties":{"description":"","title":"Mineral Water Small","placename":"Italy","address":"Italy"}},{"type":"Feature","geometry":{"type":"Point","coordinates":[12.567380000004,41.871939999999]},"properties":{"description":"","title":"Mineral Water Large","placename":"Italy","address":"Italy"}},{"type":"Feature","geometry":{"type":"Point","coordinates":[12.567380000004,41.871939999999]},"properties":{"description":"","title":"Chinotto 6-pak","placename":"Italy","address":"Italy"}},{"type":"Feature","geometry":{"type":"Point","coordinates":[12.567380000004,41.871939999999]},"properties":{"description":"","title":"Limonata 6-pak","placename":"Italy","address":"Italy"}},{"type":"Feature","geometry":{"type":"Point","coordinates":[12.567380000004,41.871939999999]},"properties":{"description":"","title":"Aranciata 6-pak","placename":"Italy","address":"Italy"}},{"type":"Feature","geometry":{"type":"Point","coordinates":[0,0]},"properties":{"description":"","title":"Organic Alphabet","address":"Italy \u2013 imp by Mexico"}},{"type":"Feature","geometry":{"type":"Point","coordinates":[-88.597322999998,43.143892299998]},"properties":{"description":"","title":"Sesame Bar w\/Date&Fennel","placename":"Ixonia, WI, USA","address":"Ixonia, WI"}},{"type":"Feature","geometry":{"type":"Point","coordinates":[-88.597322999998,43.143892299998]},"properties":{"description":"","title":"Flax Bar","placename":"Ixonia, WI, USA","address":"Ixonia, WI"}},{"type":"Feature","geometry":{"type":"Point","coordinates":[-88.597322999998,43.143892299998]},"properties":{"description":"","title":"Sesame, Date and Fennel Bar","placename":"Ixonia, WI, USA","address":"Ixonia, WI"}},{"type":"Feature","geometry":{"type":"Point","coordinates":[0.84428020000141,51.260145000003]},"properties":{"description":"","title":"E-Cloth, Glass\/Polishing","placename":"Kent, UK","address":"Kent, UK"}},{"type":"Feature","geometry":{"type":"Point","coordinates":[7.5023683000036,47.4190981]},"properties":{"description":"","title":"Ricola Sticks","placename":"Laufen, Switzerland","address":"Laufen, Switzerland"}},{"type":"Feature","geometry":{"type":"Point","coordinates":[-123.3655556,48.428611100003]},"properties":{"description":"","title":"Sour Cream","placename":"Victoria, BC, Canada","address":"Longueil, QC\/Markham, ON\/Victoria, BC"}},{"type":"Feature","geometry":{"type":"Point","coordinates":[-123.3655556,48.428611100003]},"properties":{"description":"","title":"Cream Cheese Victoria Style","placename":"Victoria, BC, Canada","address":"Longueil, QC\/Markham, ON\/Victoria, BC"}},{"type":"Feature","geometry":{"type":"Point","coordinates":[-123.3655556,48.428611100003]},"properties":{"description":"","title":"1L Half & Half","placename":"Victoria, BC, Canada","address":"Longueil, QC\/Markham, ON\/Victoria, BC"}},{"type":"Feature","geometry":{"type":"Point","coordinates":[-123.3655556,48.428611100003]},"properties":{"description":"","title":"\u00bdL Half & Half","placename":"Victoria, BC, Canada","address":"Longueil, QC\/Markham, ON\/Victoria, BC"}},{"type":"Feature","geometry":{"type":"Point","coordinates":[-123.3655556,48.428611100003]},"properties":{"description":"","title":"Whipping Cream","placename":"Victoria, BC, Canada","address":"Longueil, QC\/Markham, ON\/Victoria, BC"}},{"type":"Feature","geometry":{"type":"Point","coordinates":[-123.3655556,48.428611100003]},"properties":{"description":"","title":"36% foodservice whip","placename":"Victoria, BC, Canada","address":"Longueil, QC\/Markham, ON\/Victoria, BC"}},{"type":"Feature","geometry":{"type":"Point","coordinates":[-123.3655556,48.428611100003]},"properties":{"description":"","title":"Unsalted Butter","placename":"Victoria, BC, Canada","address":"Longueil, QC\/Markham, ON\/Victoria, BC"}},{"type":"Feature","geometry":{"type":"Point","coordinates":[-123.3655556,48.428611100003]},"properties":{"description":"","title":"Butter","placename":"Victoria, BC, Canada","address":"Longueil, QC\/Markham, ON\/Victoria, BC"}},{"type":"Feature","geometry":{"type":"Point","coordinates":[-123.3655556,48.428611100003]},"properties":{"description":"","title":"500mL Homo Milk","placename":"Victoria, BC, Canada","address":"Longueil, QC\/Markham, ON\/Victoria, BC"}},{"type":"Feature","geometry":{"type":"Point","coordinates":[-123.3655556,48.428611100003]},"properties":{"description":"","title":"1L Skim Milk","placename":"Victoria, BC, Canada","address":"Longueil, QC\/Markham, ON\/Victoria, BC"}},{"type":"Feature","geometry":{"type":"Point","coordinates":[-123.3655556,48.428611100003]},"properties":{"description":"","title":"1L 1% Milk","placename":"Victoria, BC, Canada","address":"Longueil, QC\/Markham, ON\/Victoria, BC"}},{"type":"Feature","geometry":{"type":"Point","coordinates":[-123.3655556,48.428611100003]},"properties":{"description":"","title":"1L 2% Milk","placename":"Victoria, BC, Canada","address":"Longueil, QC\/Markham, ON\/Victoria, BC"}},{"type":"Feature","geometry":{"type":"Point","coordinates":[-123.3655556,48.428611100003]},"properties":{"description":"","title":"1L Homo Milk","placename":"Victoria, BC, Canada","address":"Longueil, QC\/Markham, ON\/Victoria, BC"}},{"type":"Feature","geometry":{"type":"Point","coordinates":[-123.3655556,48.428611100003]},"properties":{"description":"","title":"Buttermilk","placename":"Victoria, BC, Canada","address":"Longueil, QC\/Markham, ON\/Victoria, BC"}},{"type":"Feature","geometry":{"type":"Point","coordinates":[-123.3655556,48.428611100003]},"properties":{"description":"","title":"2L Skim Milk","placename":"Victoria, BC, Canada","address":"Longueil, QC\/Markham, ON\/Victoria, BC"}},{"type":"Feature","geometry":{"type":"Point","coordinates":[-123.3655556,48.428611100003]},"properties":{"description":"","title":"2L 1% Milk","placename":"Victoria, BC, Canada","address":"Longueil, QC\/Markham, ON\/Victoria, BC"}},{"type":"Feature","geometry":{"type":"Point","coordinates":[-123.3655556,48.428611100003]},"properties":{"description":"","title":"2L 2% Milk","placename":"Victoria, BC, Canada","address":"Longueil, QC\/Markham, ON\/Victoria, BC"}},{"type":"Feature","geometry":{"type":"Point","coordinates":[-123.3655556,48.428611100003]},"properties":{"description":"","title":"2L homo Milk","placename":"Victoria, BC, Canada","address":"Longueil, QC\/Markham, ON\/Victoria, BC"}},{"type":"Feature","geometry":{"type":"Point","coordinates":[-123.3655556,48.428611100003]},"properties":{"description":"","title":"4L homo Milk","placename":"Victoria, BC, Canada","address":"Longueil, QC\/Markham, ON\/Victoria, BC"}},{"type":"Feature","geometry":{"type":"Point","coordinates":[-123.3655556,48.428611100003]},"properties":{"description":"","title":"4L 2% Milk","placename":"Victoria, BC, Canada","address":"Longueil, QC\/Markham, ON\/Victoria, BC"}},{"type":"Feature","geometry":{"type":"Point","coordinates":[-123.3655556,48.428611100003]},"properties":{"description":"","title":"Buttercups","placename":"Victoria, BC, Canada","address":"Longueil, QC\/Markham, ON\/Victoria, BC"}},{"type":"Feature","geometry":{"type":"Point","coordinates":[-123.3655556,48.428611100003]},"properties":{"description":"","title":"Whipped Buttercups","placename":"Victoria, BC, Canada","address":"Longueil, QC\/Markham, ON\/Victoria, BC"}},{"type":"Feature","geometry":{"type":"Point","coordinates":[-123.3655556,48.428611100003]},"properties":{"description":"","title":"Egg Nog","placename":"Victoria, BC, Canada","address":"Longueil, QC\/Markham, ON\/Victoria, BC"}},{"type":"Feature","geometry":{"type":"Point","coordinates":[-123.3655556,48.428611100003]},"properties":{"description":"","title":"2% yogurt plain","placename":"Victoria, BC, Canada","address":"Longueil, QC\/Markham, ON\/Victoria, BC"}},{"type":"Feature","geometry":{"type":"Point","coordinates":[-123.3655556,48.428611100003]},"properties":{"description":"","title":"2% yogurt strawberry","placename":"Victoria, BC, Canada","address":"Longueil, QC\/Markham, ON\/Victoria, BC"}},{"type":"Feature","geometry":{"type":"Point","coordinates":[-123.3655556,48.428611100003]},"properties":{"description":"","title":"2% yogurt lemon meringue","placename":"Victoria, BC, Canada","address":"Longueil, QC\/Markham, ON\/Victoria, BC"}},{"type":"Feature","geometry":{"type":"Point","coordinates":[-123.3655556,48.428611100003]},"properties":{"description":"","title":"2% yogurt French Vanilla","placename":"Victoria, BC, Canada","address":"Longueil, QC\/Markham, ON\/Victoria, BC"}},{"type":"Feature","geometry":{"type":"Point","coordinates":[-123.3655556,48.428611100003]},"properties":{"description":"","title":"banana Split","placename":"Victoria, BC, Canada","address":"Longueil, QC\/Markham, ON\/Victoria, BC"}},{"type":"Feature","geometry":{"type":"Point","coordinates":[-123.3655556,48.428611100003]},"properties":{"description":"","title":"500ML REG SOUR CREAM","placename":"Victoria, BC, Canada","address":"Longueil, QC\/Markham, ON\/Victoria, BC"}},{"type":"Feature","geometry":{"type":"Point","coordinates":[-123.3655556,48.428611100003]},"properties":{"description":"","title":"250ML REG SOUR CREAM","placename":"Victoria, BC, Canada","address":"Longueil, QC\/Markham, ON\/Victoria, BC"}},{"type":"Feature","geometry":{"type":"Point","coordinates":[-118.2436849,34.052234200001]},"properties":{"description":"","title":"Non-Chlorine Bleach","placename":"Los Angeles, CA, USA","address":"Los Angeles, CA"}},{"type":"Feature","geometry":{"type":"Point","coordinates":[-118.2436849,34.052234200001]},"properties":{"description":"","title":"All Purpose Cleaner Concentrate","placename":"Los Angeles, CA, USA","address":"Los Angeles, CA"}},{"type":"Feature","geometry":{"type":"Point","coordinates":[-118.2436849,34.052234200001]},"properties":{"description":"","title":"Toilet Cleaner","placename":"Los Angeles, CA, USA","address":"Los Angeles, CA"}},{"type":"Feature","geometry":{"type":"Point","coordinates":[-82.887676000001,42.209455]},"properties":{"description":"","title":"Tomato Juice, Organic","placename":"Maidstone, ON N0R, Canada","address":"Maidstone Ontario"}},{"type":"Feature","geometry":{"type":"Point","coordinates":[101.975766,4.2104840000023]},"properties":{"description":"","title":"nn latex glove","placename":"Malaysia","address":"Malaysia"}},{"type":"Feature","geometry":{"type":"Point","coordinates":[-79.250000000001,43.8833333]},"properties":{"description":"","title":"Condensed Milk","placename":"Markham, ON, Canada","address":"Markham, ON"}},{"type":"Feature","geometry":{"type":"Point","coordinates":[-121.3301573,44.061553800001]},"properties":{"description":"","title":"GF Baking Flour","placename":"NW Milwaukee Ave, Bend, OR 97701, USA","address":"Milwaukee, OR"}},{"type":"Feature","geometry":{"type":"Point","coordinates":[-121.3301573,44.061553800001]},"properties":{"description":"","title":"8 Grain Cereal","placename":"NW Milwaukee Ave, Bend, OR 97701, USA","address":"Milwaukee, OR"}},{"type":"Feature","geometry":{"type":"Point","coordinates":[-121.3301573,44.061553800001]},"properties":{"description":"","title":"6 Grain Cereal","placename":"NW Milwaukee Ave, Bend, OR 97701, USA","address":"Milwaukee, OR"}},{"type":"Feature","geometry":{"type":"Point","coordinates":[-121.3301573,44.061553800001]},"properties":{"description":"","title":"Pancake & Waffle Mix","placename":"NW Milwaukee Ave, Bend, OR 97701, USA","address":"Milwaukee, OR"}},{"type":"Feature","geometry":{"type":"Point","coordinates":[-79.644119799996,43.589045199999]},"properties":{"description":"","title":"Reese's Pieces","placename":"Mississauga, ON, Canada","address":"Mississauga, ON"}},{"type":"Feature","geometry":{"type":"Point","coordinates":[-79.644119799996,43.589045199999]},"properties":{"description":"","title":"Advil","placename":"Mississauga, ON, Canada","address":"Mississauga, ON"}},{"type":"Feature","geometry":{"type":"Point","coordinates":[-79.644119799996,43.589045199999]},"properties":{"description":"","title":"Tylenol Extra Strength","placename":"Mississauga, ON, Canada","address":"Mississauga, ON"}},{"type":"Feature","geometry":{"type":"Point","coordinates":[-114.0572222,51.044999999999]},"properties":{"description":"","title":"Epsom Salts","placename":"Calgary, AB, Canada","address":"Montreal\/Toronto\/Calgary"}},{"type":"Feature","geometry":{"type":"Point","coordinates":[-114.0572222,51.044999999999]},"properties":{"description":"","title":"milk in caf\u00e9 fridge","placename":"Calgary, AB, Canada","address":"Montreal\/Toronto\/Calgary"}},{"type":"Feature","geometry":{"type":"Point","coordinates":[-74.045140499996,40.841211099997]},"properties":{"description":"","title":"Club Soda (lemon or orange)","placename":"Moonachie, NJ, USA","address":"Moonachie, NJ"}},{"type":"Feature","geometry":{"type":"Point","coordinates":[-74.045140499996,40.841211099997]},"properties":{"description":"","title":"boylan tonic","placename":"Moonachie, NJ, USA","address":"Moonachie, NJ"}},{"type":"Feature","geometry":{"type":"Point","coordinates":[-74.045140499996,40.841211099997]},"properties":{"description":"","title":"Boylan's Sodas","placename":"Moonachie, NJ, USA","address":"Moonachie, NJ"}},{"type":"Feature","geometry":{"type":"Point","coordinates":[-74.045140499996,40.841211099997]},"properties":{"description":"","title":"Boylan Tonic 24","placename":"Moonachie, NJ, USA","address":"Moonachie, NJ"}},{"type":"Feature","geometry":{"type":"Point","coordinates":[-74.045140499996,40.841211099997]},"properties":{"description":"","title":"Natural Cane Cola","placename":"Moonachie, NJ, USA","address":"Moonachie, NJ"}},{"type":"Feature","geometry":{"type":"Point","coordinates":[-74.045140499996,40.841211099997]},"properties":{"description":"","title":"Natural Creme Vanilla Soda","placename":"Moonachie, NJ, USA","address":"Moonachie, NJ"}},{"type":"Feature","geometry":{"type":"Point","coordinates":[-74.045140499996,40.841211099997]},"properties":{"description":"","title":"Natural Black Cherry","placename":"Moonachie, NJ, USA","address":"Moonachie, NJ"}},{"type":"Feature","geometry":{"type":"Point","coordinates":[-74.045140499996,40.841211099997]},"properties":{"description":"","title":"Natural Root Beer","placename":"Moonachie, NJ, USA","address":"Moonachie, NJ"}},{"type":"Feature","geometry":{"type":"Point","coordinates":[-74.045140499996,40.841211099997]},"properties":{"description":"","title":"Boylan's Orange","placename":"Moonachie, NJ, USA","address":"Moonachie, NJ"}},{"type":"Feature","geometry":{"type":"Point","coordinates":[-74.045140499996,40.841211099997]},"properties":{"description":"","title":"Boylan's 4-Pak","placename":"Moonachie, NJ, USA","address":"Moonachie, NJ"}},{"type":"Feature","geometry":{"type":"Point","coordinates":[-74.045140499996,40.841211099997]},"properties":{"description":"","title":"Birch Beer","placename":"Moonachie, NJ, USA","address":"Moonachie, NJ"}},{"type":"Feature","geometry":{"type":"Point","coordinates":[-122.382126,49.111275000001]},"properties":{"description":"","title":"organic medium egg","placename":"Mt Lehman, BC V4X, Canada","address":"Mt. Lehman, BC"}},{"type":"Feature","geometry":{"type":"Point","coordinates":[-122.382126,49.111275000001]},"properties":{"description":"","title":"free range large egg","placename":"Mt Lehman, BC V4X, Canada","address":"Mt. Lehman, BC"}},{"type":"Feature","geometry":{"type":"Point","coordinates":[-122.382126,49.111275000001]},"properties":{"description":"","title":"organic medium egg, half dozen","placename":"Mt Lehman, BC V4X, Canada","address":"Mt. Lehman, BC"}},{"type":"Feature","geometry":{"type":"Point","coordinates":[-122.382126,49.111275000001]},"properties":{"description":"","title":"free range large egg, half dozen","placename":"Mt Lehman, BC V4X, Canada","address":"Mt. Lehman, BC"}},{"type":"Feature","geometry":{"type":"Point","coordinates":[-122.382126,49.111275000001]},"properties":{"description":"","title":"Free Range Medium Egg","placename":"Mt Lehman, BC V4X, Canada","address":"Mt. Lehman, BC"}},{"type":"Feature","geometry":{"type":"Point","coordinates":[-122.382126,49.111275000001]},"properties":{"description":"","title":"Organic Large Eggs","placename":"Mt Lehman, BC V4X, Canada","address":"Mt. Lehman, BC"}},{"type":"Feature","geometry":{"type":"Point","coordinates":[-122.382126,49.111275000001]},"properties":{"description":"","title":"Organic Walnuts","placename":"Mt Lehman, BC V4X, Canada","address":"Mt. Lehman, BC"}},{"type":"Feature","geometry":{"type":"Point","coordinates":[5.2912660000021,52.132633000001]},"properties":{"description":"","title":"Carra Cheese Melt","placename":"The Netherlands","address":"Netherlands"}},{"type":"Feature","geometry":{"type":"Point","coordinates":[-80.7111058,43.3794588]},"properties":{"description":"","title":"Kitty Litter","placename":"New Hamburg, ON, Canada","address":"New Hamburg, Ontario"}},{"type":"Feature","geometry":{"type":"Point","coordinates":[-80.7111058,43.3794588]},"properties":{"description":"","title":"Kitty Litter with Baking Soda","placename":"New Hamburg, ON, Canada","address":"New Hamburg, Ontario"}},{"type":"Feature","geometry":{"type":"Point","coordinates":[-79.412977999996,43.767293999999]},"properties":{"description":"","title":"Tomato Juice","placename":"North York, Toronto, ON, Canada","address":"North York, ON"}},{"type":"Feature","geometry":{"type":"Point","coordinates":[-79.412977999996,43.767293999999]},"properties":{"description":"","title":"Coffee Crisp","placename":"North York, Toronto, ON, Canada","address":"North York, ON"}},{"type":"Feature","geometry":{"type":"Point","coordinates":[-79.412977999996,43.767293999999]},"properties":{"description":"","title":"Smarties","placename":"North York, Toronto, ON, Canada","address":"North York, ON"}},{"type":"Feature","geometry":{"type":"Point","coordinates":[-79.412977999996,43.767293999999]},"properties":{"description":"","title":"Kinder Surprise","placename":"North York, Toronto, ON, Canada","address":"North York, ON"}},{"type":"Feature","geometry":{"type":"Point","coordinates":[-79.412977999996,43.767293999999]},"properties":{"description":"","title":"Organic Ketchup","placename":"North York, Toronto, ON, Canada","address":"North York, ON"}},{"type":"Feature","geometry":{"type":"Point","coordinates":[-79.412977999996,43.767293999999]},"properties":{"description":"","title":"Ketchup, Organic (no sugar)","placename":"North York, Toronto, ON, Canada","address":"North York, ON"}},{"type":"Feature","geometry":{"type":"Point","coordinates":[-79.412977999996,43.767293999999]},"properties":{"description":"","title":"Ketchup, Organic","placename":"North York, Toronto, ON, Canada","address":"North York, ON"}},{"type":"Feature","geometry":{"type":"Point","coordinates":[-79.412977999996,43.767293999999]},"properties":{"description":"","title":"Chili Sauce","placename":"North York, Toronto, ON, Canada","address":"North York, ON"}},{"type":"Feature","geometry":{"type":"Point","coordinates":[-79.683333300003,43.449999999997]},"properties":{"description":"","title":"Glass Cleaner","placename":"Oakville, ON, Canada","address":"Oakville, ON"}},{"type":"Feature","geometry":{"type":"Point","coordinates":[-79.683333300003,43.449999999997]},"properties":{"description":"","title":"Hypoallergenic Ultra Dish Wash","placename":"Oakville, ON, Canada","address":"Oakville, ON"}},{"type":"Feature","geometry":{"type":"Point","coordinates":[-79.683333300003,43.449999999997]},"properties":{"description":"","title":"Lavender Aloe Dish Wash","placename":"Oakville, ON, Canada","address":"Oakville, ON"}},{"type":"Feature","geometry":{"type":"Point","coordinates":[-79.683333300003,43.449999999997]},"properties":{"description":"","title":"Hypoallergenic Laundry Wash","placename":"Oakville, ON, Canada","address":"Oakville, ON"}},{"type":"Feature","geometry":{"type":"Point","coordinates":[-79.683333300003,43.449999999997]},"properties":{"description":"","title":"Lavender Laundry Wash","placename":"Oakville, ON, Canada","address":"Oakville, ON"}},{"type":"Feature","geometry":{"type":"Point","coordinates":[32.839838000004,39.918945]},"properties":{"description":"","title":"Creme Brule","placename":"Y\u00fccetepe Mh., Site, 06650 Ankara\/Ankara Province, Turkey","address":"on site"}},{"type":"Feature","geometry":{"type":"Point","coordinates":[-80.094311300001,43.919978800003]},"properties":{"description":"","title":"Cream Cheese, Natural (18% BF)","placename":"Orangeville, ON, Canada","address":"Orangeville, ON"}},{"type":"Feature","geometry":{"type":"Point","coordinates":[-80.094311300001,43.919978800003]},"properties":{"description":"","title":"Cream Cheese, Garlic","placename":"Orangeville, ON, Canada","address":"Orangeville, ON"}},{"type":"Feature","geometry":{"type":"Point","coordinates":[-80.094311300001,43.919978800003]},"properties":{"description":"","title":"Cream Cheese, Fine Herb (18% BF)","placename":"Orangeville, ON, Canada","address":"Orangeville, ON"}},{"type":"Feature","geometry":{"type":"Point","coordinates":[-80.094311300001,43.919978800003]},"properties":{"description":"","title":"Cream Cheese, Black Pepper (18% BF)","placename":"Orangeville, ON, Canada","address":"Orangeville, ON"}},{"type":"Feature","geometry":{"type":"Point","coordinates":[-80.094311300001,43.919978800003]},"properties":{"description":"","title":"Cream Cheese, Black Pepper","placename":"Orangeville, ON, Canada","address":"Orangeville, ON"}},{"type":"Feature","geometry":{"type":"Point","coordinates":[-80.094311300001,43.919978800003]},"properties":{"description":"","title":"Cream Cheese, Fine Herb","placename":"Orangeville, ON, Canada","address":"Orangeville, ON"}},{"type":"Feature","geometry":{"type":"Point","coordinates":[-80.094311300001,43.919978800003]},"properties":{"description":"","title":"Cream Cheese, Fig","placename":"Orangeville, ON, Canada","address":"Orangeville, ON"}},{"type":"Feature","geometry":{"type":"Point","coordinates":[-120.5542012,43.804133400002]},"properties":{"description":"","title":"Quick Oats","placename":"Oregon, USA","address":"Oregon"}},{"type":"Feature","geometry":{"type":"Point","coordinates":[12.494248600004,41.890519800003]},"properties":{"description":"","title":"Colavita Olive","placename":"Rome, Italy","address":"Packed by Rome, Italy"}},{"type":"Feature","geometry":{"type":"Point","coordinates":[-58.443832000003,-23.442502999998]},"properties":{"description":"","title":"Sugar Organic","placename":"Paraguay","address":"Paraguay"}},{"type":"Feature","geometry":{"type":"Point","coordinates":[10.329547800002,44.807865700003]},"properties":{"description":"","title":"Alpino Paste","placename":"Parma, Italy","address":"Parma, Italy"}},{"type":"Feature","geometry":{"type":"Point","coordinates":[-80.034782999999,45.347392500001]},"properties":{"description":"","title":"Crofter's Jams","placename":"Parry Sound, ON, Canada","address":"Parry Sound, ON"}},{"type":"Feature","geometry":{"type":"Point","coordinates":[-80.034782999999,45.347392500001]},"properties":{"description":"","title":"Four Fruit","placename":"Parry Sound, ON, Canada","address":"Parry Sound, ON"}},{"type":"Feature","geometry":{"type":"Point","coordinates":[-80.034782999999,45.347392500001]},"properties":{"description":"","title":"Organic Strawberry Jam","placename":"Parry Sound, ON, Canada","address":"Parry Sound, ON"}},{"type":"Feature","geometry":{"type":"Point","coordinates":[-80.034782999999,45.347392500001]},"properties":{"description":"","title":"Organic Raspberry Jam","placename":"Parry Sound, ON, Canada","address":"Parry Sound, ON"}},{"type":"Feature","geometry":{"type":"Point","coordinates":[-80.034782999999,45.347392500001]},"properties":{"description":"","title":"Black Currant","placename":"Parry Sound, ON, Canada","address":"Parry Sound, ON"}},{"type":"Feature","geometry":{"type":"Point","coordinates":[-80.034782999999,45.347392500001]},"properties":{"description":"","title":"Wow Butter","placename":"Parry Sound, ON, Canada","address":"Parry Sound, ON"}},{"type":"Feature","geometry":{"type":"Point","coordinates":[-80.034782999999,45.347392500001]},"properties":{"description":"","title":"Pomegranate Jelly","placename":"Parry Sound, ON, Canada","address":"Parry Sound, ON"}},{"type":"Feature","geometry":{"type":"Point","coordinates":[-77.111122999996,45.820091000002]},"properties":{"description":"","title":"Red Bird Matches","placename":"Pembroke, ON, Canada","address":"Pembroke, ON"}},{"type":"Feature","geometry":{"type":"Point","coordinates":[-122.6366524,38.232417]},"properties":{"description":"","title":"Baked Beans, Organic","placename":"Petaluma, CA, USA","address":"petaluma, CA"}},{"type":"Feature","geometry":{"type":"Point","coordinates":[-122.6366524,38.232417]},"properties":{"description":"","title":"amy's pie","placename":"Petaluma, CA, USA","address":"Petaluma, CA"}},{"type":"Feature","geometry":{"type":"Point","coordinates":[-122.6366524,38.232417]},"properties":{"description":"","title":"other amy's","placename":"Petaluma, CA, USA","address":"Petaluma, CA"}},{"type":"Feature","geometry":{"type":"Point","coordinates":[-82.141666700002,42.8833333]},"properties":{"description":"","title":"Diced Tomatoes","placename":"Petrolia, ON N0N, Canada","address":"Petrolia, Ontario"}},{"type":"Feature","geometry":{"type":"Point","coordinates":[-82.141666700002,42.8833333]},"properties":{"description":"","title":"Crushed Tomatoes","placename":"Petrolia, ON N0N, Canada","address":"Petrolia, Ontario"}},{"type":"Feature","geometry":{"type":"Point","coordinates":[-82.141666700002,42.8833333]},"properties":{"description":"","title":"Whole Tomatoes","placename":"Petrolia, ON N0N, Canada","address":"Petrolia, Ontario"}},{"type":"Feature","geometry":{"type":"Point","coordinates":[121.774017,12.879720999999]},"properties":{"description":"","title":"Mango","placename":"Philippines","address":"Philippines"}},{"type":"Feature","geometry":{"type":"Point","coordinates":[19.145136,51.919437999998]},"properties":{"description":"","title":"Krakus Pickles","placename":"Poland","address":"Poland"}},{"type":"Feature","geometry":{"type":"Point","coordinates":[79.785181800002,11.9309645]},"properties":{"description":"","title":"incense","placename":"Puducherry, Pondicherry, India","address":"Pondicherry, India"}},{"type":"Feature","geometry":{"type":"Point","coordinates":[-117.0358646,32.962823199999]},"properties":{"description":"","title":"Hugga Bear, Chocolate Organic","placename":"Poway, CA, USA","address":"Poway, CA"}},{"type":"Feature","geometry":{"type":"Point","coordinates":[-117.0358646,32.962823199999]},"properties":{"description":"","title":"healthytimes rice cereal","placename":"Poway, CA, USA","address":"Poway, CA"}},{"type":"Feature","geometry":{"type":"Point","coordinates":[-79.412977999996,43.767293999999]},"properties":{"description":"","title":"White Vinegar","placename":"North York, Toronto, ON, Canada","address":"Prep for North York, ON"}},{"type":"Feature","geometry":{"type":"Point","coordinates":[-122.776584,53.918479999998]},"properties":{"description":"","title":"Honey Bear","placename":"Prince George, BC, Canada","address":"Prince George, BC"}},{"type":"Feature","geometry":{"type":"Point","coordinates":[-122.776584,53.918479999998]},"properties":{"description":"","title":"Energy Max","placename":"Prince George, BC, Canada","address":"Prince George, BC"}},{"type":"Feature","geometry":{"type":"Point","coordinates":[-122.776584,53.918479999998]},"properties":{"description":"","title":"Organic Cranberry","placename":"Prince George, BC, Canada","address":"Prince George, BC"}},{"type":"Feature","geometry":{"type":"Point","coordinates":[-122.776584,53.918479999998]},"properties":{"description":"","title":"Organic Cola","placename":"Prince George, BC, Canada","address":"Prince George, BC"}},{"type":"Feature","geometry":{"type":"Point","coordinates":[-73.712409000004,45.606648700002]},"properties":{"description":"","title":"Carbonated Mineral Water","placename":"Laval, QC, Canada","address":"Prod of Italy\/Laval, QC"}},{"type":"Feature","geometry":{"type":"Point","coordinates":[73.856743699997,18.520430299998]},"properties":{"description":"","title":"Bombay Potatoes","placename":"Pune, Maharashtra, India","address":"Pune, India"}},{"type":"Feature","geometry":{"type":"Point","coordinates":[73.856743699997,18.520430299998]},"properties":{"description":"","title":"Madras Lentils","placename":"Pune, Maharashtra, India","address":"Pune, India"}},{"type":"Feature","geometry":{"type":"Point","coordinates":[73.856743699997,18.520430299998]},"properties":{"description":"","title":"Kashmir Spinach","placename":"Pune, Maharashtra, India","address":"Pune, India"}},{"type":"Feature","geometry":{"type":"Point","coordinates":[-73.549136099998,52.939915899998]},"properties":{"description":"","title":"Recycled Paper Towel","placename":"Quebec, Canada","address":"Quebec"}},{"type":"Feature","geometry":{"type":"Point","coordinates":[-73.549136099998,52.939915899998]},"properties":{"description":"","title":"Dark Maple Syrup","placename":"Quebec, Canada","address":"Quebec"}},{"type":"Feature","geometry":{"type":"Point","coordinates":[-73.549136099998,52.939915899998]},"properties":{"description":"","title":"Dried Cranberries \u2013 Bulk","placename":"Quebec, Canada","address":"Quebec"}},{"type":"Feature","geometry":{"type":"Point","coordinates":[-73.549136099998,52.939915899998]},"properties":{"description":"","title":"Dried Cranberries","placename":"Quebec, Canada","address":"Quebec"}},{"type":"Feature","geometry":{"type":"Point","coordinates":[0,0]},"properties":{"description":"","title":"Organic Mozzarella 20%","address":"quebec, www.fromagerieancetre.com"}},{"type":"Feature","geometry":{"type":"Point","coordinates":[0,0]},"properties":{"description":"","title":"Organic Parmesan","address":"quebec, www.fromagerieancetre.com"}},{"type":"Feature","geometry":{"type":"Point","coordinates":[-123.137766,49.163468999999]},"properties":{"description":"","title":"Tamari Organic Soy Sauce","placename":"Richmond, BC, Canada","address":"Richmond, BC"}},{"type":"Feature","geometry":{"type":"Point","coordinates":[-123.137766,49.163468999999]},"properties":{"description":"","title":"Heritage Style Dill Pickles","placename":"Richmond, BC, Canada","address":"Richmond, BC"}},{"type":"Feature","geometry":{"type":"Point","coordinates":[-123.137766,49.163468999999]},"properties":{"description":"","title":"Maritime Relish","placename":"Richmond, BC, Canada","address":"Richmond, BC"}},{"type":"Feature","geometry":{"type":"Point","coordinates":[-123.137766,49.163468999999]},"properties":{"description":"","title":"Fruit & Nut Muesli","placename":"Richmond, BC, Canada","address":"Richmond, BC"}},{"type":"Feature","geometry":{"type":"Point","coordinates":[-123.137766,49.163468999999]},"properties":{"description":"","title":"Almond Tropical Fruit Muesli","placename":"Richmond, BC, Canada","address":"Richmond, BC"}},{"type":"Feature","geometry":{"type":"Point","coordinates":[-123.137766,49.163468999999]},"properties":{"description":"","title":"Heritage Muesli","placename":"Richmond, BC, Canada","address":"Richmond, BC"}},{"type":"Feature","geometry":{"type":"Point","coordinates":[-123.137766,49.163468999999]},"properties":{"description":"","title":"Fruit & Nut Muesli Organic","placename":"Richmond, BC, Canada","address":"Richmond, BC"}},{"type":"Feature","geometry":{"type":"Point","coordinates":[-123.137766,49.163468999999]},"properties":{"description":"","title":"Olive Oil","placename":"Richmond, BC, Canada","address":"Richmond, BC"}},{"type":"Feature","geometry":{"type":"Point","coordinates":[-123.137766,49.163468999999]},"properties":{"description":"","title":"Heritage O's Eco Pak","placename":"Richmond, BC, Canada","address":"Richmond, BC"}},{"type":"Feature","geometry":{"type":"Point","coordinates":[-123.137766,49.163468999999]},"properties":{"description":"","title":"Crispy Rice Eco Pak","placename":"Richmond, BC, Canada","address":"Richmond, BC"}},{"type":"Feature","geometry":{"type":"Point","coordinates":[-123.137766,49.163468999999]},"properties":{"description":"","title":"Acai Apple Granola","placename":"Richmond, BC, Canada","address":"Richmond, BC"}},{"type":"Feature","geometry":{"type":"Point","coordinates":[-123.137766,49.163468999999]},"properties":{"description":"","title":"Heritage Flakes","placename":"Richmond, BC, Canada","address":"Richmond, BC"}},{"type":"Feature","geometry":{"type":"Point","coordinates":[-123.137766,49.163468999999]},"properties":{"description":"","title":"miso","placename":"Richmond, BC, Canada","address":"Richmond, BC"}},{"type":"Feature","geometry":{"type":"Point","coordinates":[-123.137766,49.163468999999]},"properties":{"description":"","title":"Red Pepper Relish","placename":"Richmond, BC, Canada","address":"Richmond, BC"}},{"type":"Feature","geometry":{"type":"Point","coordinates":[-123.137766,49.163468999999]},"properties":{"description":"","title":"Sweet Relish","placename":"Richmond, BC, Canada","address":"Richmond, BC"}},{"type":"Feature","geometry":{"type":"Point","coordinates":[-123.137766,49.163468999999]},"properties":{"description":"","title":"spag","placename":"Richmond, BC, Canada","address":"Richmond, BC"}},{"type":"Feature","geometry":{"type":"Point","coordinates":[-121.744858,39.495869700003]},"properties":{"description":"","title":"lundberg wht basmati","placename":"Richvale, CA, USA","address":"Richvale, CA"}},{"type":"Feature","geometry":{"type":"Point","coordinates":[-121.744858,39.495869700003]},"properties":{"description":"","title":"Lundberg Country Wild Rice","placename":"Richvale, CA, USA","address":"Richvale, CA"}},{"type":"Feature","geometry":{"type":"Point","coordinates":[-121.744858,39.495869700003]},"properties":{"description":"","title":"Organic Long Grain Brown Rice","placename":"Richvale, CA, USA","address":"Richvale, CA"}},{"type":"Feature","geometry":{"type":"Point","coordinates":[-77.610921900004,43.161029999998]},"properties":{"description":"","title":"Sensitive Eyes Solution","placename":"Rochester, NY, USA","address":"Rochester, NY"}},{"type":"Feature","geometry":{"type":"Point","coordinates":[-123.0350963,44.942897499997]},"properties":{"description":"","title":"Baked Sea Salt & Vinegar","placename":"Salem, OR, USA","address":"Salem, OR"}},{"type":"Feature","geometry":{"type":"Point","coordinates":[-123.0350963,44.942897499997]},"properties":{"description":"","title":"Kettle Chips","placename":"Salem, OR, USA","address":"Salem, OR"}},{"type":"Feature","geometry":{"type":"Point","coordinates":[-123.0350963,44.942897499997]},"properties":{"description":"","title":"Salted Chips","placename":"Salem, OR, USA","address":"Salem, OR"}},{"type":"Feature","geometry":{"type":"Point","coordinates":[-123.0350963,44.942897499997]},"properties":{"description":"","title":"Backyard BBQ","placename":"Salem, OR, USA","address":"Salem, OR"}},{"type":"Feature","geometry":{"type":"Point","coordinates":[-123.0350963,44.942897499997]},"properties":{"description":"","title":"Honey Dijon Chips","placename":"Salem, OR, USA","address":"Salem, OR"}},{"type":"Feature","geometry":{"type":"Point","coordinates":[-123.0350963,44.942897499997]},"properties":{"description":"","title":"Yogurt & Onion Chips","placename":"Salem, OR, USA","address":"Salem, OR"}},{"type":"Feature","geometry":{"type":"Point","coordinates":[-123.0350963,44.942897499997]},"properties":{"description":"","title":"New York Cheddar & Herb","placename":"Salem, OR, USA","address":"Salem, OR"}},{"type":"Feature","geometry":{"type":"Point","coordinates":[-123.0350963,44.942897499997]},"properties":{"description":"","title":"Salt & Fresh Ground Pepper, Organic","placename":"Salem, OR, USA","address":"Salem, OR"}},{"type":"Feature","geometry":{"type":"Point","coordinates":[-123.0350963,44.942897499997]},"properties":{"description":"","title":"Lemongrass dish soap","placename":"Salem, OR, USA","address":"Salem, OR"}},{"type":"Feature","geometry":{"type":"Point","coordinates":[-123.0350963,44.942897499997]},"properties":{"description":"","title":"Fabric softener Euc.& Lavender","placename":"Salem, OR, USA","address":"Salem, OR"}},{"type":"Feature","geometry":{"type":"Point","coordinates":[-123.0350963,44.942897499997]},"properties":{"description":"","title":"Buffalo Bleu","placename":"Salem, OR, USA","address":"Salem, OR"}},{"type":"Feature","geometry":{"type":"Point","coordinates":[-123.0350963,44.942897499997]},"properties":{"description":"","title":"Salt & Fresh Ground Pepper","placename":"Salem, OR, USA","address":"Salem, OR"}},{"type":"Feature","geometry":{"type":"Point","coordinates":[-123.0350963,44.942897499997]},"properties":{"description":"","title":"Earl Grey","placename":"Salem, OR, USA","address":"Salem, OR"}},{"type":"Feature","geometry":{"type":"Point","coordinates":[-123.0350963,44.942897499997]},"properties":{"description":"","title":"Genmaicha Yamasaki","placename":"Salem, OR, USA","address":"Salem, OR"}},{"type":"Feature","geometry":{"type":"Point","coordinates":[-123.0350963,44.942897499997]},"properties":{"description":"","title":"Peppermint Willamette","placename":"Salem, OR, USA","address":"Salem, OR"}},{"type":"Feature","geometry":{"type":"Point","coordinates":[-123.0350963,44.942897499997]},"properties":{"description":"","title":"Egyptian Camomile","placename":"Salem, OR, USA","address":"Salem, OR"}},{"type":"Feature","geometry":{"type":"Point","coordinates":[-123.0350963,44.942897499997]},"properties":{"description":"","title":"On The Waterfront","placename":"Salem, OR, USA","address":"Salem, OR"}},{"type":"Feature","geometry":{"type":"Point","coordinates":[-120.6596156,35.2827524]},"properties":{"description":"","title":"cloud star jerky","placename":"San Luis Obispo, CA, USA","address":"San Luis Obispo, CA"}},{"type":"Feature","geometry":{"type":"Point","coordinates":[-120.6596156,35.2827524]},"properties":{"description":"","title":"Bacon & Cheese Madness","placename":"San Luis Obispo, CA, USA","address":"San Luis Obispo, CA"}},{"type":"Feature","geometry":{"type":"Point","coordinates":[-120.6596156,35.2827524]},"properties":{"description":"","title":"Peanut Butter Madness","placename":"San Luis Obispo, CA, USA","address":"San Luis Obispo, CA"}},{"type":"Feature","geometry":{"type":"Point","coordinates":[-120.6596156,35.2827524]},"properties":{"description":"","title":"Dog Treats","placename":"San Luis Obispo, CA, USA","address":"San Luis Obispo, CA"}},{"type":"Feature","geometry":{"type":"Point","coordinates":[-120.6596156,35.2827524]},"properties":{"description":"","title":"Blueberry Cobbler","placename":"San Luis Obispo, CA, USA","address":"San Luis Obispo, CA"}},{"type":"Feature","geometry":{"type":"Point","coordinates":[-120.6596156,35.2827524]},"properties":{"description":"","title":"PB & Jelly","placename":"San Luis Obispo, CA, USA","address":"San Luis Obispo, CA"}},{"type":"Feature","geometry":{"type":"Point","coordinates":[-120.6596156,35.2827524]},"properties":{"description":"","title":"Apple Dumpling","placename":"San Luis Obispo, CA, USA","address":"San Luis Obispo, CA"}},{"type":"Feature","geometry":{"type":"Point","coordinates":[-120.6596156,35.2827524]},"properties":{"description":"","title":"Chicken Pot Pie","placename":"San Luis Obispo, CA, USA","address":"San Luis Obispo, CA"}},{"type":"Feature","geometry":{"type":"Point","coordinates":[-122.5310874,37.973534599999]},"properties":{"description":"","title":"Tom Yum Noodle Soup","placename":"San Rafael, CA, USA","address":"San Rafael, CA"}},{"type":"Feature","geometry":{"type":"Point","coordinates":[-122.5310874,37.973534599999]},"properties":{"description":"","title":"Udon Soup","placename":"San Rafael, CA, USA","address":"San Rafael, CA"}},{"type":"Feature","geometry":{"type":"Point","coordinates":[-122.5310874,37.973534599999]},"properties":{"description":"","title":"Miso Soup","placename":"San Rafael, CA, USA","address":"San Rafael, CA"}},{"type":"Feature","geometry":{"type":"Point","coordinates":[-122.5310874,37.973534599999]},"properties":{"description":"","title":"mighty leaf 100's","placename":"San Rafael, CA, USA","address":"San Rafael, CA"}},{"type":"Feature","geometry":{"type":"Point","coordinates":[-119.6981901,34.420830499998]},"properties":{"description":"","title":"Apple Cider Vinegar","placename":"Santa Barbara, CA, USA","address":"Santa Barbara, CA"}},{"type":"Feature","geometry":{"type":"Point","coordinates":[-106.4508639,52.939915899998]},"properties":{"description":"","title":"Oats \u2013 Bulk","placename":"Saskatchewan, Canada","address":"Saskatchewan"}},{"type":"Feature","geometry":{"type":"Point","coordinates":[-106.4508639,52.939915899998]},"properties":{"description":"","title":"Oats","placename":"Saskatchewan, Canada","address":"Saskatchewan"}},{"type":"Feature","geometry":{"type":"Point","coordinates":[-87.870896499996,41.955863699999]},"properties":{"description":"","title":"Semi-Sweet Chocolate Chips","placename":"Schiller Park, IL, USA","address":"Schiller Park, IL, USA"}},{"type":"Feature","geometry":{"type":"Point","coordinates":[126.9779692,37.566535]},"properties":{"description":"","title":"Aloe Vera Drink","placename":"Seoul, South Korea","address":"Seoul, Korea"}},{"type":"Feature","geometry":{"type":"Point","coordinates":[103.819836,1.3520830000039]},"properties":{"description":"","title":"tiger balm","placename":"Singapore","address":"Singapore"}},{"type":"Feature","geometry":{"type":"Point","coordinates":[0,0]},"properties":{"description":"","title":"Gathering Place Teas","address":"South Africa\/Cortes Island"}},{"type":"Feature","geometry":{"type":"Point","coordinates":[0,0]},"properties":{"description":"","title":"Salt Grinder","address":"South Africa\/Cortes Island"}},{"type":"Feature","geometry":{"type":"Point","coordinates":[0,0]},"properties":{"description":"","title":"Salt\/Kelp Grinder","address":"South Africa\/Cortes Island"}},{"type":"Feature","geometry":{"type":"Point","coordinates":[0,0]},"properties":{"description":"","title":"Salt Refill","address":"South Africa\/Cortes Island"}},{"type":"Feature","geometry":{"type":"Point","coordinates":[0,0]},"properties":{"description":"","title":"Salt\/Kelp Refill","address":"South Africa\/Cortes Island"}},{"type":"Feature","geometry":{"type":"Point","coordinates":[80.771797000003,7.8730540000028]},"properties":{"description":"","title":"Organic Coconut Shredded","placename":"Sri Lanka","address":"Sri Lanka"}},{"type":"Feature","geometry":{"type":"Point","coordinates":[80.771797000003,7.8730540000028]},"properties":{"description":"","title":"Mango Chunks","placename":"Sri Lanka","address":"Sri Lanka"}},{"type":"Feature","geometry":{"type":"Point","coordinates":[-72.956339099996,45.630687499998]},"properties":{"description":"","title":"Organic Soy Milk","placename":"St Hyacinthe, QC, Canada","address":"St. Hyacinthe, QC"}},{"type":"Feature","geometry":{"type":"Point","coordinates":[-72.956339099996,45.630687499998]},"properties":{"description":"","title":"Organic Vanilla Soy","placename":"St Hyacinthe, QC, Canada","address":"St. Hyacinthe, QC"}},{"type":"Feature","geometry":{"type":"Point","coordinates":[-72.956339099996,45.630687499998]},"properties":{"description":"","title":"Organic Chocolate Soy","placename":"St Hyacinthe, QC, Canada","address":"St. Hyacinthe, QC"}},{"type":"Feature","geometry":{"type":"Point","coordinates":[-72.956339099996,45.630687499998]},"properties":{"description":"","title":"Organic Rice Beverage","placename":"St Hyacinthe, QC, Canada","address":"St. Hyacinthe, QC"}},{"type":"Feature","geometry":{"type":"Point","coordinates":[-72.956339099996,45.630687499998]},"properties":{"description":"","title":"Organic Rice Beverage Vanilla","placename":"St Hyacinthe, QC, Canada","address":"St. Hyacinthe, QC"}},{"type":"Feature","geometry":{"type":"Point","coordinates":[-96.168907100003,48.553863299998]},"properties":{"description":"","title":"blue lantern cards","placename":"Strathcona, MN 56759, USA","address":"Strathcona"}},{"type":"Feature","geometry":{"type":"Point","coordinates":[-122.827956,49.105896999999]},"properties":{"description":"","title":"Premium Ice","placename":"Surrey, BC, Canada","address":"Surrey, BC"}},{"type":"Feature","geometry":{"type":"Point","coordinates":[121.5598345,25.091075000004]},"properties":{"description":"","title":"Natural Rice Crisps","placename":"Taipei City, Taiwan","address":"Taipei, Taiwan"}},{"type":"Feature","geometry":{"type":"Point","coordinates":[100.992541,15.870032]},"properties":{"description":"","title":"Ginger","placename":"Thailand","address":"Thailand"}},{"type":"Feature","geometry":{"type":"Point","coordinates":[100.992541,15.870032]},"properties":{"description":"","title":"Ginger Chunks","placename":"Thailand","address":"Thailand"}},{"type":"Feature","geometry":{"type":"Point","coordinates":[100.992541,15.870032]},"properties":{"description":"","title":"Coconut Milk","placename":"Thailand","address":"Thailand"}},{"type":"Feature","geometry":{"type":"Point","coordinates":[100.992541,15.870032]},"properties":{"description":"","title":"Coconut Milk, Organic","placename":"Thailand","address":"Thailand"}},{"type":"Feature","geometry":{"type":"Point","coordinates":[100.992541,15.870032]},"properties":{"description":"","title":"Albacore Tuna","placename":"Thailand","address":"Thailand"}},{"type":"Feature","geometry":{"type":"Point","coordinates":[-122.272747,37.871592599997]},"properties":{"description":"","title":"Red Curry Paste","placename":"Berkeley, CA, USA","address":"Thailand\/imp by Berkeley, CA"}},{"type":"Feature","geometry":{"type":"Point","coordinates":[-79.383184300004,43.653226000002]},"properties":{"description":"","title":"Halls","placename":"Toronto, ON, Canada","address":"Toronto, ON"}},{"type":"Feature","geometry":{"type":"Point","coordinates":[-79.383184300004,43.653226000002]},"properties":{"description":"","title":"Yogurt Almond","placename":"Toronto, ON, Canada","address":"Toronto, ON"}},{"type":"Feature","geometry":{"type":"Point","coordinates":[-79.383184300004,43.653226000002]},"properties":{"description":"","title":"Traveller Mix","placename":"Toronto, ON, Canada","address":"Toronto, ON"}},{"type":"Feature","geometry":{"type":"Point","coordinates":[-79.383184300004,43.653226000002]},"properties":{"description":"","title":"Q-Tips","placename":"Toronto, ON, Canada","address":"Toronto, ON"}},{"type":"Feature","geometry":{"type":"Point","coordinates":[-79.383184300004,43.653226000002]},"properties":{"description":"","title":"Pepto Bismol","placename":"Toronto, ON, Canada","address":"Toronto, ON"}},{"type":"Feature","geometry":{"type":"Point","coordinates":[-79.383184300004,43.653226000002]},"properties":{"description":"","title":"Exaxt Ibuprofen","placename":"Toronto, ON, Canada","address":"Toronto, ON"}},{"type":"Feature","geometry":{"type":"Point","coordinates":[-79.383184300004,43.653226000002]},"properties":{"description":"","title":"Exact Acetamin","placename":"Toronto, ON, Canada","address":"Toronto, ON"}},{"type":"Feature","geometry":{"type":"Point","coordinates":[-79.383184300004,43.653226000002]},"properties":{"description":"","title":"Parma Rosa Packet Sauce","placename":"Toronto, ON, Canada","address":"Toronto, ON"}},{"type":"Feature","geometry":{"type":"Point","coordinates":[-79.383184300004,43.653226000002]},"properties":{"description":"","title":"Skippy","placename":"Toronto, ON, Canada","address":"Toronto, ON"}},{"type":"Feature","geometry":{"type":"Point","coordinates":[-79.383184300004,43.653226000002]},"properties":{"description":"","title":"Mouthwash","placename":"Toronto, ON, Canada","address":"Toronto, ON"}},{"type":"Feature","geometry":{"type":"Point","coordinates":[35.243321999997,38.963745000001]},"properties":{"description":"","title":"Apricot","placename":"Turkey","address":"Turkey"}},{"type":"Feature","geometry":{"type":"Point","coordinates":[35.243321999997,38.963745000001]},"properties":{"description":"","title":"Dried Apricot \u2013 Bulk","placename":"Turkey","address":"Turkey"}},{"type":"Feature","geometry":{"type":"Point","coordinates":[35.243321999997,38.963745000001]},"properties":{"description":"","title":"Dried Apricot","placename":"Turkey","address":"Turkey"}},{"type":"Feature","geometry":{"type":"Point","coordinates":[-3.4359729999961,55.378051000001]},"properties":{"description":"","title":"Bottlegreen \u2013 small","placename":"United Kingdom","address":"UK"}},{"type":"Feature","geometry":{"type":"Point","coordinates":[-3.4359729999961,55.378051000001]},"properties":{"description":"","title":"Sparkling, Cranberry & Orange","placename":"United Kingdom","address":"UK"}},{"type":"Feature","geometry":{"type":"Point","coordinates":[-3.4359729999961,55.378051000001]},"properties":{"description":"","title":"Elderflower","placename":"United Kingdom","address":"UK"}},{"type":"Feature","geometry":{"type":"Point","coordinates":[-3.4359729999961,55.378051000001]},"properties":{"description":"","title":"Lemongrass Spring","placename":"United Kingdom","address":"UK"}},{"type":"Feature","geometry":{"type":"Point","coordinates":[-3.4359729999961,55.378051000001]},"properties":{"description":"","title":"Pomegranate & Elderflower","placename":"United Kingdom","address":"UK"}},{"type":"Feature","geometry":{"type":"Point","coordinates":[-3.4359729999961,55.378051000001]},"properties":{"description":"","title":"Bottlegreen \u2013 large","placename":"United Kingdom","address":"UK"}},{"type":"Feature","geometry":{"type":"Point","coordinates":[-3.4359729999961,55.378051000001]},"properties":{"description":"","title":"cranberry & orange press\u00e9","placename":"United Kingdom","address":"UK"}},{"type":"Feature","geometry":{"type":"Point","coordinates":[-3.4359729999961,55.378051000001]},"properties":{"description":"","title":"elderflower press\u00e9","placename":"United Kingdom","address":"UK"}},{"type":"Feature","geometry":{"type":"Point","coordinates":[-3.4359729999961,55.378051000001]},"properties":{"description":"","title":"pomegranate & elderflower press\u00e9","placename":"United Kingdom","address":"UK"}},{"type":"Feature","geometry":{"type":"Point","coordinates":[-3.4359729999961,55.378051000001]},"properties":{"description":"","title":"McVities Digestive","placename":"United Kingdom","address":"UK"}},{"type":"Feature","geometry":{"type":"Point","coordinates":[-3.4359729999961,55.378051000001]},"properties":{"description":"","title":"Hobnob \u2013 plain","placename":"United Kingdom","address":"UK"}},{"type":"Feature","geometry":{"type":"Point","coordinates":[-3.4359729999961,55.378051000001]},"properties":{"description":"","title":"McVities Digestive \u2013 Dark Chocolate","placename":"United Kingdom","address":"UK"}},{"type":"Feature","geometry":{"type":"Point","coordinates":[-3.4359729999961,55.378051000001]},"properties":{"description":"","title":"Hobnobs Chocolate","placename":"United Kingdom","address":"UK"}},{"type":"Feature","geometry":{"type":"Point","coordinates":[-3.4359729999961,55.378051000001]},"properties":{"description":"","title":"McVities Ginger Snaps","placename":"United Kingdom","address":"UK"}},{"type":"Feature","geometry":{"type":"Point","coordinates":[-3.4359729999961,55.378051000001]},"properties":{"description":"","title":"Figs","placename":"United Kingdom","address":"UK"}},{"type":"Feature","geometry":{"type":"Point","coordinates":[-3.4359729999961,55.378051000001]},"properties":{"description":"","title":"Doggie Biodegradable Bags","placename":"United Kingdom","address":"UK"}},{"type":"Feature","geometry":{"type":"Point","coordinates":[-95.712890999999,37.090240000003]},"properties":{"description":"","title":"Sesame Sticks","placename":"United States","address":"USA"}},{"type":"Feature","geometry":{"type":"Point","coordinates":[-95.712890999999,37.090240000003]},"properties":{"description":"","title":"Prunes, Pitted, Organic","placename":"United States","address":"USA"}},{"type":"Feature","geometry":{"type":"Point","coordinates":[-95.712890999999,37.090240000003]},"properties":{"description":"","title":"Cranberries","placename":"United States","address":"USA"}},{"type":"Feature","geometry":{"type":"Point","coordinates":[-95.712890999999,37.090240000003]},"properties":{"description":"","title":"Sucanat, Organic FT","placename":"United States","address":"USA"}},{"type":"Feature","geometry":{"type":"Point","coordinates":[-95.712890999999,37.090240000003]},"properties":{"description":"","title":"Lick Your Chops Dog Food","placename":"United States","address":"USA"}},{"type":"Feature","geometry":{"type":"Point","coordinates":[-95.712890999999,37.090240000003]},"properties":{"description":"","title":"Adult Dog, Can","placename":"United States","address":"USA"}},{"type":"Feature","geometry":{"type":"Point","coordinates":[-95.712890999999,37.090240000003]},"properties":{"description":"","title":"Lamb & Rice, Dog Can","placename":"United States","address":"USA"}},{"type":"Feature","geometry":{"type":"Point","coordinates":[-95.712890999999,37.090240000003]},"properties":{"description":"","title":"Senior Dog Can","placename":"United States","address":"USA"}},{"type":"Feature","geometry":{"type":"Point","coordinates":[-95.712890999999,37.090240000003]},"properties":{"description":"","title":"Turkey & Brown Rice, Dog Can","placename":"United States","address":"USA"}},{"type":"Feature","geometry":{"type":"Point","coordinates":[-95.712890999999,37.090240000003]},"properties":{"description":"","title":"Salmon & Whitefish","placename":"United States","address":"USA"}},{"type":"Feature","geometry":{"type":"Point","coordinates":[-95.712890999999,37.090240000003]},"properties":{"description":"","title":"Turkey & Sweet Potato","placename":"United States","address":"USA"}},{"type":"Feature","geometry":{"type":"Point","coordinates":[-95.712890999999,37.090240000003]},"properties":{"description":"","title":"Chicken & Brown Rice","placename":"United States","address":"USA"}},{"type":"Feature","geometry":{"type":"Point","coordinates":[-95.712890999999,37.090240000003]},"properties":{"description":"","title":"Seafood & Brown Rice","placename":"United States","address":"USA"}},{"type":"Feature","geometry":{"type":"Point","coordinates":[-95.712890999999,37.090240000003]},"properties":{"description":"","title":"Chicken & Crab","placename":"United States","address":"USA"}},{"type":"Feature","geometry":{"type":"Point","coordinates":[-95.712890999999,37.090240000003]},"properties":{"description":"","title":"Sockeye Salmon","placename":"United States","address":"USA"}},{"type":"Feature","geometry":{"type":"Point","coordinates":[-95.712890999999,37.090240000003]},"properties":{"description":"","title":"Taco Shells","placename":"United States","address":"USA"}},{"type":"Feature","geometry":{"type":"Point","coordinates":[-95.712890999999,37.090240000003]},"properties":{"description":"","title":"nile spice cups","placename":"United States","address":"USA"}},{"type":"Feature","geometry":{"type":"Point","coordinates":[-95.712890999999,37.090240000003]},"properties":{"description":"","title":"Couscous, Whole Wheat, Organic","placename":"United States","address":"USA"}},{"type":"Feature","geometry":{"type":"Point","coordinates":[-95.712890999999,37.090240000003]},"properties":{"description":"","title":"Chips Semi Sweet","placename":"United States","address":"USA"}},{"type":"Feature","geometry":{"type":"Point","coordinates":[-95.712890999999,37.090240000003]},"properties":{"description":"","title":"Baking Soda","placename":"United States","address":"USA"}},{"type":"Feature","geometry":{"type":"Point","coordinates":[-95.712890999999,37.090240000003]},"properties":{"description":"","title":"Organic Kamut Puffs","placename":"United States","address":"USA"}},{"type":"Feature","geometry":{"type":"Point","coordinates":[-95.712890999999,37.090240000003]},"properties":{"description":"","title":"Synergy","placename":"United States","address":"USA"}},{"type":"Feature","geometry":{"type":"Point","coordinates":[-95.712890999999,37.090240000003]},"properties":{"description":"","title":"Koala Krisp","placename":"United States","address":"USA"}},{"type":"Feature","geometry":{"type":"Point","coordinates":[-95.712890999999,37.090240000003]},"properties":{"description":"","title":"Eco Corn Flake","placename":"United States","address":"USA"}},{"type":"Feature","geometry":{"type":"Point","coordinates":[-95.712890999999,37.090240000003]},"properties":{"description":"","title":"C battery","placename":"United States","address":"USA"}},{"type":"Feature","geometry":{"type":"Point","coordinates":[-95.712890999999,37.090240000003]},"properties":{"description":"","title":"AA battery","placename":"United States","address":"USA"}},{"type":"Feature","geometry":{"type":"Point","coordinates":[-95.712890999999,37.090240000003]},"properties":{"description":"","title":"AAA battery","placename":"United States","address":"USA"}},{"type":"Feature","geometry":{"type":"Point","coordinates":[-95.712890999999,37.090240000003]},"properties":{"description":"","title":"9V Battery","placename":"United States","address":"USA"}},{"type":"Feature","geometry":{"type":"Point","coordinates":[-79.250000000001,43.8833333]},"properties":{"description":"","title":"Peanut Butter \u2013 Creamy","placename":"Markham, ON, Canada","address":"USA?\/prep for Markham, ON"}},{"type":"Feature","geometry":{"type":"Point","coordinates":[-79.250000000001,43.8833333]},"properties":{"description":"","title":"Peanut Butter \u2013 Unsalted","placename":"Markham, ON, Canada","address":"USA?\/prep for Markham, ON"}},{"type":"Feature","geometry":{"type":"Point","coordinates":[-79.644119799996,43.589045199999]},"properties":{"description":"","title":"Baking Soda","placename":"Mississauga, ON, Canada","address":"USA\/for Mississauga, ON"}},{"type":"Feature","geometry":{"type":"Point","coordinates":[-73.972904000003,40.780873800002]},"properties":{"description":"","title":"Hugga Bear Honey Graham","placename":"Rose Center For Earth And Space, Central Park West, New York, NY 10024, USA","address":"USA\/for New York"}},{"type":"Feature","geometry":{"type":"Point","coordinates":[-73.972904000003,40.780873800002]},"properties":{"description":"","title":"Organic Baby Cereal, Br. Rice","placename":"Rose Center For Earth And Space, Central Park West, New York, NY 10024, USA","address":"USA\/for New York"}},{"type":"Feature","geometry":{"type":"Point","coordinates":[-73.972904000003,40.780873800002]},"properties":{"description":"","title":"Organic Baby Cereal, Oatmeal","placename":"Rose Center For Earth And Space, Central Park West, New York, NY 10024, USA","address":"USA\/for New York"}},{"type":"Feature","geometry":{"type":"Point","coordinates":[-73.972904000003,40.780873800002]},"properties":{"description":"","title":"Organic Soy Mayonnaise","placename":"Rose Center For Earth And Space, Central Park West, New York, NY 10024, USA","address":"USA\/for New York"}},{"type":"Feature","geometry":{"type":"Point","coordinates":[-121.5061069,38.5802743]},"properties":{"description":"","title":"Almond Milk, Original","placename":"Drexel University - Sacramento Center for Graduate Studies, 1 Capitol Mall #260, Sacramento, CA 95814, USA","address":"USA\/for Sacramento, CA"}},{"type":"Feature","geometry":{"type":"Point","coordinates":[-122.791859,49.283858999998]},"properties":{"description":"","title":"Supreme Habanero Sauce","placename":"Coquitlam, BC, Canada","address":"USA\/imp by Coquitlam"}},{"type":"Feature","geometry":{"type":"Point","coordinates":[-122.791859,49.283858999998]},"properties":{"description":"","title":"Louisiana Hot Sauce","placename":"Coquitlam, BC, Canada","address":"USA\/imp by Coquitlam"}},{"type":"Feature","geometry":{"type":"Point","coordinates":[-73.212071999996,44.475882499997]},"properties":{"description":"","title":"Automatic Dishwasher Gel, Free & Clear Pur","placename":"Burlington, VT, USA","address":"USA\/mfg for Burlington, VT"}},{"type":"Feature","geometry":{"type":"Point","coordinates":[-73.212071999996,44.475882499997]},"properties":{"description":"","title":"7THG Diapers Stage 1","placename":"Burlington, VT, USA","address":"USA\/mfg for Burlington, VT"}},{"type":"Feature","geometry":{"type":"Point","coordinates":[-73.212071999996,44.475882499997]},"properties":{"description":"","title":"7THG Diapers Stage 3","placename":"Burlington, VT, USA","address":"USA\/mfg for Burlington, VT"}},{"type":"Feature","geometry":{"type":"Point","coordinates":[-73.212071999996,44.475882499997]},"properties":{"description":"","title":"7THG Diapers Stage 2","placename":"Burlington, VT, USA","address":"USA\/mfg for Burlington, VT"}},{"type":"Feature","geometry":{"type":"Point","coordinates":[-73.212071999996,44.475882499997]},"properties":{"description":"","title":"7THG Diapers Stage 4","placename":"Burlington, VT, USA","address":"USA\/mfg for Burlington, VT"}},{"type":"Feature","geometry":{"type":"Point","coordinates":[-73.212071999996,44.475882499997]},"properties":{"description":"","title":"Diapers Size 1","placename":"Burlington, VT, USA","address":"USA\/mfg for Burlington, VT"}},{"type":"Feature","geometry":{"type":"Point","coordinates":[-123.137766,49.163468999999]},"properties":{"description":"","title":"Gorilla Munch","placename":"Richmond, BC, Canada","address":"USA\/Richmond, BC"}},{"type":"Feature","geometry":{"type":"Point","coordinates":[-123.137766,49.163468999999]},"properties":{"description":"","title":"Optimum Cranberry Ginger, Organic (formerly Optimum Zen)","placename":"Richmond, BC, Canada","address":"USA\/Richmond, BC"}},{"type":"Feature","geometry":{"type":"Point","coordinates":[-123.137766,49.163468999999]},"properties":{"description":"","title":"Whole O's Cereal","placename":"Richmond, BC, Canada","address":"USA\/Richmond, BC"}},{"type":"Feature","geometry":{"type":"Point","coordinates":[-88.203960700001,41.8847507]},"properties":{"description":"","title":"freezies","placename":"West Chicago, IL, USA","address":"USA\/West Chicago, IL"}},{"type":"Feature","geometry":{"type":"Point","coordinates":[-123.1139268,49.261225999998]},"properties":{"description":"","title":"Multigrain Bread","placename":"Vancouver, BC, Canada","address":"Vancouver, BC"}},{"type":"Feature","geometry":{"type":"Point","coordinates":[-123.1139268,49.261225999998]},"properties":{"description":"","title":"San Fran Sourdough","placename":"Vancouver, BC, Canada","address":"Vancouver, BC"}},{"type":"Feature","geometry":{"type":"Point","coordinates":[-123.1139268,49.261225999998]},"properties":{"description":"","title":"Pecan Crasin","placename":"Vancouver, BC, Canada","address":"Vancouver, BC"}},{"type":"Feature","geometry":{"type":"Point","coordinates":[-123.1139268,49.261225999998]},"properties":{"description":"","title":"Cashew Tube, Cajun","placename":"Vancouver, BC, Canada","address":"Vancouver, BC"}},{"type":"Feature","geometry":{"type":"Point","coordinates":[-123.1139268,49.261225999998]},"properties":{"description":"","title":"Cashew Tube, Unsalted","placename":"Vancouver, BC, Canada","address":"Vancouver, BC"}},{"type":"Feature","geometry":{"type":"Point","coordinates":[-123.1139268,49.261225999998]},"properties":{"description":"","title":"Naam Miso Gravy","placename":"Vancouver, BC, Canada","address":"Vancouver, BC"}},{"type":"Feature","geometry":{"type":"Point","coordinates":[-123.1139268,49.261225999998]},"properties":{"description":"","title":"Burrito \u2013 Garden Vegetable","placename":"Vancouver, BC, Canada","address":"Vancouver, BC"}},{"type":"Feature","geometry":{"type":"Point","coordinates":[-123.1139268,49.261225999998]},"properties":{"description":"","title":"Veggie Sandwich","placename":"Vancouver, BC, Canada","address":"Vancouver, BC"}},{"type":"Feature","geometry":{"type":"Point","coordinates":[-123.1139268,49.261225999998]},"properties":{"description":"","title":"Bocconcini","placename":"Vancouver, BC, Canada","address":"Vancouver, BC"}},{"type":"Feature","geometry":{"type":"Point","coordinates":[-123.1139268,49.261225999998]},"properties":{"description":"","title":"Turkey Sandwich","placename":"Vancouver, BC, Canada","address":"Vancouver, BC"}},{"type":"Feature","geometry":{"type":"Point","coordinates":[-123.1139268,49.261225999998]},"properties":{"description":"","title":"Montreal Smoked Meat Sandwich","placename":"Vancouver, BC, Canada","address":"Vancouver, BC"}},{"type":"Feature","geometry":{"type":"Point","coordinates":[-123.1139268,49.261225999998]},"properties":{"description":"","title":"Capicola Bun","placename":"Vancouver, BC, Canada","address":"Vancouver, BC"}},{"type":"Feature","geometry":{"type":"Point","coordinates":[-123.1139268,49.261225999998]},"properties":{"description":"","title":"Eggwich","placename":"Vancouver, BC, Canada","address":"Vancouver, BC"}},{"type":"Feature","geometry":{"type":"Point","coordinates":[-123.1139268,49.261225999998]},"properties":{"description":"","title":"Uprising Muffin","placename":"Vancouver, BC, Canada","address":"Vancouver, BC"}},{"type":"Feature","geometry":{"type":"Point","coordinates":[-123.1139268,49.261225999998]},"properties":{"description":"","title":"Uprising Chunk Cookie","placename":"Vancouver, BC, Canada","address":"Vancouver, BC"}},{"type":"Feature","geometry":{"type":"Point","coordinates":[-123.1139268,49.261225999998]},"properties":{"description":"","title":"Uprising Oatmeal Cookie","placename":"Vancouver, BC, Canada","address":"Vancouver, BC"}},{"type":"Feature","geometry":{"type":"Point","coordinates":[-123.1139268,49.261225999998]},"properties":{"description":"","title":"Uprising Muffin \u2013 Dozen","placename":"Vancouver, BC, Canada","address":"Vancouver, BC"}},{"type":"Feature","geometry":{"type":"Point","coordinates":[-123.1139268,49.261225999998]},"properties":{"description":"","title":"Pretzel","placename":"Vancouver, BC, Canada","address":"Vancouver, BC"}},{"type":"Feature","geometry":{"type":"Point","coordinates":[-123.1139268,49.261225999998]},"properties":{"description":"","title":"Croissant \u2013 Chocolate","placename":"Vancouver, BC, Canada","address":"Vancouver, BC"}},{"type":"Feature","geometry":{"type":"Point","coordinates":[-123.1139268,49.261225999998]},"properties":{"description":"","title":"Muffin \u2013 Blueberry","placename":"Vancouver, BC, Canada","address":"Vancouver, BC"}},{"type":"Feature","geometry":{"type":"Point","coordinates":[-123.1139268,49.261225999998]},"properties":{"description":"","title":"Muffin \u2013 Bran","placename":"Vancouver, BC, Canada","address":"Vancouver, BC"}},{"type":"Feature","geometry":{"type":"Point","coordinates":[-123.1139268,49.261225999998]},"properties":{"description":"","title":"Muffin Choc Chip Banana","placename":"Vancouver, BC, Canada","address":"Vancouver, BC"}},{"type":"Feature","geometry":{"type":"Point","coordinates":[-123.1139268,49.261225999998]},"properties":{"description":"","title":"UCB","placename":"Vancouver, BC, Canada","address":"Vancouver, BC"}},{"type":"Feature","geometry":{"type":"Point","coordinates":[-123.1139268,49.261225999998]},"properties":{"description":"","title":"Blueberry Cinnamon Bun","placename":"Vancouver, BC, Canada","address":"Vancouver, BC"}},{"type":"Feature","geometry":{"type":"Point","coordinates":[-123.1139268,49.261225999998]},"properties":{"description":"","title":"Carrot Cake","placename":"Vancouver, BC, Canada","address":"Vancouver, BC"}},{"type":"Feature","geometry":{"type":"Point","coordinates":[-123.1139268,49.261225999998]},"properties":{"description":"","title":"Chocolate Croissant","placename":"Vancouver, BC, Canada","address":"Vancouver, BC"}},{"type":"Feature","geometry":{"type":"Point","coordinates":[-123.1139268,49.261225999998]},"properties":{"description":"","title":"Beef Heart","placename":"Vancouver, BC, Canada","address":"Vancouver, BC"}},{"type":"Feature","geometry":{"type":"Point","coordinates":[-123.1139268,49.261225999998]},"properties":{"description":"","title":"Beef Liver","placename":"Vancouver, BC, Canada","address":"Vancouver, BC"}},{"type":"Feature","geometry":{"type":"Point","coordinates":[-123.1139268,49.261225999998]},"properties":{"description":"","title":"Lamb Liver","placename":"Vancouver, BC, Canada","address":"Vancouver, BC"}},{"type":"Feature","geometry":{"type":"Point","coordinates":[-123.1139268,49.261225999998]},"properties":{"description":"","title":"Wild Sockeye Salmon","placename":"Vancouver, BC, Canada","address":"Vancouver, BC"}},{"type":"Feature","geometry":{"type":"Point","coordinates":[-123.1139268,49.261225999998]},"properties":{"description":"","title":"Organic Standard Milk","placename":"Vancouver, BC, Canada","address":"Vancouver, BC"}},{"type":"Feature","geometry":{"type":"Point","coordinates":[-123.1139268,49.261225999998]},"properties":{"description":"","title":"Organic Skim Milk","placename":"Vancouver, BC, Canada","address":"Vancouver, BC"}},{"type":"Feature","geometry":{"type":"Point","coordinates":[-123.1139268,49.261225999998]},"properties":{"description":"","title":"Organic 1% Milk","placename":"Vancouver, BC, Canada","address":"Vancouver, BC"}},{"type":"Feature","geometry":{"type":"Point","coordinates":[-123.1139268,49.261225999998]},"properties":{"description":"","title":"Organic 2% Milk","placename":"Vancouver, BC, Canada","address":"Vancouver, BC"}},{"type":"Feature","geometry":{"type":"Point","coordinates":[-123.1139268,49.261225999998]},"properties":{"description":"","title":"Organic Homo Milk","placename":"Vancouver, BC, Canada","address":"Vancouver, BC"}},{"type":"Feature","geometry":{"type":"Point","coordinates":[-123.1139268,49.261225999998]},"properties":{"description":"","title":"Organic Cereal Cream","placename":"Vancouver, BC, Canada","address":"Vancouver, BC"}},{"type":"Feature","geometry":{"type":"Point","coordinates":[-123.1139268,49.261225999998]},"properties":{"description":"","title":"Organic Chocolate Milk","placename":"Vancouver, BC, Canada","address":"Vancouver, BC"}},{"type":"Feature","geometry":{"type":"Point","coordinates":[-123.1139268,49.261225999998]},"properties":{"description":"","title":"Goat's Milk","placename":"Vancouver, BC, Canada","address":"Vancouver, BC"}},{"type":"Feature","geometry":{"type":"Point","coordinates":[-123.1139268,49.261225999998]},"properties":{"description":"","title":"Egg Nog","placename":"Vancouver, BC, Canada","address":"Vancouver, BC"}},{"type":"Feature","geometry":{"type":"Point","coordinates":[-123.1139268,49.261225999998]},"properties":{"description":"","title":"Organic Sour Cream","placename":"Vancouver, BC, Canada","address":"Vancouver, BC"}},{"type":"Feature","geometry":{"type":"Point","coordinates":[-123.1139268,49.261225999998]},"properties":{"description":"","title":"Organic Whipping Cream","placename":"Vancouver, BC, Canada","address":"Vancouver, BC"}},{"type":"Feature","geometry":{"type":"Point","coordinates":[-123.1139268,49.261225999998]},"properties":{"description":"","title":"Cottage Cheese","placename":"Vancouver, BC, Canada","address":"Vancouver, BC"}},{"type":"Feature","geometry":{"type":"Point","coordinates":[-123.1139268,49.261225999998]},"properties":{"description":"","title":"Organic Mozarella","placename":"Vancouver, BC, Canada","address":"Vancouver, BC"}},{"type":"Feature","geometry":{"type":"Point","coordinates":[-123.1139268,49.261225999998]},"properties":{"description":"","title":"Organic Medium Cheddar","placename":"Vancouver, BC, Canada","address":"Vancouver, BC"}},{"type":"Feature","geometry":{"type":"Point","coordinates":[-123.1139268,49.261225999998]},"properties":{"description":"","title":"Organic Aged Cheddar","placename":"Vancouver, BC, Canada","address":"Vancouver, BC"}},{"type":"Feature","geometry":{"type":"Point","coordinates":[-123.1139268,49.261225999998]},"properties":{"description":"","title":"Plain Organic Yogurt","placename":"Vancouver, BC, Canada","address":"Vancouver, BC"}},{"type":"Feature","geometry":{"type":"Point","coordinates":[-123.1139268,49.261225999998]},"properties":{"description":"","title":"Blueberry Organic Yogurt","placename":"Vancouver, BC, Canada","address":"Vancouver, BC"}},{"type":"Feature","geometry":{"type":"Point","coordinates":[-123.1139268,49.261225999998]},"properties":{"description":"","title":"Peach Organic Yogurt","placename":"Vancouver, BC, Canada","address":"Vancouver, BC"}},{"type":"Feature","geometry":{"type":"Point","coordinates":[-123.1139268,49.261225999998]},"properties":{"description":"","title":"Strawberry Organic Yogurt","placename":"Vancouver, BC, Canada","address":"Vancouver, BC"}},{"type":"Feature","geometry":{"type":"Point","coordinates":[-123.1139268,49.261225999998]},"properties":{"description":"","title":"Raspberry Organic Yogurt","placename":"Vancouver, BC, Canada","address":"Vancouver, BC"}},{"type":"Feature","geometry":{"type":"Point","coordinates":[-123.1139268,49.261225999998]},"properties":{"description":"","title":"Avalon Yogurt Variety Pak","placename":"Vancouver, BC, Canada","address":"Vancouver, BC"}},{"type":"Feature","geometry":{"type":"Point","coordinates":[-123.1139268,49.261225999998]},"properties":{"description":"","title":"Goat's Milk X 2","placename":"Vancouver, BC, Canada","address":"Vancouver, BC"}},{"type":"Feature","geometry":{"type":"Point","coordinates":[-123.1139268,49.261225999998]},"properties":{"description":"","title":"Chocolate Milk","placename":"Vancouver, BC, Canada","address":"Vancouver, BC"}},{"type":"Feature","geometry":{"type":"Point","coordinates":[-123.1139268,49.261225999998]},"properties":{"description":"","title":"Large White Eggs","placename":"Vancouver, BC, Canada","address":"Vancouver, BC"}},{"type":"Feature","geometry":{"type":"Point","coordinates":[-123.1139268,49.261225999998]},"properties":{"description":"","title":"Cottage Cheese & Potato","placename":"Vancouver, BC, Canada","address":"Vancouver, BC"}},{"type":"Feature","geometry":{"type":"Point","coordinates":[-123.1139268,49.261225999998]},"properties":{"description":"","title":"Spicy Sweet Potato","placename":"Vancouver, BC, Canada","address":"Vancouver, BC"}},{"type":"Feature","geometry":{"type":"Point","coordinates":[-123.1139268,49.261225999998]},"properties":{"description":"","title":"Artichoke","placename":"Vancouver, BC, Canada","address":"Vancouver, BC"}},{"type":"Feature","geometry":{"type":"Point","coordinates":[-123.1139268,49.261225999998]},"properties":{"description":"","title":"Perogies","placename":"Vancouver, BC, Canada","address":"Vancouver, BC"}},{"type":"Feature","geometry":{"type":"Point","coordinates":[-123.1139268,49.261225999998]},"properties":{"description":"","title":"Orange Juice","placename":"Vancouver, BC, Canada","address":"Vancouver, BC (with fruit from ?)"}},{"type":"Feature","geometry":{"type":"Point","coordinates":[-123.1139268,49.261225999998]},"properties":{"description":"","title":"Cranberry Manifesto","placename":"Vancouver, BC, Canada","address":"Vancouver, BC (with fruit from ?)"}},{"type":"Feature","geometry":{"type":"Point","coordinates":[-123.1139268,49.261225999998]},"properties":{"description":"","title":"Apple Juice","placename":"Vancouver, BC, Canada","address":"Vancouver, BC (with fruit from ?)"}},{"type":"Feature","geometry":{"type":"Point","coordinates":[-123.1139268,49.261225999998]},"properties":{"description":"","title":"Grapefruit Juice","placename":"Vancouver, BC, Canada","address":"Vancouver, BC (with fruit from ?)"}},{"type":"Feature","geometry":{"type":"Point","coordinates":[-123.2396402,49.265329199998]},"properties":{"description":"","title":"Quick Oats","placename":"Toronto Rd, Vancouver, BC V6T, Canada","address":"Vancouver\/Toronto"}},{"type":"Feature","geometry":{"type":"Point","coordinates":[-79.570000000002,43.84]},"properties":{"description":"","title":"Date & Walnut Crisps","placename":"Vaughan, ON, Canada","address":"Vaughan, Ontario"}},{"type":"Feature","geometry":{"type":"Point","coordinates":[108.277199,14.058324000001]},"properties":{"description":"","title":"Rice Crackers, Wasabi w\/Peas","placename":"Vietnam","address":"Vietnam"}},{"type":"Feature","geometry":{"type":"Point","coordinates":[108.277199,14.058324000001]},"properties":{"description":"","title":"Maple Syrup Cashews","placename":"Vietnam","address":"Vietnam"}},{"type":"Feature","geometry":{"type":"Point","coordinates":[108.277199,14.058324000001]},"properties":{"description":"","title":"Pumpkin Seeds","placename":"Vietnam","address":"Vietnam"}},{"type":"Feature","geometry":{"type":"Point","coordinates":[9.1370223000019,48.6390933]},"properties":{"description":"","title":"Ritter Sport","placename":"Waldenbuch, Germany","address":"Waldenbuch, Germany"}},{"type":"Feature","geometry":{"type":"Point","coordinates":[9.1370223000019,48.6390933]},"properties":{"description":"","title":"Peppermint","placename":"Waldenbuch, Germany","address":"Waldenbuch, Germany"}},{"type":"Feature","geometry":{"type":"Point","coordinates":[9.1370223000019,48.6390933]},"properties":{"description":"","title":"Alpine Milk","placename":"Waldenbuch, Germany","address":"Waldenbuch, Germany"}},{"type":"Feature","geometry":{"type":"Point","coordinates":[9.1370223000019,48.6390933]},"properties":{"description":"","title":"Butter Biscuit","placename":"Waldenbuch, Germany","address":"Waldenbuch, Germany"}},{"type":"Feature","geometry":{"type":"Point","coordinates":[9.1370223000019,48.6390933]},"properties":{"description":"","title":"Cornflakes","placename":"Waldenbuch, Germany","address":"Waldenbuch, Germany"}},{"type":"Feature","geometry":{"type":"Point","coordinates":[9.1370223000019,48.6390933]},"properties":{"description":"","title":"Dark Chocolate with Whole Hazelnuts","placename":"Waldenbuch, Germany","address":"Waldenbuch, Germany"}},{"type":"Feature","geometry":{"type":"Point","coordinates":[9.1370223000019,48.6390933]},"properties":{"description":"","title":"White Chocolate with Whole Hazelnuts","placename":"Waldenbuch, Germany","address":"Waldenbuch, Germany"}},{"type":"Feature","geometry":{"type":"Point","coordinates":[9.1370223000019,48.6390933]},"properties":{"description":"","title":"Raisin Hazelnut","placename":"Waldenbuch, Germany","address":"Waldenbuch, Germany"}},{"type":"Feature","geometry":{"type":"Point","coordinates":[-97.137493700002,49.899754099997]},"properties":{"description":"","title":"Hemp Bliss Orgnal","placename":"Winnipeg, MB, Canada","address":"Winnipeg, MB"}},{"type":"Feature","geometry":{"type":"Point","coordinates":[-97.137493700002,49.899754099997]},"properties":{"description":"","title":"Epsom Salts","placename":"Winnipeg, MB, Canada","address":"Winnipeg, MB"}},{"type":"Feature","geometry":{"type":"Point","coordinates":[-71.109733499997,42.373615800001]},"properties":{"description":"","title":"Lemonade","placename":"Mid-Cambridge, MA, USA","address":"Cambridge, MA"}},{"type":"Feature","geometry":{"type":"Point","coordinates":[-108.5419872,46.442267399999]},"properties":{"description":"","title":"Refrigerator","placename":"123 Main St, Roundup, Mt 59072, USA","address":"123 Main St."}},{"type":"Feature","geometry":{"type":"Point","coordinates":[-108.5419872,46.442267399999]},"properties":{"description":"","title":"Family","placename":"123 Main St, Roundup, Mt 59072, USA","address":"123 Main St."}},{"type":"Feature","geometry":{"type":"Point","coordinates":[-70.310320400001,43.616110100003]},"properties":{"description":"","title":"Lemonade Stand","placename":"Main St & Massachusetts Ave, South Portland, ME 04106, USA","address":"Main St. & Massachusetts Ave."}},{"type":"Feature","geometry":{"type":"Point","coordinates":[-71.104489000001,42.365336900002]},"properties":{"description":"","title":"Neighbors","placename":"Central Square, Mid-Cambridge, MA 02139, USA","address":"Central Square, Cambridge"}},{"type":"Feature","geometry":{"type":"LineString","coordinates":[[-71.109733499997,42.373615800001],[-108.5419872,46.442267399999]]},"properties":{"title":"Lemonade to Refrigerator","distance":"2979.148594"}},{"type":"Feature","geometry":{"type":"LineString","coordinates":[[-108.5419872,46.442267399999],[-108.5419872,46.442267399999]]},"properties":{"title":"Refrigerator to Family","distance":"0"}},{"type":"Feature","geometry":{"type":"LineString","coordinates":[[-71.109733499997,42.373615800001],[-70.310320400001,43.616110100003]]},"properties":{"title":"Lemonade to Lemonade Stand","distance":"152.690447"}},{"type":"Feature","geometry":{"type":"LineString","coordinates":[[-70.310320400001,43.616110100003],[-71.104489000001,42.365336900002]]},"properties":{"title":"Lemonade Stand to Neighbors","distance":"153.345598"}}],"properties":{"description":"This is a first-pass of over 600 items (less than half our inventory) in the store.\n\nData comes from the \"Made In\" information on packaging and does not include the second tier information such as where Happy Planet got the bananas for their smoothies.\n\nSuggestions and comments would be greatly appreciated.\n\nKnown Bugs:\nStrathcona shows up as somewhere just west of Lake Superior!\nSome cheese from Quebec is marked as being from Africa!","tags":"food, groceries","title":"Products Available At The Wilder Snail","sm:ui:tileset":"satellite"}}