{"supplychain":{"category":47,"created":1335390419,"enable_comments":true,"flags":0,"id":2737,"modified":1335391400,"other_perms":1,"passcode":null,"user_featured":false,"usergroup_id":null,"usergroup_perms":0,"user_id":1751,"owner":{"id":1751,"name":"wildersnail","avatar":"http:\/\/free.sourcemap.com\/assets\/images\/default-user.png","banner_url":null,"display_name":null},"taxonomy":[{"description":"food","id":47,"left":39,"name":"food","right":40,"title":"Food"}],"attributes":{"description":"This is a first-pass of over 600 items (less than half our inventory) in the store.\n\nData comes from the \"Made In\" information on packaging and does not include the second tier information such as where Happy Planet got the bananas for their smoothies.\n\nSuggestions and comments would be greatly appreciated.\n\nKnown Bugs:\nStrathcona shows up as somewhere just west of Lake Superior!\nSome cheese from Quebec is marked as being from Africa!","tags":"food, groceries","title":"Products Available At The Wilder Snail","sm:ui:tileset":"satellite"},"stops":[{"local_stop_id":552,"id":552,"geometry":"POINT(-13702577.210478 6296280.7879)","attributes":{"description":"","title":"Queso Picante","placename":"12031 No 5 Rd, Richmond, BC V7A 4G1, Canada","address":"12031 No. 5. Road, Richmond, BC"}},{"local_stop_id":551,"id":551,"geometry":"POINT(-13702577.210478 6296280.7879)","attributes":{"description":"","title":"Fritas Del Sol","placename":"12031 No 5 Rd, Richmond, BC V7A 4G1, Canada","address":"12031 No. 5. Road, Richmond, BC"}},{"local_stop_id":550,"id":550,"geometry":"POINT(-13702577.210478 6296280.7879)","attributes":{"description":"","title":"Organic Corn Chips","placename":"12031 No 5 Rd, Richmond, BC V7A 4G1, Canada","address":"12031 No. 5. Road, Richmond, BC"}},{"local_stop_id":549,"id":549,"geometry":"POINT(-13702577.210478 6296280.7879)","attributes":{"description":"","title":"Blue Organic Corn Chips","placename":"12031 No 5 Rd, Richmond, BC V7A 4G1, Canada","address":"12031 No. 5. Road, Richmond, BC"}},{"local_stop_id":548,"id":548,"geometry":"POINT(-13702577.210478 6296280.7879)","attributes":{"description":"","title":"Black Bean Salsa","placename":"12031 No 5 Rd, Richmond, BC V7A 4G1, Canada","address":"12031 No. 5. Road, Richmond, BC"}},{"local_stop_id":547,"id":547,"geometry":"POINT(-13702577.210478 6296280.7879)","attributes":{"description":"","title":"Salsa Mexicana","placename":"12031 No 5 Rd, Richmond, BC V7A 4G1, Canada","address":"12031 No. 5. Road, Richmond, BC"}},{"local_stop_id":546,"id":546,"geometry":"POINT(-13702577.210478 6296280.7879)","attributes":{"description":"","title":"Salsa Pina","placename":"12031 No 5 Rd, Richmond, BC V7A 4G1, Canada","address":"12031 No. 5. Road, Richmond, BC"}},{"local_stop_id":545,"id":545,"geometry":"POINT(-13702577.210478 6296280.7879)","attributes":{"description":"","title":"Salsa Chipotle","placename":"12031 No 5 Rd, Richmond, BC V7A 4G1, Canada","address":"12031 No. 5. Road, Richmond, BC"}},{"local_stop_id":544,"id":544,"geometry":"POINT(-13702577.210478 6296280.7879)","attributes":{"description":"","title":"Burrito \u2013 Beef\/Bean","placename":"12031 No 5 Rd, Richmond, BC V7A 4G1, Canada","address":"12031 No. 5. Road, Richmond, BC"}},{"local_stop_id":543,"id":543,"geometry":"POINT(-13702577.210478 6296280.7879)","attributes":{"description":"","title":"Burrito \u2013 Chicken & Bean","placename":"12031 No 5 Rd, Richmond, BC V7A 4G1, Canada","address":"12031 No. 5. Road, Richmond, BC"}},{"local_stop_id":542,"id":542,"geometry":"POINT(-13702577.210478 6296280.7879)","attributes":{"description":"","title":"Fajita \u2013 Chicken","placename":"12031 No 5 Rd, Richmond, BC V7A 4G1, Canada","address":"12031 No. 5. Road, Richmond, BC"}},{"local_stop_id":541,"id":541,"geometry":"POINT(-13702577.210478 6296280.7879)","attributes":{"description":"","title":"Burrito \u2013 Bean\/Cheese","placename":"12031 No 5 Rd, Richmond, BC V7A 4G1, Canada","address":"12031 No. 5. Road, Richmond, BC"}},{"local_stop_id":540,"id":540,"geometry":"POINT(-13702577.210478 6296280.7879)","attributes":{"description":"","title":"Organic Corn Tortilla","placename":"12031 No 5 Rd, Richmond, BC V7A 4G1, Canada","address":"12031 No. 5. Road, Richmond, BC"}},{"local_stop_id":539,"id":539,"geometry":"POINT(-13702577.210478 6296280.7879)","attributes":{"description":"","title":"Fajita Style Tortilla","placename":"12031 No 5 Rd, Richmond, BC V7A 4G1, Canada","address":"12031 No. 5. Road, Richmond, BC"}},{"local_stop_id":538,"id":538,"geometry":"POINT(-13702577.210478 6296280.7879)","attributes":{"description":"","title":"Salsa Roja(red)-Mild","placename":"12031 No 5 Rd, Richmond, BC V7A 4G1, Canada","address":"12031 No. 5. Road, Richmond, BC"}},{"local_stop_id":537,"id":537,"geometry":"POINT(-13702577.210478 6296280.7879)","attributes":{"description":"","title":"Salsa Roja(red)-Medium","placename":"12031 No 5 Rd, Richmond, BC V7A 4G1, Canada","address":"12031 No. 5. Road, Richmond, BC"}},{"local_stop_id":536,"id":536,"geometry":"POINT(-13702577.210478 6296280.7879)","attributes":{"description":"","title":"Enchilada \u2013 Chicken","placename":"12031 No 5 Rd, Richmond, BC V7A 4G1, Canada","address":"12031 No. 5. Road, Richmond, BC"}},{"local_stop_id":535,"id":535,"geometry":"POINT(-13702577.210478 6296280.7879)","attributes":{"description":"","title":"Salsa Roja(red)-Hot","placename":"12031 No 5 Rd, Richmond, BC V7A 4G1, Canada","address":"12031 No. 5. Road, Richmond, BC"}},{"local_stop_id":534,"id":534,"geometry":"POINT(-13702577.210478 6296280.7879)","attributes":{"description":"","title":"Red Organic Corn Chips","placename":"12031 No 5 Rd, Richmond, BC V7A 4G1, Canada","address":"12031 No. 5. Road, Richmond, BC"}},{"local_stop_id":533,"id":533,"geometry":"POINT(-13702577.210478 6296280.7879)","attributes":{"description":"","title":"Carnival\/Canada Chips","placename":"12031 No 5 Rd, Richmond, BC V7A 4G1, Canada","address":"12031 No. 5. Road, Richmond, BC"}},{"local_stop_id":532,"id":532,"geometry":"POINT(-13702577.210478 6296280.7879)","attributes":{"description":"","title":"Tortilla","placename":"12031 No 5 Rd, Richmond, BC V7A 4G1, Canada","address":"12031 No. 5. Road, Richmond, BC"}},{"local_stop_id":531,"id":531,"geometry":"POINT(-13666051.048027 6317932.829755)","attributes":{"description":"","title":"Butternut Ravioli & Pesto","placename":"1750 McLean Ave, Port Coquitlam, BC V3C 1M9, Canada","address":"1750 McLean Ave, Port Coquitlam"}},{"local_stop_id":530,"id":530,"geometry":"POINT(-13666051.048027 6317932.829755)","attributes":{"description":"","title":"Cheese Tortellini & Tomato Herb Sauce","placename":"1750 McLean Ave, Port Coquitlam, BC V3C 1M9, Canada","address":"1750 McLean Ave, Port Coquitlam"}},{"local_stop_id":529,"id":529,"geometry":"POINT(-13666051.048027 6317932.829755)","attributes":{"description":"","title":"Ravioli, Butternut Squash","placename":"1750 McLean Ave, Port Coquitlam, BC V3C 1M9, Canada","address":"1750 McLean Ave, Port Coquitlam"}},{"local_stop_id":528,"id":528,"geometry":"POINT(-13666051.048027 6317932.829755)","attributes":{"description":"","title":"Tortellini, Garlic Chicken","placename":"1750 McLean Ave, Port Coquitlam, BC V3C 1M9, Canada","address":"1750 McLean Ave, Port Coquitlam"}},{"local_stop_id":527,"id":527,"geometry":"POINT(-13672939.932263 6323015.202322)","attributes":{"description":"","title":"Enviro-Bleach","placename":"255 Newport Dr, Port Moody, BC V3H 5C6, Canada","address":"255 Newport Drive Port Moody, BC"}},{"local_stop_id":526,"id":526,"geometry":"POINT(-13672939.932263 6323015.202322)","attributes":{"description":"","title":"Glass Cleaner","placename":"255 Newport Dr, Port Moody, BC V3H 5C6, Canada","address":"255 Newport Drive Port Moody, BC"}},{"local_stop_id":525,"id":525,"geometry":"POINT(-13672939.932263 6323015.202322)","attributes":{"description":"","title":"All Purpose Cleaner","placename":"255 Newport Dr, Port Moody, BC V3H 5C6, Canada","address":"255 Newport Drive Port Moody, BC"}},{"local_stop_id":524,"id":524,"geometry":"POINT(-13672939.932263 6323015.202322)","attributes":{"description":"","title":"Liquid Laundry Detergent","placename":"255 Newport Dr, Port Moody, BC V3H 5C6, Canada","address":"255 Newport Drive Port Moody, BC"}},{"local_stop_id":523,"id":523,"geometry":"POINT(-13672939.932263 6323015.202322)","attributes":{"description":"","title":"Powder Laundry Detergent","placename":"255 Newport Dr, Port Moody, BC V3H 5C6, Canada","address":"255 Newport Drive Port Moody, BC"}},{"local_stop_id":522,"id":522,"geometry":"POINT(-13672939.932263 6323015.202322)","attributes":{"description":"","title":"Unscented Fabric Softner","placename":"255 Newport Dr, Port Moody, BC V3H 5C6, Canada","address":"255 Newport Drive Port Moody, BC"}},{"local_stop_id":521,"id":521,"geometry":"POINT(-13672939.932263 6323015.202322)","attributes":{"description":"","title":"Lemongrass Fabric Softner","placename":"255 Newport Dr, Port Moody, BC V3H 5C6, Canada","address":"255 Newport Drive Port Moody, BC"}},{"local_stop_id":520,"id":520,"geometry":"POINT(-13672939.932263 6323015.202322)","attributes":{"description":"","title":"Lavender Fabric Softner","placename":"255 Newport Dr, Port Moody, BC V3H 5C6, Canada","address":"255 Newport Drive Port Moody, BC"}},{"local_stop_id":519,"id":519,"geometry":"POINT(-13672939.932263 6323015.202322)","attributes":{"description":"","title":"Auto Dishwashing Powder","placename":"255 Newport Dr, Port Moody, BC V3H 5C6, Canada","address":"255 Newport Drive Port Moody, BC"}},{"local_stop_id":518,"id":518,"geometry":"POINT(-13672939.932263 6323015.202322)","attributes":{"description":"","title":"Dishwashing Liquid","placename":"255 Newport Dr, Port Moody, BC V3H 5C6, Canada","address":"255 Newport Drive Port Moody, BC"}},{"local_stop_id":517,"id":517,"geometry":"POINT(-13672939.932263 6323015.202322)","attributes":{"description":"","title":"Dishwashing Liquid (1L bulk)","placename":"255 Newport Dr, Port Moody, BC V3H 5C6, Canada","address":"255 Newport Drive Port Moody, BC"}},{"local_stop_id":516,"id":516,"geometry":"POINT(-13672939.932263 6323015.202322)","attributes":{"description":"","title":"Laundry Liquid Detergent (1L bulk)","placename":"255 Newport Dr, Port Moody, BC V3H 5C6, Canada","address":"255 Newport Drive Port Moody, BC"}},{"local_stop_id":515,"id":515,"geometry":"POINT(-13691865.960018 6307169.229851)","attributes":{"description":"","title":"Hemp Peanut Butter","placename":"7442 Fraser Park Dr, Burnaby, BC V5J 5B9, Canada","address":"7442 Fraser Park Drive, Burnaby"}},{"local_stop_id":514,"id":514,"geometry":"POINT(-13612708.941033 6284504.666895)","attributes":{"description":"","title":"k-9 10\u201d bone","placename":"Abbotsford, BC, Canada","address":"Abbotsford, BC"}},{"local_stop_id":513,"id":513,"geometry":"POINT(-13149839.114202 4041603.929718)","attributes":{"description":"","title":"Cashew Sesame","placename":"Alhambra, CA, USA","address":"Alhambra, CA"}},{"local_stop_id":512,"id":512,"geometry":"POINT(-13149839.114202 4041603.929718)","attributes":{"description":"","title":"Sierra Mix","placename":"Alhambra, CA, USA","address":"Alhambra, CA"}},{"local_stop_id":511,"id":511,"geometry":"POINT(-13149839.114202 4041603.929718)","attributes":{"description":"","title":"Raw Energy","placename":"Alhambra, CA, USA","address":"Alhambra, CA"}},{"local_stop_id":510,"id":510,"geometry":"POINT(-12366897.576377 4035373.768189)","attributes":{"description":"","title":"Mixed Baby Greens","placename":"Arizona, USA","address":"Arizona"}},{"local_stop_id":509,"id":509,"geometry":"POINT(-12366897.576377 4035373.768189)","attributes":{"description":"","title":"Spinach Baby Salad","placename":"Arizona, USA","address":"Arizona"}},{"local_stop_id":508,"id":508,"geometry":"POINT(1619706.606045 6026746.974644)","attributes":{"description":"","title":"Miso Bouillon, Organic, Vegan","placename":"Austria","address":"Austria"}},{"local_stop_id":507,"id":507,"geometry":"POINT(1619706.606045 6026746.974644)","attributes":{"description":"","title":"Vege Bouillon, Organic, Vegan","placename":"Austria","address":"Austria"}},{"local_stop_id":506,"id":506,"geometry":"POINT(-13249102.470371 4214726.475458)","attributes":{"description":"","title":"Onions","placename":"Bakersfield, CA, USA","address":"Bakersfield, California"}},{"local_stop_id":505,"id":505,"geometry":"POINT(-14209668.126165 7118559.555953)","attributes":{"description":"","title":"Unbleached White Flour, Bulk","placename":"British Columbia, Canada","address":"BC"}},{"local_stop_id":504,"id":504,"geometry":"POINT(-14209668.126165 7118559.555953)","attributes":{"description":"","title":"Whole Wheat Flour, Bulk","placename":"British Columbia, Canada","address":"BC"}},{"local_stop_id":503,"id":503,"geometry":"POINT(-8063433.460447 5836715.698131)","attributes":{"description":"","title":"Organic Parmesan (Raw Milk)","placename":"B\u00e9cancour, QC, Canada","address":"Becancour, QC"}},{"local_stop_id":502,"id":502,"geometry":"POINT(-8063433.460447 5836715.698131)","attributes":{"description":"","title":"Cheddar 2 Year Old","placename":"B\u00e9cancour, QC, Canada","address":"Becancour, QC"}},{"local_stop_id":501,"id":501,"geometry":"POINT(-8063433.460447 5836715.698131)","attributes":{"description":"","title":"l'ancetre marble","placename":"B\u00e9cancour, QC, Canada","address":"Becancour, QC"}},{"local_stop_id":500,"id":500,"geometry":"POINT(-8063433.460447 5836715.698131)","attributes":{"description":"","title":"Mozzarella, 20%MF","placename":"B\u00e9cancour, QC, Canada","address":"Becancour, QC"}},{"local_stop_id":499,"id":499,"geometry":"POINT(-13611679.881396 4511868.177685)","attributes":{"description":"","title":"White Jasmine Sparkling Tea","placename":"Belmont, CA, USA","address":"Belmont, CA"}},{"local_stop_id":498,"id":498,"geometry":"POINT(-13611339.933935 4561302.001121)","attributes":{"description":"","title":"Caramel Nut","placename":"Berkeley, CA, USA","address":"Berkeley, CA"}},{"local_stop_id":497,"id":497,"geometry":"POINT(-13611339.933935 4561302.001121)","attributes":{"description":"","title":"Lemonzest","placename":"Berkeley, CA, USA","address":"Berkeley, CA"}},{"local_stop_id":496,"id":496,"geometry":"POINT(11869900.499858 1248257.427679)","attributes":{"description":"","title":"Pistachio Tube","placename":"Binh Duong province, Vietnam","address":"Binh Duong, Vietnam"}},{"local_stop_id":495,"id":495,"geometry":"POINT(-7078656.47219 -1838348.789522)","attributes":{"description":"","title":"Organic Quinoa","placename":"Bolivia","address":"Bolivia"}},{"local_stop_id":494,"id":494,"geometry":"POINT(-7078656.47219 -1838348.789522)","attributes":{"description":"","title":"Organic FT Quinoa","placename":"Bolivia","address":"Bolivia"}},{"local_stop_id":493,"id":493,"geometry":"POINT(-5780295.728898 -1601191.813438)","attributes":{"description":"","title":"Band-Aid Assorted Clear","placename":"Brazil","address":"Brazil"}},{"local_stop_id":492,"id":492,"geometry":"POINT(-13263956.887563 6281144.230671)","attributes":{"description":"","title":"Sparkling Spring Water","placename":"Bridesville, BC V0H, Canada","address":"Bridesville, BC"}},{"local_stop_id":491,"id":491,"geometry":"POINT(-8387635.514167 4837058.374801)","attributes":{"description":"","title":"Roast Garlic Sauce","placename":"Bridgeport, Logan Township, NJ 08014, USA","address":"Bridgeport, NJ"}},{"local_stop_id":490,"id":490,"geometry":"POINT(-8387635.514167 4837058.374801)","attributes":{"description":"","title":"Organic Stone Ground Mustard","placename":"Bridgeport, Logan Township, NJ 08014, USA","address":"Bridgeport, NJ"}},{"local_stop_id":489,"id":489,"geometry":"POINT(-8233133.211408 4961275.024947)","attributes":{"description":"","title":"Q-Tonic, Four-Pack","placename":"Kings, NY, USA","address":"Brooklyn, NY"}},{"local_stop_id":488,"id":488,"geometry":"POINT(-8233133.211408 4961275.024947)","attributes":{"description":"","title":"Q-Tonic","placename":"Kings, NY, USA","address":"Brooklyn, NY"}},{"local_stop_id":487,"id":487,"geometry":"POINT(-8233133.211408 4961275.024947)","attributes":{"description":"","title":"Q-Tonic, Large","placename":"Kings, NY, USA","address":"Brooklyn, NY"}},{"local_stop_id":486,"id":486,"geometry":"POINT(-11698192.411699 4854402.238159)","attributes":{"description":"","title":"Silk Soy","placename":"Broomfield, CO, USA","address":"Broomfield, Colorado"}},{"local_stop_id":485,"id":485,"geometry":"POINT(-13689380.351636 6317195.243138)","attributes":{"description":"","title":"Almond Butter","placename":"Burnaby, BC, Canada","address":"Burnaby, BC"}},{"local_stop_id":484,"id":484,"geometry":"POINT(-13689380.351636 6317195.243138)","attributes":{"description":"","title":"Tahini","placename":"Burnaby, BC, Canada","address":"Burnaby, BC"}},{"local_stop_id":483,"id":483,"geometry":"POINT(-13689380.351636 6317195.243138)","attributes":{"description":"","title":"Organic Granola","placename":"Burnaby, BC, Canada","address":"Burnaby, BC"}},{"local_stop_id":482,"id":482,"geometry":"POINT(-13689380.351636 6317195.243138)","attributes":{"description":"","title":"Mango Chutney, Organic, Kosher, Vegan","placename":"Burnaby, BC, Canada","address":"Burnaby, BC"}},{"local_stop_id":481,"id":481,"geometry":"POINT(-12696791.896599 6629257.565175)","attributes":{"description":"","title":"Almond Milk, Unsweetened","placename":"Calgary, AB, Canada","address":"Calgary"}},{"local_stop_id":480,"id":480,"geometry":"POINT(-13293543.426354 4408244.133949)","attributes":{"description":"","title":"Natural Sodas","placename":"California, USA","address":"California"}},{"local_stop_id":479,"id":479,"geometry":"POINT(-13293543.426354 4408244.133949)","attributes":{"description":"","title":"Natural Cherry Vanilla Cr\u00e8me","placename":"California, USA","address":"California"}},{"local_stop_id":478,"id":478,"geometry":"POINT(-13293543.426354 4408244.133949)","attributes":{"description":"","title":"Natural Cola","placename":"California, USA","address":"California"}},{"local_stop_id":477,"id":477,"geometry":"POINT(-13293543.426354 4408244.133949)","attributes":{"description":"","title":"Natural Jamaican Ginger Ale","placename":"California, USA","address":"California"}},{"local_stop_id":476,"id":476,"geometry":"POINT(-13293543.426354 4408244.133949)","attributes":{"description":"","title":"Natural Creamy Root Beer","placename":"California, USA","address":"California"}},{"local_stop_id":475,"id":475,"geometry":"POINT(-13293543.426354 4408244.133949)","attributes":{"description":"","title":"Natural Creamy Root Beer \u2013 12s","placename":"California, USA","address":"California"}},{"local_stop_id":474,"id":474,"geometry":"POINT(-13293543.426354 4408244.133949)","attributes":{"description":"","title":"Natural Soda 6-pak","placename":"California, USA","address":"California"}},{"local_stop_id":473,"id":473,"geometry":"POINT(-13293543.426354 4408244.133949)","attributes":{"description":"","title":"Prunes","placename":"California, USA","address":"California"}},{"local_stop_id":472,"id":472,"geometry":"POINT(-11838468.395229 7584411.732747)","attributes":{"description":"","title":"Sumsuma Sesame Squares","placename":"Canada","address":"Canada"}},{"local_stop_id":471,"id":471,"geometry":"POINT(-11838468.395229 7584411.732747)","attributes":{"description":"","title":"Kitchen Catchers","placename":"Canada","address":"Canada"}},{"local_stop_id":470,"id":470,"geometry":"POINT(-11838468.395229 7584411.732747)","attributes":{"description":"","title":"Cascade Facial Tissue","placename":"Canada","address":"Canada ?"}},{"local_stop_id":469,"id":469,"geometry":"POINT(-11838468.395229 7584411.732747)","attributes":{"description":"","title":"Rice Pasta & Cheddar","placename":"Canada","address":"Canada ?"}},{"local_stop_id":468,"id":468,"geometry":"POINT(-11838468.395229 7584411.732747)","attributes":{"description":"","title":"Creamy Deluxe Macaroni","placename":"Canada","address":"Canada ?"}},{"local_stop_id":467,"id":467,"geometry":"POINT(-11838468.395229 7584411.732747)","attributes":{"description":"","title":"Organic WW Shells & Cheddar","placename":"Canada","address":"Canada ?"}},{"local_stop_id":466,"id":466,"geometry":"POINT(-11838468.395229 7584411.732747)","attributes":{"description":"","title":"Country Wild Rice Mix","placename":"Canada","address":"Canada ?"}},{"local_stop_id":465,"id":465,"geometry":"POINT(-11838468.395229 7584411.732747)","attributes":{"description":"","title":"Cocoa Powder","placename":"Canada","address":"Canada ?"}},{"local_stop_id":464,"id":464,"geometry":"POINT(-13707633.408541 6302644.318772)","attributes":{"description":"","title":"waffles","placename":"Richmond, BC, Canada","address":"Canada\/dist by Richmond, BC"}},{"local_stop_id":463,"id":463,"geometry":"POINT(-8183837.901863 5682072.704746)","attributes":{"description":"","title":"Bathroom Tissue \u2013 4 Rolls","placename":"Candiac, QC, Canada","address":"Candiac, QC"}},{"local_stop_id":462,"id":462,"geometry":"POINT(-8183837.901863 5682072.704746)","attributes":{"description":"","title":"Bathroom Tissue \u2013 12 Rolls","placename":"Candiac, QC, Canada","address":"Candiac, QC"}},{"local_stop_id":461,"id":461,"geometry":"POINT(-13167093.846782 4006186.347481)","attributes":{"description":"","title":"Conditioner, Cherry Almond","placename":"Carson, CA, USA","address":"Carson, CA"}},{"local_stop_id":460,"id":460,"geometry":"POINT(-13562885.977101 4826565.911065)","attributes":{"description":"","title":"Knudsen Tomato","placename":"Chico, CA, USA","address":"Chico, CA"}},{"local_stop_id":459,"id":459,"geometry":"POINT(-7964126.878919 -4256013.675159)","attributes":{"description":"","title":"Thompson Raisin","placename":"Chile","address":"Chile"}},{"local_stop_id":458,"id":458,"geometry":"POINT(-13575575.163405 6301703.139631)","attributes":{"description":"","title":"Pure Cranberry Juice","placename":"Chilliwack, BC, Canada","address":"Chilliwack, BC"}},{"local_stop_id":457,"id":457,"geometry":"POINT(-13575575.163405 6301703.139631)","attributes":{"description":"","title":"Harvest Moon Cider","placename":"Chilliwack, BC, Canada","address":"Chilliwack, BC"}},{"local_stop_id":456,"id":456,"geometry":"POINT(-13575575.163405 6301703.139631)","attributes":{"description":"","title":"Triple Jim Apple Cider","placename":"Chilliwack, BC, Canada","address":"Chilliwack, BC"}},{"local_stop_id":455,"id":455,"geometry":"POINT(-13575575.163405 6301703.139631)","attributes":{"description":"","title":"Pancake & Waffle Mix","placename":"Chilliwack, BC, Canada","address":"Chilliwack, BC"}},{"local_stop_id":454,"id":454,"geometry":"POINT(-13575575.163405 6301703.139631)","attributes":{"description":"","title":"7 Grain Cereal","placename":"Chilliwack, BC, Canada","address":"Chilliwack, BC"}},{"local_stop_id":453,"id":453,"geometry":"POINT(-13575575.163405 6301703.139631)","attributes":{"description":"","title":"Oats","placename":"Chilliwack, BC, Canada","address":"Chilliwack, BC"}},{"local_stop_id":452,"id":452,"geometry":"POINT(-13575575.163405 6301703.139631)","attributes":{"description":"","title":"Oats, Quick Rolled","placename":"Chilliwack, BC, Canada","address":"Chilliwack, BC"}},{"local_stop_id":451,"id":451,"geometry":"POINT(11598978.537043 4281602.659627)","attributes":{"description":"","title":"Soy Nuts Dry Roasted Salted","placename":"China","address":"China"}},{"local_stop_id":450,"id":450,"geometry":"POINT(11598978.537043 4281602.659627)","attributes":{"description":"","title":"Tea Towels","placename":"China","address":"China"}},{"local_stop_id":449,"id":449,"geometry":"POINT(11598978.537043 4281602.659627)","attributes":{"description":"","title":"I'm Not A Paper Cup","placename":"China","address":"China"}},{"local_stop_id":448,"id":448,"geometry":"POINT(11598978.537043 4281602.659627)","attributes":{"description":"","title":"Eco Cup","placename":"China","address":"China"}},{"local_stop_id":447,"id":447,"geometry":"POINT(11598978.537043 4281602.659627)","attributes":{"description":"","title":"I am not a plastic lid","placename":"China","address":"China"}},{"local_stop_id":446,"id":446,"geometry":"POINT(11598978.537043 4281602.659627)","attributes":{"description":"","title":"CF 11W Bulb","placename":"China","address":"China"}},{"local_stop_id":445,"id":445,"geometry":"POINT(11598978.537043 4281602.659627)","attributes":{"description":"","title":"CF 13W Bulb","placename":"China","address":"China"}},{"local_stop_id":444,"id":444,"geometry":"POINT(11598978.537043 4281602.659627)","attributes":{"description":"","title":"CF 40W Bulb","placename":"China","address":"China"}},{"local_stop_id":443,"id":443,"geometry":"POINT(11598978.537043 4281602.659627)","attributes":{"description":"","title":"CF 23W 2pk","placename":"China","address":"China"}},{"local_stop_id":442,"id":442,"geometry":"POINT(11598978.537043 4281602.659627)","attributes":{"description":"","title":"CF 13W 2pk","placename":"China","address":"China"}},{"local_stop_id":441,"id":441,"geometry":"POINT(-9230562.238655 5249301.924451)","attributes":{"description":"","title":"Kidney Beans, Organic","placename":"Charter Township of Clinton, MI, USA","address":"Clinton, MI"}},{"local_stop_id":440,"id":440,"geometry":"POINT(-9230562.238655 5249301.924451)","attributes":{"description":"","title":"Black Beans, Organic","placename":"Charter Township of Clinton, MI, USA","address":"Clinton, MI"}},{"local_stop_id":439,"id":439,"geometry":"POINT(-9230562.238655 5249301.924451)","attributes":{"description":"","title":"Rice & Cajun, Organic","placename":"Charter Township of Clinton, MI, USA","address":"Clinton, MI"}},{"local_stop_id":438,"id":438,"geometry":"POINT(-9230562.238655 5249301.924451)","attributes":{"description":"","title":"Refried Pinto Beans","placename":"Charter Township of Clinton, MI, USA","address":"Clinton, MI"}},{"local_stop_id":437,"id":437,"geometry":"POINT(-10075720.173092 3602334.525861)","attributes":{"description":"","title":"Natural Hand Made Soaps","placename":"Commercial Dr, Roseland, LA 70456, USA","address":"Commercial Drive"}},{"local_stop_id":436,"id":436,"geometry":"POINT(-10075720.173092 3602334.525861)","attributes":{"description":"","title":"Snow Dragon","placename":"Commercial Dr, Roseland, LA 70456, USA","address":"Commercial Drive"}},{"local_stop_id":435,"id":435,"geometry":"POINT(-10075720.173092 3602334.525861)","attributes":{"description":"","title":"Forest","placename":"Commercial Dr, Roseland, LA 70456, USA","address":"Commercial Drive"}},{"local_stop_id":434,"id":434,"geometry":"POINT(-10075720.173092 3602334.525861)","attributes":{"description":"","title":"Six Citrus","placename":"Commercial Dr, Roseland, LA 70456, USA","address":"Commercial Drive"}},{"local_stop_id":433,"id":433,"geometry":"POINT(-10075720.173092 3602334.525861)","attributes":{"description":"","title":"Kitchen Soap","placename":"Commercial Dr, Roseland, LA 70456, USA","address":"Commercial Drive"}},{"local_stop_id":432,"id":432,"geometry":"POINT(-10075720.173092 3602334.525861)","attributes":{"description":"","title":"Lavender","placename":"Commercial Dr, Roseland, LA 70456, USA","address":"Commercial Drive"}},{"local_stop_id":431,"id":431,"geometry":"POINT(-10075720.173092 3602334.525861)","attributes":{"description":"","title":"Surrender","placename":"Commercial Dr, Roseland, LA 70456, USA","address":"Commercial Drive"}},{"local_stop_id":430,"id":430,"geometry":"POINT(-10075720.173092 3602334.525861)","attributes":{"description":"","title":"Patchouli Lime","placename":"Commercial Dr, Roseland, LA 70456, USA","address":"Commercial Drive"}},{"local_stop_id":429,"id":429,"geometry":"POINT(-10075720.173092 3602334.525861)","attributes":{"description":"","title":"Faery Meadow","placename":"Commercial Dr, Roseland, LA 70456, USA","address":"Commercial Drive"}},{"local_stop_id":428,"id":428,"geometry":"POINT(-8846428.798981 5435602.874274)","attributes":{"description":"","title":"Sunflower Oil","placename":"Concord, Vaughan, ON, Canada","address":"Concord, Ontario"}},{"local_stop_id":427,"id":427,"geometry":"POINT(-13909251.017862 6466515.634203)","attributes":{"description":"","title":"Tealights","placename":"Cortes Island, British Columbia, Canada","address":"Cortes Island, BC"}},{"local_stop_id":426,"id":426,"geometry":"POINT(-13909251.017862 6466515.634203)","attributes":{"description":"","title":"Small Frog","placename":"Cortes Island, British Columbia, Canada","address":"Cortes Island, BC"}},{"local_stop_id":425,"id":425,"geometry":"POINT(-13909251.017862 6466515.634203)","attributes":{"description":"","title":"Small Bear","placename":"Cortes Island, British Columbia, Canada","address":"Cortes Island, BC"}},{"local_stop_id":424,"id":424,"geometry":"POINT(-13909251.017862 6466515.634203)","attributes":{"description":"","title":"Boat","placename":"Cortes Island, British Columbia, Canada","address":"Cortes Island, BC"}},{"local_stop_id":423,"id":423,"geometry":"POINT(-13909251.017862 6466515.634203)","attributes":{"description":"","title":"Lighthouse","placename":"Cortes Island, British Columbia, Canada","address":"Cortes Island, BC"}},{"local_stop_id":422,"id":422,"geometry":"POINT(-13682560.585671 6300122.782647)","attributes":{"description":"","title":"Biodegradable Poo Bags","placename":"Delta, BC, Canada","address":"Delta, BC"}},{"local_stop_id":421,"id":421,"geometry":"POINT(-13682560.585671 6300122.782647)","attributes":{"description":"","title":"Imagine Broth","placename":"Delta, BC, Canada","address":"Delta, BC"}},{"local_stop_id":420,"id":420,"geometry":"POINT(-13682560.585671 6300122.782647)","attributes":{"description":"","title":"Imagine Soup","placename":"Delta, BC, Canada","address":"Delta, BC"}},{"local_stop_id":419,"id":419,"geometry":"POINT(-13682560.585671 6300122.782647)","attributes":{"description":"","title":"Creamy Butternut Squash Soup","placename":"Delta, BC, Canada","address":"Delta, BC"}},{"local_stop_id":418,"id":418,"geometry":"POINT(-13682560.585671 6300122.782647)","attributes":{"description":"","title":"OLYM Org Blueberry 12\/175g*","placename":"Delta, BC, Canada","address":"Delta, BC"}},{"local_stop_id":417,"id":417,"geometry":"POINT(-13682560.585671 6300122.782647)","attributes":{"description":"","title":"OLYM Org Peach 12\/175g*","placename":"Delta, BC, Canada","address":"Delta, BC"}},{"local_stop_id":416,"id":416,"geometry":"POINT(-13682560.585671 6300122.782647)","attributes":{"description":"","title":"OLYM Org Raspberry 12\/175g*","placename":"Delta, BC, Canada","address":"Delta, BC"}},{"local_stop_id":415,"id":415,"geometry":"POINT(-13682560.585671 6300122.782647)","attributes":{"description":"","title":"OLYM Org Strawberry 12\/175g*","placename":"Delta, BC, Canada","address":"Delta, BC"}},{"local_stop_id":414,"id":414,"geometry":"POINT(-13682560.585671 6300122.782647)","attributes":{"description":"","title":"Krema Plain Yogurt","placename":"Delta, BC, Canada","address":"Delta, BC"}},{"local_stop_id":413,"id":413,"geometry":"POINT(-10669452.807312 5912284.212442)","attributes":{"description":"","title":"Swheat Scoop","placename":"Detroit Lakes, MN, USA","address":"Detroit Lakes, MN"}},{"local_stop_id":412,"id":412,"geometry":"POINT(-437145.450981 585961.066704)","attributes":{"description":"","title":"Diapers Size 2","placename":"Port Bouet Airport (ABJ), Abidjan, C\u00f4te d'Ivoire","address":"diap"}},{"local_stop_id":411,"id":411,"geometry":"POINT(-437145.450981 585961.066704)","attributes":{"description":"","title":"Diapers Size 3","placename":"Port Bouet Airport (ABJ), Abidjan, C\u00f4te d'Ivoire","address":"diap"}},{"local_stop_id":410,"id":410,"geometry":"POINT(-437145.450981 585961.066704)","attributes":{"description":"","title":"Diapers Size 4","placename":"Port Bouet Airport (ABJ), Abidjan, C\u00f4te d'Ivoire","address":"diap"}},{"local_stop_id":409,"id":409,"geometry":"POINT(-8832438.833295 5424731.979732)","attributes":{"description":"","title":"Assorted Creme Biscuits","placename":"Don Mills, Toronto, ON M3C, Canada","address":"Don Mills, ON"}},{"local_stop_id":408,"id":408,"geometry":"POINT(-8832438.833295 5424731.979732)","attributes":{"description":"","title":"Ritz","placename":"Don Mills, Toronto, ON M3C, Canada","address":"Don Mills, ON"}},{"local_stop_id":407,"id":407,"geometry":"POINT(-8832438.833295 5424731.979732)","attributes":{"description":"","title":"Organic Baking Powder","placename":"Don Mills, Toronto, ON M3C, Canada","address":"Don Mills, ON"}},{"local_stop_id":406,"id":406,"geometry":"POINT(-12634762.205037 7082265.967931)","attributes":{"description":"","title":"Rice Spaghetti","placename":"Edmonton, AB, Canada","address":"Edmonton, AB"}},{"local_stop_id":405,"id":405,"geometry":"POINT(-12634762.205037 7082265.967931)","attributes":{"description":"","title":"Penne Rigate, Organic","placename":"Edmonton, AB, Canada","address":"Edmonton, AB"}},{"local_stop_id":404,"id":404,"geometry":"POINT(-13612731.460966 4555623.750697)","attributes":{"description":"","title":"Pomegranate, Organic Dressing","placename":"Emeryville, CA, USA","address":"Emryville, CA"}},{"local_stop_id":403,"id":403,"geometry":"POINT(-13612731.460966 4555623.750697)","attributes":{"description":"","title":"Herbes de Provence, Organic","placename":"Emeryville, CA, USA","address":"Emryville, CA"}},{"local_stop_id":402,"id":402,"geometry":"POINT(-8840212.273337 5429500.732728)","attributes":{"description":"","title":"Worcesteshire Sauce","placename":"North York, Toronto, ON, Canada","address":"England\/prep for North York, ON"}},{"local_stop_id":401,"id":401,"geometry":"POINT(-13034000.764527 3911137.38262)","attributes":{"description":"","title":"Lavender Liquid Soap, Organic","placename":"Escondido, CA, USA","address":"Escondido, CA, USA"}},{"local_stop_id":400,"id":400,"geometry":"POINT(-13034000.764527 3911137.38262)","attributes":{"description":"","title":"Baby Mild Liquid Soap, Organic","placename":"Escondido, CA, USA","address":"Escondido, CA, USA"}},{"local_stop_id":399,"id":399,"geometry":"POINT(-13034000.764527 3911137.38262)","attributes":{"description":"","title":"Peppermint Liquid Soap, Organic","placename":"Escondido, CA, USA","address":"Escondido, CA, USA"}},{"local_stop_id":398,"id":398,"geometry":"POINT(-13034000.764527 3911137.38262)","attributes":{"description":"","title":"Tea Tree Oil Liquid Soap, Organic","placename":"Escondido, CA, USA","address":"Escondido, CA, USA"}},{"local_stop_id":397,"id":397,"geometry":"POINT(2866271.058188 8841170.394214)","attributes":{"description":"","title":"Panda Licorice \u2013 box","placename":"Finland","address":"Finland"}},{"local_stop_id":396,"id":396,"geometry":"POINT(2866271.058188 8841170.394214)","attributes":{"description":"","title":"Panda Licorice \u2013 bar","placename":"Finland","address":"Finland"}},{"local_stop_id":395,"id":395,"geometry":"POINT(-13170093.450649 4013819.819125)","attributes":{"description":"","title":"Soap","placename":"Gardena, CA, USA","address":"Gardena, CA"}},{"local_stop_id":394,"id":394,"geometry":"POINT(1163458.552333 6650655.041174)","attributes":{"description":"","title":"Apollinaris Mineral Water","placename":"Germany","address":"Germany"}},{"local_stop_id":393,"id":393,"geometry":"POINT(1163458.552333 6650655.041174)","attributes":{"description":"","title":"Organic Regular Tampons","placename":"Germany","address":"Germany"}},{"local_stop_id":392,"id":392,"geometry":"POINT(1163458.552333 6650655.041174)","attributes":{"description":"","title":"Organic Tampons w\/Applicator","placename":"Germany","address":"Germany"}},{"local_stop_id":391,"id":391,"geometry":"POINT(-382490.764739 7435586.530983)","attributes":{"description":"","title":"Carrs Crackers","placename":"United Kingdom","address":"Great Britain"}},{"local_stop_id":390,"id":390,"geometry":"POINT(-382490.764739 7435586.530983)","attributes":{"description":"","title":"Orzo, Organic","placename":"United Kingdom","address":"Great Britain"}},{"local_stop_id":389,"id":389,"geometry":"POINT(-382490.764739 7435586.530983)","attributes":{"description":"","title":"Citrus Mints","placename":"United Kingdom","address":"Great Britain"}},{"local_stop_id":388,"id":388,"geometry":"POINT(-382490.764739 7435586.530983)","attributes":{"description":"","title":"Peppermint","placename":"United Kingdom","address":"Great Britain"}},{"local_stop_id":387,"id":387,"geometry":"POINT(2429471.298754 4732306.812978)","attributes":{"description":"","title":"Krinos balsamic","placename":"Greece","address":"Greece"}},{"local_stop_id":386,"id":386,"geometry":"POINT(7925099.545621 2542607.955573)","attributes":{"description":"","title":"Tadka Dal (Mixed Lentils)","placename":"Gujarat, India","address":"Gujarat, India"}},{"local_stop_id":385,"id":385,"geometry":"POINT(7925099.545621 2542607.955573)","attributes":{"description":"","title":"Pav Bhaji (Mashed Vegetables)","placename":"Gujarat, India","address":"Gujarat, India"}},{"local_stop_id":384,"id":384,"geometry":"POINT(7925099.545621 2542607.955573)","attributes":{"description":"","title":"Palak Paneer","placename":"Gujarat, India","address":"Gujarat, India"}},{"local_stop_id":383,"id":383,"geometry":"POINT(-8898137.960365 5410155.704093)","attributes":{"description":"","title":"TOTAL ISLAND FARMS","placename":"Halton Hills, ON, Canada","address":"halton Hills, ON"}},{"local_stop_id":382,"id":382,"geometry":"POINT(-8148877.692953 4986659.521888)","attributes":{"description":"","title":"Treats, Peanut Butter","placename":"Hauppauge, NY, USA","address":"Hauppauge, NY"}},{"local_stop_id":381,"id":381,"geometry":"POINT(-13527707.30369 5733263.853516)","attributes":{"description":"","title":"Breakfast Links","placename":"Hood River, OR 97031, USA","address":"Hood River, OR"}},{"local_stop_id":380,"id":380,"geometry":"POINT(-13527707.30369 5733263.853516)","attributes":{"description":"","title":"Franks","placename":"Hood River, OR 97031, USA","address":"Hood River, OR"}},{"local_stop_id":379,"id":379,"geometry":"POINT(8790107.59317 2343495.165705)","attributes":{"description":"","title":"Sandal Soap","placename":"India","address":"India"}},{"local_stop_id":378,"id":378,"geometry":"POINT(1398994.342206 5141815.937641)","attributes":{"description":"","title":"Aurora Sauce","placename":"Italy","address":"Italy"}},{"local_stop_id":377,"id":377,"geometry":"POINT(1398994.342206 5141815.937641)","attributes":{"description":"","title":"Berni Risotto","placename":"Italy","address":"Italy"}},{"local_stop_id":376,"id":376,"geometry":"POINT(1398994.342206 5141815.937641)","attributes":{"description":"","title":"Italissima Pesto","placename":"Italy","address":"Italy"}},{"local_stop_id":375,"id":375,"geometry":"POINT(1398994.342206 5141815.937641)","attributes":{"description":"","title":"Italissma Sundried Tomato Pesto","placename":"Italy","address":"Italy"}},{"local_stop_id":374,"id":374,"geometry":"POINT(1398994.342206 5141815.937641)","attributes":{"description":"","title":"Chinotto","placename":"Italy","address":"Italy"}},{"local_stop_id":373,"id":373,"geometry":"POINT(1398994.342206 5141815.937641)","attributes":{"description":"","title":"Limonata","placename":"Italy","address":"Italy"}},{"local_stop_id":372,"id":372,"geometry":"POINT(1398994.342206 5141815.937641)","attributes":{"description":"","title":"New Grapefruit if Available","placename":"Italy","address":"Italy"}},{"local_stop_id":371,"id":371,"geometry":"POINT(1398994.342206 5141815.937641)","attributes":{"description":"","title":"Mineral Water Small","placename":"Italy","address":"Italy"}},{"local_stop_id":370,"id":370,"geometry":"POINT(1398994.342206 5141815.937641)","attributes":{"description":"","title":"Mineral Water Large","placename":"Italy","address":"Italy"}},{"local_stop_id":369,"id":369,"geometry":"POINT(1398994.342206 5141815.937641)","attributes":{"description":"","title":"Chinotto 6-pak","placename":"Italy","address":"Italy"}},{"local_stop_id":368,"id":368,"geometry":"POINT(1398994.342206 5141815.937641)","attributes":{"description":"","title":"Limonata 6-pak","placename":"Italy","address":"Italy"}},{"local_stop_id":367,"id":367,"geometry":"POINT(1398994.342206 5141815.937641)","attributes":{"description":"","title":"Aranciata 6-pak","placename":"Italy","address":"Italy"}},{"local_stop_id":366,"id":366,"geometry":"POINT(0 -0)","attributes":{"description":"","title":"Organic Alphabet","address":"Italy \u2013 imp by Mexico"}},{"local_stop_id":365,"id":365,"geometry":"POINT(-9862608.882007 5333899.431581)","attributes":{"description":"","title":"Sesame Bar w\/Date&Fennel","placename":"Ixonia, WI, USA","address":"Ixonia, WI"}},{"local_stop_id":364,"id":364,"geometry":"POINT(-9862608.882007 5333899.431581)","attributes":{"description":"","title":"Flax Bar","placename":"Ixonia, WI, USA","address":"Ixonia, WI"}},{"local_stop_id":363,"id":363,"geometry":"POINT(-9862608.882007 5333899.431581)","attributes":{"description":"","title":"Sesame, Date and Fennel Bar","placename":"Ixonia, WI, USA","address":"Ixonia, WI"}},{"local_stop_id":362,"id":362,"geometry":"POINT(93984.841951 6667440.010302)","attributes":{"description":"","title":"E-Cloth, Glass\/Polishing","placename":"Kent, UK","address":"Kent, UK"}},{"local_stop_id":361,"id":361,"geometry":"POINT(835159.8189 6010751.870604)","attributes":{"description":"","title":"Ricola Sticks","placename":"Laufen, Switzerland","address":"Laufen, Switzerland"}},{"local_stop_id":360,"id":360,"geometry":"POINT(-13732990.830821 6178458.981031)","attributes":{"description":"","title":"Sour Cream","placename":"Victoria, BC, Canada","address":"Longueil, QC\/Markham, ON\/Victoria, BC"}},{"local_stop_id":359,"id":359,"geometry":"POINT(-13732990.830821 6178458.981031)","attributes":{"description":"","title":"Cream Cheese Victoria Style","placename":"Victoria, BC, Canada","address":"Longueil, QC\/Markham, ON\/Victoria, BC"}},{"local_stop_id":358,"id":358,"geometry":"POINT(-13732990.830821 6178458.981031)","attributes":{"description":"","title":"1L Half & Half","placename":"Victoria, BC, Canada","address":"Longueil, QC\/Markham, ON\/Victoria, BC"}},{"local_stop_id":357,"id":357,"geometry":"POINT(-13732990.830821 6178458.981031)","attributes":{"description":"","title":"\u00bdL Half & Half","placename":"Victoria, BC, Canada","address":"Longueil, QC\/Markham, ON\/Victoria, BC"}},{"local_stop_id":356,"id":356,"geometry":"POINT(-13732990.830821 6178458.981031)","attributes":{"description":"","title":"Whipping Cream","placename":"Victoria, BC, Canada","address":"Longueil, QC\/Markham, ON\/Victoria, BC"}},{"local_stop_id":355,"id":355,"geometry":"POINT(-13732990.830821 6178458.981031)","attributes":{"description":"","title":"36% foodservice whip","placename":"Victoria, BC, Canada","address":"Longueil, QC\/Markham, ON\/Victoria, BC"}},{"local_stop_id":354,"id":354,"geometry":"POINT(-13732990.830821 6178458.981031)","attributes":{"description":"","title":"Unsalted Butter","placename":"Victoria, BC, Canada","address":"Longueil, QC\/Markham, ON\/Victoria, BC"}},{"local_stop_id":353,"id":353,"geometry":"POINT(-13732990.830821 6178458.981031)","attributes":{"description":"","title":"Butter","placename":"Victoria, BC, Canada","address":"Longueil, QC\/Markham, ON\/Victoria, BC"}},{"local_stop_id":352,"id":352,"geometry":"POINT(-13732990.830821 6178458.981031)","attributes":{"description":"","title":"500mL Homo Milk","placename":"Victoria, BC, Canada","address":"Longueil, QC\/Markham, ON\/Victoria, BC"}},{"local_stop_id":351,"id":351,"geometry":"POINT(-13732990.830821 6178458.981031)","attributes":{"description":"","title":"1L Skim Milk","placename":"Victoria, BC, Canada","address":"Longueil, QC\/Markham, ON\/Victoria, BC"}},{"local_stop_id":350,"id":350,"geometry":"POINT(-13732990.830821 6178458.981031)","attributes":{"description":"","title":"1L 1% Milk","placename":"Victoria, BC, Canada","address":"Longueil, QC\/Markham, ON\/Victoria, BC"}},{"local_stop_id":349,"id":349,"geometry":"POINT(-13732990.830821 6178458.981031)","attributes":{"description":"","title":"1L 2% Milk","placename":"Victoria, BC, Canada","address":"Longueil, QC\/Markham, ON\/Victoria, BC"}},{"local_stop_id":348,"id":348,"geometry":"POINT(-13732990.830821 6178458.981031)","attributes":{"description":"","title":"1L Homo Milk","placename":"Victoria, BC, Canada","address":"Longueil, QC\/Markham, ON\/Victoria, BC"}},{"local_stop_id":347,"id":347,"geometry":"POINT(-13732990.830821 6178458.981031)","attributes":{"description":"","title":"Buttermilk","placename":"Victoria, BC, Canada","address":"Longueil, QC\/Markham, ON\/Victoria, BC"}},{"local_stop_id":346,"id":346,"geometry":"POINT(-13732990.830821 6178458.981031)","attributes":{"description":"","title":"2L Skim Milk","placename":"Victoria, BC, Canada","address":"Longueil, QC\/Markham, ON\/Victoria, BC"}},{"local_stop_id":345,"id":345,"geometry":"POINT(-13732990.830821 6178458.981031)","attributes":{"description":"","title":"2L 1% Milk","placename":"Victoria, BC, Canada","address":"Longueil, QC\/Markham, ON\/Victoria, BC"}},{"local_stop_id":344,"id":344,"geometry":"POINT(-13732990.830821 6178458.981031)","attributes":{"description":"","title":"2L 2% Milk","placename":"Victoria, BC, Canada","address":"Longueil, QC\/Markham, ON\/Victoria, BC"}},{"local_stop_id":343,"id":343,"geometry":"POINT(-13732990.830821 6178458.981031)","attributes":{"description":"","title":"2L homo Milk","placename":"Victoria, BC, Canada","address":"Longueil, QC\/Markham, ON\/Victoria, BC"}},{"local_stop_id":342,"id":342,"geometry":"POINT(-13732990.830821 6178458.981031)","attributes":{"description":"","title":"4L homo Milk","placename":"Victoria, BC, Canada","address":"Longueil, QC\/Markham, ON\/Victoria, BC"}},{"local_stop_id":341,"id":341,"geometry":"POINT(-13732990.830821 6178458.981031)","attributes":{"description":"","title":"4L 2% Milk","placename":"Victoria, BC, Canada","address":"Longueil, QC\/Markham, ON\/Victoria, BC"}},{"local_stop_id":340,"id":340,"geometry":"POINT(-13732990.830821 6178458.981031)","attributes":{"description":"","title":"Buttercups","placename":"Victoria, BC, Canada","address":"Longueil, QC\/Markham, ON\/Victoria, BC"}},{"local_stop_id":339,"id":339,"geometry":"POINT(-13732990.830821 6178458.981031)","attributes":{"description":"","title":"Whipped Buttercups","placename":"Victoria, BC, Canada","address":"Longueil, QC\/Markham, ON\/Victoria, BC"}},{"local_stop_id":338,"id":338,"geometry":"POINT(-13732990.830821 6178458.981031)","attributes":{"description":"","title":"Egg Nog","placename":"Victoria, BC, Canada","address":"Longueil, QC\/Markham, ON\/Victoria, BC"}},{"local_stop_id":337,"id":337,"geometry":"POINT(-13732990.830821 6178458.981031)","attributes":{"description":"","title":"2% yogurt plain","placename":"Victoria, BC, Canada","address":"Longueil, QC\/Markham, ON\/Victoria, BC"}},{"local_stop_id":336,"id":336,"geometry":"POINT(-13732990.830821 6178458.981031)","attributes":{"description":"","title":"2% yogurt strawberry","placename":"Victoria, BC, Canada","address":"Longueil, QC\/Markham, ON\/Victoria, BC"}},{"local_stop_id":335,"id":335,"geometry":"POINT(-13732990.830821 6178458.981031)","attributes":{"description":"","title":"2% yogurt lemon meringue","placename":"Victoria, BC, Canada","address":"Longueil, QC\/Markham, ON\/Victoria, BC"}},{"local_stop_id":334,"id":334,"geometry":"POINT(-13732990.830821 6178458.981031)","attributes":{"description":"","title":"2% yogurt French Vanilla","placename":"Victoria, BC, Canada","address":"Longueil, QC\/Markham, ON\/Victoria, BC"}},{"local_stop_id":333,"id":333,"geometry":"POINT(-13732990.830821 6178458.981031)","attributes":{"description":"","title":"banana Split","placename":"Victoria, BC, Canada","address":"Longueil, QC\/Markham, ON\/Victoria, BC"}},{"local_stop_id":332,"id":332,"geometry":"POINT(-13732990.830821 6178458.981031)","attributes":{"description":"","title":"500ML REG SOUR CREAM","placename":"Victoria, BC, Canada","address":"Longueil, QC\/Markham, ON\/Victoria, BC"}},{"local_stop_id":331,"id":331,"geometry":"POINT(-13732990.830821 6178458.981031)","attributes":{"description":"","title":"250ML REG SOUR CREAM","placename":"Victoria, BC, Canada","address":"Longueil, QC\/Markham, ON\/Victoria, BC"}},{"local_stop_id":330,"id":330,"geometry":"POINT(-13162826.792588 4035817.961317)","attributes":{"description":"","title":"Non-Chlorine Bleach","placename":"Los Angeles, CA, USA","address":"Los Angeles, CA"}},{"local_stop_id":329,"id":329,"geometry":"POINT(-13162826.792588 4035817.961317)","attributes":{"description":"","title":"All Purpose Cleaner Concentrate","placename":"Los Angeles, CA, USA","address":"Los Angeles, CA"}},{"local_stop_id":328,"id":328,"geometry":"POINT(-13162826.792588 4035817.961317)","attributes":{"description":"","title":"Toilet Cleaner","placename":"Los Angeles, CA, USA","address":"Los Angeles, CA"}},{"local_stop_id":327,"id":327,"geometry":"POINT(-9227013.885358 5192406.608371)","attributes":{"description":"","title":"Tomato Juice, Organic","placename":"Maidstone, ON N0R, Canada","address":"Maidstone Ontario"}},{"local_stop_id":326,"id":326,"geometry":"POINT(11351890.344374 469131.367658)","attributes":{"description":"","title":"nn latex glove","placename":"Malaysia","address":"Malaysia"}},{"local_stop_id":325,"id":325,"geometry":"POINT(-8822069.645367 5447405.457826)","attributes":{"description":"","title":"Condensed Milk","placename":"Markham, ON, Canada","address":"Markham, ON"}},{"local_stop_id":324,"id":324,"geometry":"POINT(-13506411.328504 5474972.722079)","attributes":{"description":"","title":"GF Baking Flour","placename":"NW Milwaukee Ave, Bend, OR 97701, USA","address":"Milwaukee, OR"}},{"local_stop_id":323,"id":323,"geometry":"POINT(-13506411.328504 5474972.722079)","attributes":{"description":"","title":"8 Grain Cereal","placename":"NW Milwaukee Ave, Bend, OR 97701, USA","address":"Milwaukee, OR"}},{"local_stop_id":322,"id":322,"geometry":"POINT(-13506411.328504 5474972.722079)","attributes":{"description":"","title":"6 Grain Cereal","placename":"NW Milwaukee Ave, Bend, OR 97701, USA","address":"Milwaukee, OR"}},{"local_stop_id":321,"id":321,"geometry":"POINT(-13506411.328504 5474972.722079)","attributes":{"description":"","title":"Pancake & Waffle Mix","placename":"NW Milwaukee Ave, Bend, OR 97701, USA","address":"Milwaukee, OR"}},{"local_stop_id":320,"id":320,"geometry":"POINT(-8865942.860814 5402064.676091)","attributes":{"description":"","title":"Reese's Pieces","placename":"Mississauga, ON, Canada","address":"Mississauga, ON"}},{"local_stop_id":319,"id":319,"geometry":"POINT(-8865942.860814 5402064.676091)","attributes":{"description":"","title":"Advil","placename":"Mississauga, ON, Canada","address":"Mississauga, ON"}},{"local_stop_id":318,"id":318,"geometry":"POINT(-8865942.860814 5402064.676091)","attributes":{"description":"","title":"Tylenol Extra Strength","placename":"Mississauga, ON, Canada","address":"Mississauga, ON"}},{"local_stop_id":317,"id":317,"geometry":"POINT(-12696791.896599 6629257.565175)","attributes":{"description":"","title":"Epsom Salts","placename":"Calgary, AB, Canada","address":"Montreal\/Toronto\/Calgary"}},{"local_stop_id":316,"id":316,"geometry":"POINT(-12696791.896599 6629257.565175)","attributes":{"description":"","title":"milk in caf\u00e9 fridge","placename":"Calgary, AB, Canada","address":"Montreal\/Toronto\/Calgary"}},{"local_stop_id":315,"id":315,"geometry":"POINT(-8242667.336176 4988948.474756)","attributes":{"description":"","title":"Club Soda (lemon or orange)","placename":"Moonachie, NJ, USA","address":"Moonachie, NJ"}},{"local_stop_id":314,"id":314,"geometry":"POINT(-8242667.336176 4988948.474756)","attributes":{"description":"","title":"boylan tonic","placename":"Moonachie, NJ, USA","address":"Moonachie, NJ"}},{"local_stop_id":313,"id":313,"geometry":"POINT(-8242667.336176 4988948.474756)","attributes":{"description":"","title":"Boylan's Sodas","placename":"Moonachie, NJ, USA","address":"Moonachie, NJ"}},{"local_stop_id":312,"id":312,"geometry":"POINT(-8242667.336176 4988948.474756)","attributes":{"description":"","title":"Boylan Tonic 24","placename":"Moonachie, NJ, USA","address":"Moonachie, NJ"}},{"local_stop_id":311,"id":311,"geometry":"POINT(-8242667.336176 4988948.474756)","attributes":{"description":"","title":"Natural Cane Cola","placename":"Moonachie, NJ, USA","address":"Moonachie, NJ"}},{"local_stop_id":310,"id":310,"geometry":"POINT(-8242667.336176 4988948.474756)","attributes":{"description":"","title":"Natural Creme Vanilla Soda","placename":"Moonachie, NJ, USA","address":"Moonachie, NJ"}},{"local_stop_id":309,"id":309,"geometry":"POINT(-8242667.336176 4988948.474756)","attributes":{"description":"","title":"Natural Black Cherry","placename":"Moonachie, NJ, USA","address":"Moonachie, NJ"}},{"local_stop_id":308,"id":308,"geometry":"POINT(-8242667.336176 4988948.474756)","attributes":{"description":"","title":"Natural Root Beer","placename":"Moonachie, NJ, USA","address":"Moonachie, NJ"}},{"local_stop_id":307,"id":307,"geometry":"POINT(-8242667.336176 4988948.474756)","attributes":{"description":"","title":"Boylan's Orange","placename":"Moonachie, NJ, USA","address":"Moonachie, NJ"}},{"local_stop_id":306,"id":306,"geometry":"POINT(-8242667.336176 4988948.474756)","attributes":{"description":"","title":"Boylan's 4-Pak","placename":"Moonachie, NJ, USA","address":"Moonachie, NJ"}},{"local_stop_id":305,"id":305,"geometry":"POINT(-8242667.336176 4988948.474756)","attributes":{"description":"","title":"Birch Beer","placename":"Moonachie, NJ, USA","address":"Moonachie, NJ"}},{"local_stop_id":304,"id":304,"geometry":"POINT(-13623515.948518 6293763.568237)","attributes":{"description":"","title":"organic medium egg","placename":"Mt Lehman, BC V4X, Canada","address":"Mt. Lehman, BC"}},{"local_stop_id":303,"id":303,"geometry":"POINT(-13623515.948518 6293763.568237)","attributes":{"description":"","title":"free range large egg","placename":"Mt Lehman, BC V4X, Canada","address":"Mt. Lehman, BC"}},{"local_stop_id":302,"id":302,"geometry":"POINT(-13623515.948518 6293763.568237)","attributes":{"description":"","title":"organic medium egg, half dozen","placename":"Mt Lehman, BC V4X, Canada","address":"Mt. Lehman, BC"}},{"local_stop_id":301,"id":301,"geometry":"POINT(-13623515.948518 6293763.568237)","attributes":{"description":"","title":"free range large egg, half dozen","placename":"Mt Lehman, BC V4X, Canada","address":"Mt. Lehman, BC"}},{"local_stop_id":300,"id":300,"geometry":"POINT(-13623515.948518 6293763.568237)","attributes":{"description":"","title":"Free Range Medium Egg","placename":"Mt Lehman, BC V4X, Canada","address":"Mt. Lehman, BC"}},{"local_stop_id":299,"id":299,"geometry":"POINT(-13623515.948518 6293763.568237)","attributes":{"description":"","title":"Organic Large Eggs","placename":"Mt Lehman, BC V4X, Canada","address":"Mt. Lehman, BC"}},{"local_stop_id":298,"id":298,"geometry":"POINT(-13623515.948518 6293763.568237)","attributes":{"description":"","title":"Organic Walnuts","placename":"Mt Lehman, BC V4X, Canada","address":"Mt. Lehman, BC"}},{"local_stop_id":297,"id":297,"geometry":"POINT(589021.036772 6824142.821624)","attributes":{"description":"","title":"Carra Cheese Melt","placename":"The Netherlands","address":"Netherlands"}},{"local_stop_id":296,"id":296,"geometry":"POINT(-8984719.199018 5369908.860068)","attributes":{"description":"","title":"Kitty Litter","placename":"New Hamburg, ON, Canada","address":"New Hamburg, Ontario"}},{"local_stop_id":295,"id":295,"geometry":"POINT(-8984719.199018 5369908.860068)","attributes":{"description":"","title":"Kitty Litter with Baking Soda","placename":"New Hamburg, ON, Canada","address":"New Hamburg, Ontario"}},{"local_stop_id":294,"id":294,"geometry":"POINT(-8840212.273337 5429500.732728)","attributes":{"description":"","title":"Tomato Juice","placename":"North York, Toronto, ON, Canada","address":"North York, ON"}},{"local_stop_id":293,"id":293,"geometry":"POINT(-8840212.273337 5429500.732728)","attributes":{"description":"","title":"Coffee Crisp","placename":"North York, Toronto, ON, Canada","address":"North York, ON"}},{"local_stop_id":292,"id":292,"geometry":"POINT(-8840212.273337 5429500.732728)","attributes":{"description":"","title":"Smarties","placename":"North York, Toronto, ON, Canada","address":"North York, ON"}},{"local_stop_id":291,"id":291,"geometry":"POINT(-8840212.273337 5429500.732728)","attributes":{"description":"","title":"Kinder Surprise","placename":"North York, Toronto, ON, Canada","address":"North York, ON"}},{"local_stop_id":290,"id":290,"geometry":"POINT(-8840212.273337 5429500.732728)","attributes":{"description":"","title":"Organic Ketchup","placename":"North York, Toronto, ON, Canada","address":"North York, ON"}},{"local_stop_id":289,"id":289,"geometry":"POINT(-8840212.273337 5429500.732728)","attributes":{"description":"","title":"Ketchup, Organic (no sugar)","placename":"North York, Toronto, ON, Canada","address":"North York, ON"}},{"local_stop_id":288,"id":288,"geometry":"POINT(-8840212.273337 5429500.732728)","attributes":{"description":"","title":"Ketchup, Organic","placename":"North York, Toronto, ON, Canada","address":"North York, ON"}},{"local_stop_id":287,"id":287,"geometry":"POINT(-8840212.273337 5429500.732728)","attributes":{"description":"","title":"Chili Sauce","placename":"North York, Toronto, ON, Canada","address":"North York, ON"}},{"local_stop_id":286,"id":286,"geometry":"POINT(-8870308.087667 5380719.203307)","attributes":{"description":"","title":"Glass Cleaner","placename":"Oakville, ON, Canada","address":"Oakville, ON"}},{"local_stop_id":285,"id":285,"geometry":"POINT(-8870308.087667 5380719.203307)","attributes":{"description":"","title":"Hypoallergenic Ultra Dish Wash","placename":"Oakville, ON, Canada","address":"Oakville, ON"}},{"local_stop_id":284,"id":284,"geometry":"POINT(-8870308.087667 5380719.203307)","attributes":{"description":"","title":"Lavender Aloe Dish Wash","placename":"Oakville, ON, Canada","address":"Oakville, ON"}},{"local_stop_id":283,"id":283,"geometry":"POINT(-8870308.087667 5380719.203307)","attributes":{"description":"","title":"Hypoallergenic Laundry Wash","placename":"Oakville, ON, Canada","address":"Oakville, ON"}},{"local_stop_id":282,"id":282,"geometry":"POINT(-8870308.087667 5380719.203307)","attributes":{"description":"","title":"Lavender Laundry Wash","placename":"Oakville, ON, Canada","address":"Oakville, ON"}},{"local_stop_id":281,"id":281,"geometry":"POINT(3655714.043894 4854170.569325)","attributes":{"description":"","title":"Creme Brule","placename":"Y\u00fccetepe Mh., Site, 06650 Ankara\/Ankara Province, Turkey","address":"on site"}},{"local_stop_id":280,"id":280,"geometry":"POINT(-8916057.949354 5453067.05768)","attributes":{"description":"","title":"Cream Cheese, Natural (18% BF)","placename":"Orangeville, ON, Canada","address":"Orangeville, ON"}},{"local_stop_id":279,"id":279,"geometry":"POINT(-8916057.949354 5453067.05768)","attributes":{"description":"","title":"Cream Cheese, Garlic","placename":"Orangeville, ON, Canada","address":"Orangeville, ON"}},{"local_stop_id":278,"id":278,"geometry":"POINT(-8916057.949354 5453067.05768)","attributes":{"description":"","title":"Cream Cheese, Fine Herb (18% BF)","placename":"Orangeville, ON, Canada","address":"Orangeville, ON"}},{"local_stop_id":277,"id":277,"geometry":"POINT(-8916057.949354 5453067.05768)","attributes":{"description":"","title":"Cream Cheese, Black Pepper (18% BF)","placename":"Orangeville, ON, Canada","address":"Orangeville, ON"}},{"local_stop_id":276,"id":276,"geometry":"POINT(-8916057.949354 5453067.05768)","attributes":{"description":"","title":"Cream Cheese, Black Pepper","placename":"Orangeville, ON, Canada","address":"Orangeville, ON"}},{"local_stop_id":275,"id":275,"geometry":"POINT(-8916057.949354 5453067.05768)","attributes":{"description":"","title":"Cream Cheese, Fine Herb","placename":"Orangeville, ON, Canada","address":"Orangeville, ON"}},{"local_stop_id":274,"id":274,"geometry":"POINT(-8916057.949354 5453067.05768)","attributes":{"description":"","title":"Cream Cheese, Fig","placename":"Orangeville, ON, Canada","address":"Orangeville, ON"}},{"local_stop_id":273,"id":273,"geometry":"POINT(-13420032.290574 5435181.238622)","attributes":{"description":"","title":"Quick Oats","placename":"Oregon, USA","address":"Oregon"}},{"local_stop_id":272,"id":272,"geometry":"POINT(1390853.391997 5144593.922542)","attributes":{"description":"","title":"Colavita Olive","placename":"Rome, Italy","address":"Packed by Rome, Italy"}},{"local_stop_id":271,"id":271,"geometry":"POINT(-6505937.618248 -2685620.33203)","attributes":{"description":"","title":"Sugar Organic","placename":"Paraguay","address":"Paraguay"}},{"local_stop_id":270,"id":270,"geometry":"POINT(1149880.001221 5591324.419212)","attributes":{"description":"","title":"Alpino Paste","placename":"Parma, Italy","address":"Parma, Italy"}},{"local_stop_id":269,"id":269,"geometry":"POINT(-8909431.28931 5676378.13248)","attributes":{"description":"","title":"Crofter's Jams","placename":"Parry Sound, ON, Canada","address":"Parry Sound, ON"}},{"local_stop_id":268,"id":268,"geometry":"POINT(-8909431.28931 5676378.13248)","attributes":{"description":"","title":"Four Fruit","placename":"Parry Sound, ON, Canada","address":"Parry Sound, ON"}},{"local_stop_id":267,"id":267,"geometry":"POINT(-8909431.28931 5676378.13248)","attributes":{"description":"","title":"Organic Strawberry Jam","placename":"Parry Sound, ON, Canada","address":"Parry Sound, ON"}},{"local_stop_id":266,"id":266,"geometry":"POINT(-8909431.28931 5676378.13248)","attributes":{"description":"","title":"Organic Raspberry Jam","placename":"Parry Sound, ON, Canada","address":"Parry Sound, ON"}},{"local_stop_id":265,"id":265,"geometry":"POINT(-8909431.28931 5676378.13248)","attributes":{"description":"","title":"Black Currant","placename":"Parry Sound, ON, Canada","address":"Parry Sound, ON"}},{"local_stop_id":264,"id":264,"geometry":"POINT(-8909431.28931 5676378.13248)","attributes":{"description":"","title":"Wow Butter","placename":"Parry Sound, ON, Canada","address":"Parry Sound, ON"}},{"local_stop_id":263,"id":263,"geometry":"POINT(-8909431.28931 5676378.13248)","attributes":{"description":"","title":"Pomegranate Jelly","placename":"Parry Sound, ON, Canada","address":"Parry Sound, ON"}},{"local_stop_id":262,"id":262,"geometry":"POINT(-8583970.946857 5751565.400616)","attributes":{"description":"","title":"Red Bird Matches","placename":"Pembroke, ON, Canada","address":"Pembroke, ON"}},{"local_stop_id":261,"id":261,"geometry":"POINT(-13651849.69776 4612310.768034)","attributes":{"description":"","title":"Baked Beans, Organic","placename":"Petaluma, CA, USA","address":"petaluma, CA"}},{"local_stop_id":260,"id":260,"geometry":"POINT(-13651849.69776 4612310.768034)","attributes":{"description":"","title":"amy's pie","placename":"Petaluma, CA, USA","address":"Petaluma, CA"}},{"local_stop_id":259,"id":259,"geometry":"POINT(-13651849.69776 4612310.768034)","attributes":{"description":"","title":"other amy's","placename":"Petaluma, CA, USA","address":"Petaluma, CA"}},{"local_stop_id":258,"id":258,"geometry":"POINT(-9143968.509955 5294230.811384)","attributes":{"description":"","title":"Diced Tomatoes","placename":"Petrolia, ON N0N, Canada","address":"Petrolia, Ontario"}},{"local_stop_id":257,"id":257,"geometry":"POINT(-9143968.509955 5294230.811384)","attributes":{"description":"","title":"Crushed Tomatoes","placename":"Petrolia, ON N0N, Canada","address":"Petrolia, Ontario"}},{"local_stop_id":256,"id":256,"geometry":"POINT(-9143968.509955 5294230.811384)","attributes":{"description":"","title":"Whole Tomatoes","placename":"Petrolia, ON N0N, Canada","address":"Petrolia, Ontario"}},{"local_stop_id":255,"id":255,"geometry":"POINT(13555821.564291 1445993.997497)","attributes":{"description":"","title":"Mango","placename":"Philippines","address":"Philippines"}},{"local_stop_id":254,"id":254,"geometry":"POINT(2131226.790688 6785571.898792)","attributes":{"description":"","title":"Krakus Pickles","placename":"Poland","address":"Poland"}},{"local_stop_id":253,"id":253,"geometry":"POINT(8881645.810825 1337852.728315)","attributes":{"description":"","title":"incense","placename":"Puducherry, Pondicherry, India","address":"Pondicherry, India"}},{"local_stop_id":252,"id":252,"geometry":"POINT(-13028372.851823 3890370.404006)","attributes":{"description":"","title":"Hugga Bear, Chocolate Organic","placename":"Poway, CA, USA","address":"Poway, CA"}},{"local_stop_id":251,"id":251,"geometry":"POINT(-13028372.851823 3890370.404006)","attributes":{"description":"","title":"healthytimes rice cereal","placename":"Poway, CA, USA","address":"Poway, CA"}},{"local_stop_id":250,"id":250,"geometry":"POINT(-8840212.273337 5429500.732728)","attributes":{"description":"","title":"White Vinegar","placename":"North York, Toronto, ON, Canada","address":"Prep for North York, ON"}},{"local_stop_id":249,"id":249,"geometry":"POINT(-13667426.812218 7154732.473974)","attributes":{"description":"","title":"Honey Bear","placename":"Prince George, BC, Canada","address":"Prince George, BC"}},{"local_stop_id":248,"id":248,"geometry":"POINT(-13667426.812218 7154732.473974)","attributes":{"description":"","title":"Energy Max","placename":"Prince George, BC, Canada","address":"Prince George, BC"}},{"local_stop_id":247,"id":247,"geometry":"POINT(-13667426.812218 7154732.473974)","attributes":{"description":"","title":"Organic Cranberry","placename":"Prince George, BC, Canada","address":"Prince George, BC"}},{"local_stop_id":246,"id":246,"geometry":"POINT(-13667426.812218 7154732.473974)","attributes":{"description":"","title":"Organic Cola","placename":"Prince George, BC, Canada","address":"Prince George, BC"}},{"local_stop_id":245,"id":245,"geometry":"POINT(-8205627.835026 5717536.915195)","attributes":{"description":"","title":"Carbonated Mineral Water","placename":"Laval, QC, Canada","address":"Prod of Italy\/Laval, QC"}},{"local_stop_id":244,"id":244,"geometry":"POINT(8221695.100333 2098554.903529)","attributes":{"description":"","title":"Bombay Potatoes","placename":"Pune, Maharashtra, India","address":"Pune, India"}},{"local_stop_id":243,"id":243,"geometry":"POINT(8221695.100333 2098554.903529)","attributes":{"description":"","title":"Madras Lentils","placename":"Pune, Maharashtra, India","address":"Pune, India"}},{"local_stop_id":242,"id":242,"geometry":"POINT(8221695.100333 2098554.903529)","attributes":{"description":"","title":"Kashmir Spinach","placename":"Pune, Maharashtra, India","address":"Pune, India"}},{"local_stop_id":241,"id":241,"geometry":"POINT(-8187452.378937 6971891.71212)","attributes":{"description":"","title":"Recycled Paper Towel","placename":"Quebec, Canada","address":"Quebec"}},{"local_stop_id":240,"id":240,"geometry":"POINT(-8187452.378937 6971891.71212)","attributes":{"description":"","title":"Dark Maple Syrup","placename":"Quebec, Canada","address":"Quebec"}},{"local_stop_id":239,"id":239,"geometry":"POINT(-8187452.378937 6971891.71212)","attributes":{"description":"","title":"Dried Cranberries \u2013 Bulk","placename":"Quebec, Canada","address":"Quebec"}},{"local_stop_id":238,"id":238,"geometry":"POINT(-8187452.378937 6971891.71212)","attributes":{"description":"","title":"Dried Cranberries","placename":"Quebec, Canada","address":"Quebec"}},{"local_stop_id":237,"id":237,"geometry":"POINT(0 -0)","attributes":{"description":"","title":"Organic Mozzarella 20%","address":"quebec, www.fromagerieancetre.com"}},{"local_stop_id":236,"id":236,"geometry":"POINT(0 -0)","attributes":{"description":"","title":"Organic Parmesan","address":"quebec, www.fromagerieancetre.com"}},{"local_stop_id":235,"id":235,"geometry":"POINT(-13707633.408541 6302644.318772)","attributes":{"description":"","title":"Tamari Organic Soy Sauce","placename":"Richmond, BC, Canada","address":"Richmond, BC"}},{"local_stop_id":234,"id":234,"geometry":"POINT(-13707633.408541 6302644.318772)","attributes":{"description":"","title":"Heritage Style Dill Pickles","placename":"Richmond, BC, Canada","address":"Richmond, BC"}},{"local_stop_id":233,"id":233,"geometry":"POINT(-13707633.408541 6302644.318772)","attributes":{"description":"","title":"Maritime Relish","placename":"Richmond, BC, Canada","address":"Richmond, BC"}},{"local_stop_id":232,"id":232,"geometry":"POINT(-13707633.408541 6302644.318772)","attributes":{"description":"","title":"Fruit & Nut Muesli","placename":"Richmond, BC, Canada","address":"Richmond, BC"}},{"local_stop_id":231,"id":231,"geometry":"POINT(-13707633.408541 6302644.318772)","attributes":{"description":"","title":"Almond Tropical Fruit Muesli","placename":"Richmond, BC, Canada","address":"Richmond, BC"}},{"local_stop_id":230,"id":230,"geometry":"POINT(-13707633.408541 6302644.318772)","attributes":{"description":"","title":"Heritage Muesli","placename":"Richmond, BC, Canada","address":"Richmond, BC"}},{"local_stop_id":229,"id":229,"geometry":"POINT(-13707633.408541 6302644.318772)","attributes":{"description":"","title":"Fruit & Nut Muesli Organic","placename":"Richmond, BC, Canada","address":"Richmond, BC"}},{"local_stop_id":228,"id":228,"geometry":"POINT(-13707633.408541 6302644.318772)","attributes":{"description":"","title":"Olive Oil","placename":"Richmond, BC, Canada","address":"Richmond, BC"}},{"local_stop_id":227,"id":227,"geometry":"POINT(-13707633.408541 6302644.318772)","attributes":{"description":"","title":"Heritage O's Eco Pak","placename":"Richmond, BC, Canada","address":"Richmond, BC"}},{"local_stop_id":226,"id":226,"geometry":"POINT(-13707633.408541 6302644.318772)","attributes":{"description":"","title":"Crispy Rice Eco Pak","placename":"Richmond, BC, Canada","address":"Richmond, BC"}},{"local_stop_id":225,"id":225,"geometry":"POINT(-13707633.408541 6302644.318772)","attributes":{"description":"","title":"Acai Apple Granola","placename":"Richmond, BC, Canada","address":"Richmond, BC"}},{"local_stop_id":224,"id":224,"geometry":"POINT(-13707633.408541 6302644.318772)","attributes":{"description":"","title":"Heritage Flakes","placename":"Richmond, BC, Canada","address":"Richmond, BC"}},{"local_stop_id":223,"id":223,"geometry":"POINT(-13707633.408541 6302644.318772)","attributes":{"description":"","title":"miso","placename":"Richmond, BC, Canada","address":"Richmond, BC"}},{"local_stop_id":222,"id":222,"geometry":"POINT(-13707633.408541 6302644.318772)","attributes":{"description":"","title":"Red Pepper Relish","placename":"Richmond, BC, Canada","address":"Richmond, BC"}},{"local_stop_id":221,"id":221,"geometry":"POINT(-13707633.408541 6302644.318772)","attributes":{"description":"","title":"Sweet Relish","placename":"Richmond, BC, Canada","address":"Richmond, BC"}},{"local_stop_id":220,"id":220,"geometry":"POINT(-13707633.408541 6302644.318772)","attributes":{"description":"","title":"spag","placename":"Richmond, BC, Canada","address":"Richmond, BC"}},{"local_stop_id":219,"id":219,"geometry":"POINT(-13552575.599259 4792951.61335)","attributes":{"description":"","title":"lundberg wht basmati","placename":"Richvale, CA, USA","address":"Richvale, CA"}},{"local_stop_id":218,"id":218,"geometry":"POINT(-13552575.599259 4792951.61335)","attributes":{"description":"","title":"Lundberg Country Wild Rice","placename":"Richvale, CA, USA","address":"Richvale, CA"}},{"local_stop_id":217,"id":217,"geometry":"POINT(-13552575.599259 4792951.61335)","attributes":{"description":"","title":"Organic Long Grain Brown Rice","placename":"Richvale, CA, USA","address":"Richvale, CA"}},{"local_stop_id":216,"id":216,"geometry":"POINT(-8639608.305905 5336514.462419)","attributes":{"description":"","title":"Sensitive Eyes Solution","placename":"Rochester, NY, USA","address":"Rochester, NY"}},{"local_stop_id":215,"id":215,"geometry":"POINT(-13696204.269817 5612536.341434)","attributes":{"description":"","title":"Baked Sea Salt & Vinegar","placename":"Salem, OR, USA","address":"Salem, OR"}},{"local_stop_id":214,"id":214,"geometry":"POINT(-13696204.269817 5612536.341434)","attributes":{"description":"","title":"Kettle Chips","placename":"Salem, OR, USA","address":"Salem, OR"}},{"local_stop_id":213,"id":213,"geometry":"POINT(-13696204.269817 5612536.341434)","attributes":{"description":"","title":"Salted Chips","placename":"Salem, OR, USA","address":"Salem, OR"}},{"local_stop_id":212,"id":212,"geometry":"POINT(-13696204.269817 5612536.341434)","attributes":{"description":"","title":"Backyard BBQ","placename":"Salem, OR, USA","address":"Salem, OR"}},{"local_stop_id":211,"id":211,"geometry":"POINT(-13696204.269817 5612536.341434)","attributes":{"description":"","title":"Honey Dijon Chips","placename":"Salem, OR, USA","address":"Salem, OR"}},{"local_stop_id":210,"id":210,"geometry":"POINT(-13696204.269817 5612536.341434)","attributes":{"description":"","title":"Yogurt & Onion Chips","placename":"Salem, OR, USA","address":"Salem, OR"}},{"local_stop_id":209,"id":209,"geometry":"POINT(-13696204.269817 5612536.341434)","attributes":{"description":"","title":"New York Cheddar & Herb","placename":"Salem, OR, USA","address":"Salem, OR"}},{"local_stop_id":208,"id":208,"geometry":"POINT(-13696204.269817 5612536.341434)","attributes":{"description":"","title":"Salt & Fresh Ground Pepper, Organic","placename":"Salem, OR, USA","address":"Salem, OR"}},{"local_stop_id":207,"id":207,"geometry":"POINT(-13696204.269817 5612536.341434)","attributes":{"description":"","title":"Lemongrass dish soap","placename":"Salem, OR, USA","address":"Salem, OR"}},{"local_stop_id":206,"id":206,"geometry":"POINT(-13696204.269817 5612536.341434)","attributes":{"description":"","title":"Fabric softener Euc.& Lavender","placename":"Salem, OR, USA","address":"Salem, OR"}},{"local_stop_id":205,"id":205,"geometry":"POINT(-13696204.269817 5612536.341434)","attributes":{"description":"","title":"Buffalo Bleu","placename":"Salem, OR, USA","address":"Salem, OR"}},{"local_stop_id":204,"id":204,"geometry":"POINT(-13696204.269817 5612536.341434)","attributes":{"description":"","title":"Salt & Fresh Ground Pepper","placename":"Salem, OR, USA","address":"Salem, OR"}},{"local_stop_id":203,"id":203,"geometry":"POINT(-13696204.269817 5612536.341434)","attributes":{"description":"","title":"Earl Grey","placename":"Salem, OR, USA","address":"Salem, OR"}},{"local_stop_id":202,"id":202,"geometry":"POINT(-13696204.269817 5612536.341434)","attributes":{"description":"","title":"Genmaicha Yamasaki","placename":"Salem, OR, USA","address":"Salem, OR"}},{"local_stop_id":201,"id":201,"geometry":"POINT(-13696204.269817 5612536.341434)","attributes":{"description":"","title":"Peppermint Willamette","placename":"Salem, OR, USA","address":"Salem, OR"}},{"local_stop_id":200,"id":200,"geometry":"POINT(-13696204.269817 5612536.341434)","attributes":{"description":"","title":"Egyptian Camomile","placename":"Salem, OR, USA","address":"Salem, OR"}},{"local_stop_id":199,"id":199,"geometry":"POINT(-13696204.269817 5612536.341434)","attributes":{"description":"","title":"On The Waterfront","placename":"Salem, OR, USA","address":"Salem, OR"}},{"local_stop_id":198,"id":198,"geometry":"POINT(-13431766.967904 4202372.764364)","attributes":{"description":"","title":"cloud star jerky","placename":"San Luis Obispo, CA, USA","address":"San Luis Obispo, CA"}},{"local_stop_id":197,"id":197,"geometry":"POINT(-13431766.967904 4202372.764364)","attributes":{"description":"","title":"Bacon & Cheese Madness","placename":"San Luis Obispo, CA, USA","address":"San Luis Obispo, CA"}},{"local_stop_id":196,"id":196,"geometry":"POINT(-13431766.967904 4202372.764364)","attributes":{"description":"","title":"Peanut Butter Madness","placename":"San Luis Obispo, CA, USA","address":"San Luis Obispo, CA"}},{"local_stop_id":195,"id":195,"geometry":"POINT(-13431766.967904 4202372.764364)","attributes":{"description":"","title":"Dog Treats","placename":"San Luis Obispo, CA, USA","address":"San Luis Obispo, CA"}},{"local_stop_id":194,"id":194,"geometry":"POINT(-13431766.967904 4202372.764364)","attributes":{"description":"","title":"Blueberry Cobbler","placename":"San Luis Obispo, CA, USA","address":"San Luis Obispo, CA"}},{"local_stop_id":193,"id":193,"geometry":"POINT(-13431766.967904 4202372.764364)","attributes":{"description":"","title":"PB & Jelly","placename":"San Luis Obispo, CA, USA","address":"San Luis Obispo, CA"}},{"local_stop_id":192,"id":192,"geometry":"POINT(-13431766.967904 4202372.764364)","attributes":{"description":"","title":"Apple Dumpling","placename":"San Luis Obispo, CA, USA","address":"San Luis Obispo, CA"}},{"local_stop_id":191,"id":191,"geometry":"POINT(-13431766.967904 4202372.764364)","attributes":{"description":"","title":"Chicken Pot Pie","placename":"San Luis Obispo, CA, USA","address":"San Luis Obispo, CA"}},{"local_stop_id":190,"id":190,"geometry":"POINT(-13640098.255714 4575687.813775)","attributes":{"description":"","title":"Tom Yum Noodle Soup","placename":"San Rafael, CA, USA","address":"San Rafael, CA"}},{"local_stop_id":189,"id":189,"geometry":"POINT(-13640098.255714 4575687.813775)","attributes":{"description":"","title":"Udon Soup","placename":"San Rafael, CA, USA","address":"San Rafael, CA"}},{"local_stop_id":188,"id":188,"geometry":"POINT(-13640098.255714 4575687.813775)","attributes":{"description":"","title":"Miso Soup","placename":"San Rafael, CA, USA","address":"San Rafael, CA"}},{"local_stop_id":187,"id":187,"geometry":"POINT(-13640098.255714 4575687.813775)","attributes":{"description":"","title":"mighty leaf 100's","placename":"San Rafael, CA, USA","address":"San Rafael, CA"}},{"local_stop_id":186,"id":186,"geometry":"POINT(-13324741.570808 4085450.229371)","attributes":{"description":"","title":"Apple Cider Vinegar","placename":"Santa Barbara, CA, USA","address":"Santa Barbara, CA"}},{"local_stop_id":185,"id":185,"geometry":"POINT(-11850055.963852 6971891.71212)","attributes":{"description":"","title":"Oats \u2013 Bulk","placename":"Saskatchewan, Canada","address":"Saskatchewan"}},{"local_stop_id":184,"id":184,"geometry":"POINT(-11850055.963852 6971891.71212)","attributes":{"description":"","title":"Oats","placename":"Saskatchewan, Canada","address":"Saskatchewan"}},{"local_stop_id":183,"id":183,"geometry":"POINT(-9781743.453928 5154370.33149)","attributes":{"description":"","title":"Semi-Sweet Chocolate Chips","placename":"Schiller Park, IL, USA","address":"Schiller Park, IL, USA"}},{"local_stop_id":182,"id":182,"geometry":"POINT(14135122.873308 4518371.425394)","attributes":{"description":"","title":"Aloe Vera Drink","placename":"Seoul, South Korea","address":"Seoul, Korea"}},{"local_stop_id":181,"id":181,"geometry":"POINT(11557171.277761 150527.162641)","attributes":{"description":"","title":"tiger balm","placename":"Singapore","address":"Singapore"}},{"local_stop_id":180,"id":180,"geometry":"POINT(0 -0)","attributes":{"description":"","title":"Gathering Place Teas","address":"South Africa\/Cortes Island"}},{"local_stop_id":179,"id":179,"geometry":"POINT(0 -0)","attributes":{"description":"","title":"Salt Grinder","address":"South Africa\/Cortes Island"}},{"local_stop_id":178,"id":178,"geometry":"POINT(0 -0)","attributes":{"description":"","title":"Salt\/Kelp Grinder","address":"South Africa\/Cortes Island"}},{"local_stop_id":177,"id":177,"geometry":"POINT(0 -0)","attributes":{"description":"","title":"Salt Refill","address":"South Africa\/Cortes Island"}},{"local_stop_id":176,"id":176,"geometry":"POINT(0 -0)","attributes":{"description":"","title":"Salt\/Kelp Refill","address":"South Africa\/Cortes Island"}},{"local_stop_id":175,"id":175,"geometry":"POINT(8991475.312498 879195.517639)","attributes":{"description":"","title":"Organic Coconut Shredded","placename":"Sri Lanka","address":"Sri Lanka"}},{"local_stop_id":174,"id":174,"geometry":"POINT(8991475.312498 879195.517639)","attributes":{"description":"","title":"Mango Chunks","placename":"Sri Lanka","address":"Sri Lanka"}},{"local_stop_id":173,"id":173,"geometry":"POINT(-8121462.518753 5721362.866425)","attributes":{"description":"","title":"Organic Soy Milk","placename":"St Hyacinthe, QC, Canada","address":"St. Hyacinthe, QC"}},{"local_stop_id":172,"id":172,"geometry":"POINT(-8121462.518753 5721362.866425)","attributes":{"description":"","title":"Organic Vanilla Soy","placename":"St Hyacinthe, QC, Canada","address":"St. Hyacinthe, QC"}},{"local_stop_id":171,"id":171,"geometry":"POINT(-8121462.518753 5721362.866425)","attributes":{"description":"","title":"Organic Chocolate Soy","placename":"St Hyacinthe, QC, Canada","address":"St. Hyacinthe, QC"}},{"local_stop_id":170,"id":170,"geometry":"POINT(-8121462.518753 5721362.866425)","attributes":{"description":"","title":"Organic Rice Beverage","placename":"St Hyacinthe, QC, Canada","address":"St. Hyacinthe, QC"}},{"local_stop_id":169,"id":169,"geometry":"POINT(-8121462.518753 5721362.866425)","attributes":{"description":"","title":"Organic Rice Beverage Vanilla","placename":"St Hyacinthe, QC, Canada","address":"St. Hyacinthe, QC"}},{"local_stop_id":168,"id":168,"geometry":"POINT(-10705473.768518 6199497.600856)","attributes":{"description":"","title":"blue lantern cards","placename":"Strathcona, MN 56759, USA","address":"Strathcona"}},{"local_stop_id":167,"id":167,"geometry":"POINT(-13673145.517099 6292849.038696)","attributes":{"description":"","title":"Premium Ice","placename":"Surrey, BC, Canada","address":"Surrey, BC"}},{"local_stop_id":166,"id":166,"geometry":"POINT(13531978.877455 2886935.288626)","attributes":{"description":"","title":"Natural Rice Crisps","placename":"Taipei City, Taiwan","address":"Taipei, Taiwan"}},{"local_stop_id":165,"id":165,"geometry":"POINT(11242438.238039 1789676.623494)","attributes":{"description":"","title":"Ginger","placename":"Thailand","address":"Thailand"}},{"local_stop_id":164,"id":164,"geometry":"POINT(11242438.238039 1789676.623494)","attributes":{"description":"","title":"Ginger Chunks","placename":"Thailand","address":"Thailand"}},{"local_stop_id":163,"id":163,"geometry":"POINT(11242438.238039 1789676.623494)","attributes":{"description":"","title":"Coconut Milk","placename":"Thailand","address":"Thailand"}},{"local_stop_id":162,"id":162,"geometry":"POINT(11242438.238039 1789676.623494)","attributes":{"description":"","title":"Coconut Milk, Organic","placename":"Thailand","address":"Thailand"}},{"local_stop_id":161,"id":161,"geometry":"POINT(11242438.238039 1789676.623494)","attributes":{"description":"","title":"Albacore Tuna","placename":"Thailand","address":"Thailand"}},{"local_stop_id":160,"id":160,"geometry":"POINT(-13611339.933935 4561302.001121)","attributes":{"description":"","title":"Red Curry Paste","placename":"Berkeley, CA, USA","address":"Thailand\/imp by Berkeley, CA"}},{"local_stop_id":159,"id":159,"geometry":"POINT(-8836895.653825 5411933.999327)","attributes":{"description":"","title":"Halls","placename":"Toronto, ON, Canada","address":"Toronto, ON"}},{"local_stop_id":158,"id":158,"geometry":"POINT(-8836895.653825 5411933.999327)","attributes":{"description":"","title":"Yogurt Almond","placename":"Toronto, ON, Canada","address":"Toronto, ON"}},{"local_stop_id":157,"id":157,"geometry":"POINT(-8836895.653825 5411933.999327)","attributes":{"description":"","title":"Traveller Mix","placename":"Toronto, ON, Canada","address":"Toronto, ON"}},{"local_stop_id":156,"id":156,"geometry":"POINT(-8836895.653825 5411933.999327)","attributes":{"description":"","title":"Q-Tips","placename":"Toronto, ON, Canada","address":"Toronto, ON"}},{"local_stop_id":155,"id":155,"geometry":"POINT(-8836895.653825 5411933.999327)","attributes":{"description":"","title":"Pepto Bismol","placename":"Toronto, ON, Canada","address":"Toronto, ON"}},{"local_stop_id":154,"id":154,"geometry":"POINT(-8836895.653825 5411933.999327)","attributes":{"description":"","title":"Exaxt Ibuprofen","placename":"Toronto, ON, Canada","address":"Toronto, ON"}},{"local_stop_id":153,"id":153,"geometry":"POINT(-8836895.653825 5411933.999327)","attributes":{"description":"","title":"Exact Acetamin","placename":"Toronto, ON, Canada","address":"Toronto, ON"}},{"local_stop_id":152,"id":152,"geometry":"POINT(-8836895.653825 5411933.999327)","attributes":{"description":"","title":"Parma Rosa Packet Sauce","placename":"Toronto, ON, Canada","address":"Toronto, ON"}},{"local_stop_id":151,"id":151,"geometry":"POINT(-8836895.653825 5411933.999327)","attributes":{"description":"","title":"Skippy","placename":"Toronto, ON, Canada","address":"Toronto, ON"}},{"local_stop_id":150,"id":150,"geometry":"POINT(-8836895.653825 5411933.999327)","attributes":{"description":"","title":"Mouthwash","placename":"Toronto, ON, Canada","address":"Toronto, ON"}},{"local_stop_id":149,"id":149,"geometry":"POINT(3923268.658903 4716479.684629)","attributes":{"description":"","title":"Apricot","placename":"Turkey","address":"Turkey"}},{"local_stop_id":148,"id":148,"geometry":"POINT(3923268.658903 4716479.684629)","attributes":{"description":"","title":"Dried Apricot \u2013 Bulk","placename":"Turkey","address":"Turkey"}},{"local_stop_id":147,"id":147,"geometry":"POINT(3923268.658903 4716479.684629)","attributes":{"description":"","title":"Dried Apricot","placename":"Turkey","address":"Turkey"}},{"local_stop_id":146,"id":146,"geometry":"POINT(-382490.764739 7435586.530983)","attributes":{"description":"","title":"Bottlegreen \u2013 small","placename":"United Kingdom","address":"UK"}},{"local_stop_id":145,"id":145,"geometry":"POINT(-382490.764739 7435586.530983)","attributes":{"description":"","title":"Sparkling, Cranberry & Orange","placename":"United Kingdom","address":"UK"}},{"local_stop_id":144,"id":144,"geometry":"POINT(-382490.764739 7435586.530983)","attributes":{"description":"","title":"Elderflower","placename":"United Kingdom","address":"UK"}},{"local_stop_id":143,"id":143,"geometry":"POINT(-382490.764739 7435586.530983)","attributes":{"description":"","title":"Lemongrass Spring","placename":"United Kingdom","address":"UK"}},{"local_stop_id":142,"id":142,"geometry":"POINT(-382490.764739 7435586.530983)","attributes":{"description":"","title":"Pomegranate & Elderflower","placename":"United Kingdom","address":"UK"}},{"local_stop_id":141,"id":141,"geometry":"POINT(-382490.764739 7435586.530983)","attributes":{"description":"","title":"Bottlegreen \u2013 large","placename":"United Kingdom","address":"UK"}},{"local_stop_id":140,"id":140,"geometry":"POINT(-382490.764739 7435586.530983)","attributes":{"description":"","title":"cranberry & orange press\u00e9","placename":"United Kingdom","address":"UK"}},{"local_stop_id":139,"id":139,"geometry":"POINT(-382490.764739 7435586.530983)","attributes":{"description":"","title":"elderflower press\u00e9","placename":"United Kingdom","address":"UK"}},{"local_stop_id":138,"id":138,"geometry":"POINT(-382490.764739 7435586.530983)","attributes":{"description":"","title":"pomegranate & elderflower press\u00e9","placename":"United Kingdom","address":"UK"}},{"local_stop_id":137,"id":137,"geometry":"POINT(-382490.764739 7435586.530983)","attributes":{"description":"","title":"McVities Digestive","placename":"United Kingdom","address":"UK"}},{"local_stop_id":136,"id":136,"geometry":"POINT(-382490.764739 7435586.530983)","attributes":{"description":"","title":"Hobnob \u2013 plain","placename":"United Kingdom","address":"UK"}},{"local_stop_id":135,"id":135,"geometry":"POINT(-382490.764739 7435586.530983)","attributes":{"description":"","title":"McVities Digestive \u2013 Dark Chocolate","placename":"United Kingdom","address":"UK"}},{"local_stop_id":134,"id":134,"geometry":"POINT(-382490.764739 7435586.530983)","attributes":{"description":"","title":"Hobnobs Chocolate","placename":"United Kingdom","address":"UK"}},{"local_stop_id":133,"id":133,"geometry":"POINT(-382490.764739 7435586.530983)","attributes":{"description":"","title":"McVities Ginger Snaps","placename":"United Kingdom","address":"UK"}},{"local_stop_id":132,"id":132,"geometry":"POINT(-382490.764739 7435586.530983)","attributes":{"description":"","title":"Figs","placename":"United Kingdom","address":"UK"}},{"local_stop_id":131,"id":131,"geometry":"POINT(-382490.764739 7435586.530983)","attributes":{"description":"","title":"Doggie Biodegradable Bags","placename":"United Kingdom","address":"UK"}},{"local_stop_id":130,"id":130,"geometry":"POINT(-10654710.288472 4451692.554811)","attributes":{"description":"","title":"Sesame Sticks","placename":"United States","address":"USA"}},{"local_stop_id":129,"id":129,"geometry":"POINT(-10654710.288472 4451692.554811)","attributes":{"description":"","title":"Prunes, Pitted, Organic","placename":"United States","address":"USA"}},{"local_stop_id":128,"id":128,"geometry":"POINT(-10654710.288472 4451692.554811)","attributes":{"description":"","title":"Cranberries","placename":"United States","address":"USA"}},{"local_stop_id":127,"id":127,"geometry":"POINT(-10654710.288472 4451692.554811)","attributes":{"description":"","title":"Sucanat, Organic FT","placename":"United States","address":"USA"}},{"local_stop_id":126,"id":126,"geometry":"POINT(-10654710.288472 4451692.554811)","attributes":{"description":"","title":"Lick Your Chops Dog Food","placename":"United States","address":"USA"}},{"local_stop_id":125,"id":125,"geometry":"POINT(-10654710.288472 4451692.554811)","attributes":{"description":"","title":"Adult Dog, Can","placename":"United States","address":"USA"}},{"local_stop_id":124,"id":124,"geometry":"POINT(-10654710.288472 4451692.554811)","attributes":{"description":"","title":"Lamb & Rice, Dog Can","placename":"United States","address":"USA"}},{"local_stop_id":123,"id":123,"geometry":"POINT(-10654710.288472 4451692.554811)","attributes":{"description":"","title":"Senior Dog Can","placename":"United States","address":"USA"}},{"local_stop_id":122,"id":122,"geometry":"POINT(-10654710.288472 4451692.554811)","attributes":{"description":"","title":"Turkey & Brown Rice, Dog Can","placename":"United States","address":"USA"}},{"local_stop_id":121,"id":121,"geometry":"POINT(-10654710.288472 4451692.554811)","attributes":{"description":"","title":"Salmon & Whitefish","placename":"United States","address":"USA"}},{"local_stop_id":120,"id":120,"geometry":"POINT(-10654710.288472 4451692.554811)","attributes":{"description":"","title":"Turkey & Sweet Potato","placename":"United States","address":"USA"}},{"local_stop_id":119,"id":119,"geometry":"POINT(-10654710.288472 4451692.554811)","attributes":{"description":"","title":"Chicken & Brown Rice","placename":"United States","address":"USA"}},{"local_stop_id":118,"id":118,"geometry":"POINT(-10654710.288472 4451692.554811)","attributes":{"description":"","title":"Seafood & Brown Rice","placename":"United States","address":"USA"}},{"local_stop_id":117,"id":117,"geometry":"POINT(-10654710.288472 4451692.554811)","attributes":{"description":"","title":"Chicken & Crab","placename":"United States","address":"USA"}},{"local_stop_id":116,"id":116,"geometry":"POINT(-10654710.288472 4451692.554811)","attributes":{"description":"","title":"Sockeye Salmon","placename":"United States","address":"USA"}},{"local_stop_id":115,"id":115,"geometry":"POINT(-10654710.288472 4451692.554811)","attributes":{"description":"","title":"Taco Shells","placename":"United States","address":"USA"}},{"local_stop_id":114,"id":114,"geometry":"POINT(-10654710.288472 4451692.554811)","attributes":{"description":"","title":"nile spice cups","placename":"United States","address":"USA"}},{"local_stop_id":113,"id":113,"geometry":"POINT(-10654710.288472 4451692.554811)","attributes":{"description":"","title":"Couscous, Whole Wheat, Organic","placename":"United States","address":"USA"}},{"local_stop_id":112,"id":112,"geometry":"POINT(-10654710.288472 4451692.554811)","attributes":{"description":"","title":"Chips Semi Sweet","placename":"United States","address":"USA"}},{"local_stop_id":111,"id":111,"geometry":"POINT(-10654710.288472 4451692.554811)","attributes":{"description":"","title":"Baking Soda","placename":"United States","address":"USA"}},{"local_stop_id":110,"id":110,"geometry":"POINT(-10654710.288472 4451692.554811)","attributes":{"description":"","title":"Organic Kamut Puffs","placename":"United States","address":"USA"}},{"local_stop_id":109,"id":109,"geometry":"POINT(-10654710.288472 4451692.554811)","attributes":{"description":"","title":"Synergy","placename":"United States","address":"USA"}},{"local_stop_id":108,"id":108,"geometry":"POINT(-10654710.288472 4451692.554811)","attributes":{"description":"","title":"Koala Krisp","placename":"United States","address":"USA"}},{"local_stop_id":107,"id":107,"geometry":"POINT(-10654710.288472 4451692.554811)","attributes":{"description":"","title":"Eco Corn Flake","placename":"United States","address":"USA"}},{"local_stop_id":106,"id":106,"geometry":"POINT(-10654710.288472 4451692.554811)","attributes":{"description":"","title":"C battery","placename":"United States","address":"USA"}},{"local_stop_id":105,"id":105,"geometry":"POINT(-10654710.288472 4451692.554811)","attributes":{"description":"","title":"AA battery","placename":"United States","address":"USA"}},{"local_stop_id":104,"id":104,"geometry":"POINT(-10654710.288472 4451692.554811)","attributes":{"description":"","title":"AAA battery","placename":"United States","address":"USA"}},{"local_stop_id":103,"id":103,"geometry":"POINT(-10654710.288472 4451692.554811)","attributes":{"description":"","title":"9V Battery","placename":"United States","address":"USA"}},{"local_stop_id":102,"id":102,"geometry":"POINT(-8822069.645367 5447405.457826)","attributes":{"description":"","title":"Peanut Butter \u2013 Creamy","placename":"Markham, ON, Canada","address":"USA?\/prep for Markham, ON"}},{"local_stop_id":101,"id":101,"geometry":"POINT(-8822069.645367 5447405.457826)","attributes":{"description":"","title":"Peanut Butter \u2013 Unsalted","placename":"Markham, ON, Canada","address":"USA?\/prep for Markham, ON"}},{"local_stop_id":100,"id":100,"geometry":"POINT(-8865942.860814 5402064.676091)","attributes":{"description":"","title":"Baking Soda","placename":"Mississauga, ON, Canada","address":"USA\/for Mississauga, ON"}},{"local_stop_id":99,"id":99,"geometry":"POINT(-8234626.00578 4980074.128851)","attributes":{"description":"","title":"Hugga Bear Honey Graham","placename":"Rose Center For Earth And Space, Central Park West, New York, NY 10024, USA","address":"USA\/for New York"}},{"local_stop_id":98,"id":98,"geometry":"POINT(-8234626.00578 4980074.128851)","attributes":{"description":"","title":"Organic Baby Cereal, Br. Rice","placename":"Rose Center For Earth And Space, Central Park West, New York, NY 10024, USA","address":"USA\/for New York"}},{"local_stop_id":97,"id":97,"geometry":"POINT(-8234626.00578 4980074.128851)","attributes":{"description":"","title":"Organic Baby Cereal, Oatmeal","placename":"Rose Center For Earth And Space, Central Park West, New York, NY 10024, USA","address":"USA\/for New York"}},{"local_stop_id":96,"id":96,"geometry":"POINT(-8234626.00578 4980074.128851)","attributes":{"description":"","title":"Organic Soy Mayonnaise","placename":"Rose Center For Earth And Space, Central Park West, New York, NY 10024, USA","address":"USA\/for New York"}},{"local_stop_id":95,"id":95,"geometry":"POINT(-13525997.948381 4661726.558229)","attributes":{"description":"","title":"Almond Milk, Original","placename":"Drexel University - Sacramento Center for Graduate Studies, 1 Capitol Mall #260, Sacramento, CA 95814, USA","address":"USA\/for Sacramento, CA"}},{"local_stop_id":94,"id":94,"geometry":"POINT(-13669127.217439 6323164.301195)","attributes":{"description":"","title":"Supreme Habanero Sauce","placename":"Coquitlam, BC, Canada","address":"USA\/imp by Coquitlam"}},{"local_stop_id":93,"id":93,"geometry":"POINT(-13669127.217439 6323164.301195)","attributes":{"description":"","title":"Louisiana Hot Sauce","placename":"Coquitlam, BC, Canada","address":"USA\/imp by Coquitlam"}},{"local_stop_id":92,"id":92,"geometry":"POINT(-8149930.57496 5539383.879511)","attributes":{"description":"","title":"Automatic Dishwasher Gel, Free & Clear Pur","placename":"Burlington, VT, USA","address":"USA\/mfg for Burlington, VT"}},{"local_stop_id":91,"id":91,"geometry":"POINT(-8149930.57496 5539383.879511)","attributes":{"description":"","title":"7THG Diapers Stage 1","placename":"Burlington, VT, USA","address":"USA\/mfg for Burlington, VT"}},{"local_stop_id":90,"id":90,"geometry":"POINT(-8149930.57496 5539383.879511)","attributes":{"description":"","title":"7THG Diapers Stage 3","placename":"Burlington, VT, USA","address":"USA\/mfg for Burlington, VT"}},{"local_stop_id":89,"id":89,"geometry":"POINT(-8149930.57496 5539383.879511)","attributes":{"description":"","title":"7THG Diapers Stage 2","placename":"Burlington, VT, USA","address":"USA\/mfg for Burlington, VT"}},{"local_stop_id":88,"id":88,"geometry":"POINT(-8149930.57496 5539383.879511)","attributes":{"description":"","title":"7THG Diapers Stage 4","placename":"Burlington, VT, USA","address":"USA\/mfg for Burlington, VT"}},{"local_stop_id":87,"id":87,"geometry":"POINT(-8149930.57496 5539383.879511)","attributes":{"description":"","title":"Diapers Size 1","placename":"Burlington, VT, USA","address":"USA\/mfg for Burlington, VT"}},{"local_stop_id":86,"id":86,"geometry":"POINT(-13707633.408541 6302644.318772)","attributes":{"description":"","title":"Gorilla Munch","placename":"Richmond, BC, Canada","address":"USA\/Richmond, BC"}},{"local_stop_id":85,"id":85,"geometry":"POINT(-13707633.408541 6302644.318772)","attributes":{"description":"","title":"Optimum Cranberry Ginger, Organic (formerly Optimum Zen)","placename":"Richmond, BC, Canada","address":"USA\/Richmond, BC"}},{"local_stop_id":84,"id":84,"geometry":"POINT(-13707633.408541 6302644.318772)","attributes":{"description":"","title":"Whole O's Cereal","placename":"Richmond, BC, Canada","address":"USA\/Richmond, BC"}},{"local_stop_id":83,"id":83,"geometry":"POINT(-9818819.991074 5143731.260979)","attributes":{"description":"","title":"freezies","placename":"West Chicago, IL, USA","address":"USA\/West Chicago, IL"}},{"local_stop_id":82,"id":82,"geometry":"POINT(-13704979.640936 6319302.780575)","attributes":{"description":"","title":"Multigrain Bread","placename":"Vancouver, BC, Canada","address":"Vancouver, BC"}},{"local_stop_id":81,"id":81,"geometry":"POINT(-13704979.640936 6319302.780575)","attributes":{"description":"","title":"San Fran Sourdough","placename":"Vancouver, BC, Canada","address":"Vancouver, BC"}},{"local_stop_id":80,"id":80,"geometry":"POINT(-13704979.640936 6319302.780575)","attributes":{"description":"","title":"Pecan Crasin","placename":"Vancouver, BC, Canada","address":"Vancouver, BC"}},{"local_stop_id":79,"id":79,"geometry":"POINT(-13704979.640936 6319302.780575)","attributes":{"description":"","title":"Cashew Tube, Cajun","placename":"Vancouver, BC, Canada","address":"Vancouver, BC"}},{"local_stop_id":78,"id":78,"geometry":"POINT(-13704979.640936 6319302.780575)","attributes":{"description":"","title":"Cashew Tube, Unsalted","placename":"Vancouver, BC, Canada","address":"Vancouver, BC"}},{"local_stop_id":77,"id":77,"geometry":"POINT(-13704979.640936 6319302.780575)","attributes":{"description":"","title":"Naam Miso Gravy","placename":"Vancouver, BC, Canada","address":"Vancouver, BC"}},{"local_stop_id":76,"id":76,"geometry":"POINT(-13704979.640936 6319302.780575)","attributes":{"description":"","title":"Burrito \u2013 Garden Vegetable","placename":"Vancouver, BC, Canada","address":"Vancouver, BC"}},{"local_stop_id":75,"id":75,"geometry":"POINT(-13704979.640936 6319302.780575)","attributes":{"description":"","title":"Veggie Sandwich","placename":"Vancouver, BC, Canada","address":"Vancouver, BC"}},{"local_stop_id":74,"id":74,"geometry":"POINT(-13704979.640936 6319302.780575)","attributes":{"description":"","title":"Bocconcini","placename":"Vancouver, BC, Canada","address":"Vancouver, BC"}},{"local_stop_id":73,"id":73,"geometry":"POINT(-13704979.640936 6319302.780575)","attributes":{"description":"","title":"Turkey Sandwich","placename":"Vancouver, BC, Canada","address":"Vancouver, BC"}},{"local_stop_id":72,"id":72,"geometry":"POINT(-13704979.640936 6319302.780575)","attributes":{"description":"","title":"Montreal Smoked Meat Sandwich","placename":"Vancouver, BC, Canada","address":"Vancouver, BC"}},{"local_stop_id":71,"id":71,"geometry":"POINT(-13704979.640936 6319302.780575)","attributes":{"description":"","title":"Capicola Bun","placename":"Vancouver, BC, Canada","address":"Vancouver, BC"}},{"local_stop_id":70,"id":70,"geometry":"POINT(-13704979.640936 6319302.780575)","attributes":{"description":"","title":"Eggwich","placename":"Vancouver, BC, Canada","address":"Vancouver, BC"}},{"local_stop_id":69,"id":69,"geometry":"POINT(-13704979.640936 6319302.780575)","attributes":{"description":"","title":"Uprising Muffin","placename":"Vancouver, BC, Canada","address":"Vancouver, BC"}},{"local_stop_id":68,"id":68,"geometry":"POINT(-13704979.640936 6319302.780575)","attributes":{"description":"","title":"Uprising Chunk Cookie","placename":"Vancouver, BC, Canada","address":"Vancouver, BC"}},{"local_stop_id":67,"id":67,"geometry":"POINT(-13704979.640936 6319302.780575)","attributes":{"description":"","title":"Uprising Oatmeal Cookie","placename":"Vancouver, BC, Canada","address":"Vancouver, BC"}},{"local_stop_id":66,"id":66,"geometry":"POINT(-13704979.640936 6319302.780575)","attributes":{"description":"","title":"Uprising Muffin \u2013 Dozen","placename":"Vancouver, BC, Canada","address":"Vancouver, BC"}},{"local_stop_id":65,"id":65,"geometry":"POINT(-13704979.640936 6319302.780575)","attributes":{"description":"","title":"Pretzel","placename":"Vancouver, BC, Canada","address":"Vancouver, BC"}},{"local_stop_id":64,"id":64,"geometry":"POINT(-13704979.640936 6319302.780575)","attributes":{"description":"","title":"Croissant \u2013 Chocolate","placename":"Vancouver, BC, Canada","address":"Vancouver, BC"}},{"local_stop_id":63,"id":63,"geometry":"POINT(-13704979.640936 6319302.780575)","attributes":{"description":"","title":"Muffin \u2013 Blueberry","placename":"Vancouver, BC, Canada","address":"Vancouver, BC"}},{"local_stop_id":62,"id":62,"geometry":"POINT(-13704979.640936 6319302.780575)","attributes":{"description":"","title":"Muffin \u2013 Bran","placename":"Vancouver, BC, Canada","address":"Vancouver, BC"}},{"local_stop_id":61,"id":61,"geometry":"POINT(-13704979.640936 6319302.780575)","attributes":{"description":"","title":"Muffin Choc Chip Banana","placename":"Vancouver, BC, Canada","address":"Vancouver, BC"}},{"local_stop_id":60,"id":60,"geometry":"POINT(-13704979.640936 6319302.780575)","attributes":{"description":"","title":"UCB","placename":"Vancouver, BC, Canada","address":"Vancouver, BC"}},{"local_stop_id":59,"id":59,"geometry":"POINT(-13704979.640936 6319302.780575)","attributes":{"description":"","title":"Blueberry Cinnamon Bun","placename":"Vancouver, BC, Canada","address":"Vancouver, BC"}},{"local_stop_id":58,"id":58,"geometry":"POINT(-13704979.640936 6319302.780575)","attributes":{"description":"","title":"Carrot Cake","placename":"Vancouver, BC, Canada","address":"Vancouver, BC"}},{"local_stop_id":57,"id":57,"geometry":"POINT(-13704979.640936 6319302.780575)","attributes":{"description":"","title":"Chocolate Croissant","placename":"Vancouver, BC, Canada","address":"Vancouver, BC"}},{"local_stop_id":56,"id":56,"geometry":"POINT(-13704979.640936 6319302.780575)","attributes":{"description":"","title":"Beef Heart","placename":"Vancouver, BC, Canada","address":"Vancouver, BC"}},{"local_stop_id":55,"id":55,"geometry":"POINT(-13704979.640936 6319302.780575)","attributes":{"description":"","title":"Beef Liver","placename":"Vancouver, BC, Canada","address":"Vancouver, BC"}},{"local_stop_id":54,"id":54,"geometry":"POINT(-13704979.640936 6319302.780575)","attributes":{"description":"","title":"Lamb Liver","placename":"Vancouver, BC, Canada","address":"Vancouver, BC"}},{"local_stop_id":53,"id":53,"geometry":"POINT(-13704979.640936 6319302.780575)","attributes":{"description":"","title":"Wild Sockeye Salmon","placename":"Vancouver, BC, Canada","address":"Vancouver, BC"}},{"local_stop_id":52,"id":52,"geometry":"POINT(-13704979.640936 6319302.780575)","attributes":{"description":"","title":"Organic Standard Milk","placename":"Vancouver, BC, Canada","address":"Vancouver, BC"}},{"local_stop_id":51,"id":51,"geometry":"POINT(-13704979.640936 6319302.780575)","attributes":{"description":"","title":"Organic Skim Milk","placename":"Vancouver, BC, Canada","address":"Vancouver, BC"}},{"local_stop_id":50,"id":50,"geometry":"POINT(-13704979.640936 6319302.780575)","attributes":{"description":"","title":"Organic 1% Milk","placename":"Vancouver, BC, Canada","address":"Vancouver, BC"}},{"local_stop_id":49,"id":49,"geometry":"POINT(-13704979.640936 6319302.780575)","attributes":{"description":"","title":"Organic 2% Milk","placename":"Vancouver, BC, Canada","address":"Vancouver, BC"}},{"local_stop_id":48,"id":48,"geometry":"POINT(-13704979.640936 6319302.780575)","attributes":{"description":"","title":"Organic Homo Milk","placename":"Vancouver, BC, Canada","address":"Vancouver, BC"}},{"local_stop_id":47,"id":47,"geometry":"POINT(-13704979.640936 6319302.780575)","attributes":{"description":"","title":"Organic Cereal Cream","placename":"Vancouver, BC, Canada","address":"Vancouver, BC"}},{"local_stop_id":46,"id":46,"geometry":"POINT(-13704979.640936 6319302.780575)","attributes":{"description":"","title":"Organic Chocolate Milk","placename":"Vancouver, BC, Canada","address":"Vancouver, BC"}},{"local_stop_id":45,"id":45,"geometry":"POINT(-13704979.640936 6319302.780575)","attributes":{"description":"","title":"Goat's Milk","placename":"Vancouver, BC, Canada","address":"Vancouver, BC"}},{"local_stop_id":44,"id":44,"geometry":"POINT(-13704979.640936 6319302.780575)","attributes":{"description":"","title":"Egg Nog","placename":"Vancouver, BC, Canada","address":"Vancouver, BC"}},{"local_stop_id":43,"id":43,"geometry":"POINT(-13704979.640936 6319302.780575)","attributes":{"description":"","title":"Organic Sour Cream","placename":"Vancouver, BC, Canada","address":"Vancouver, BC"}},{"local_stop_id":42,"id":42,"geometry":"POINT(-13704979.640936 6319302.780575)","attributes":{"description":"","title":"Organic Whipping Cream","placename":"Vancouver, BC, Canada","address":"Vancouver, BC"}},{"local_stop_id":41,"id":41,"geometry":"POINT(-13704979.640936 6319302.780575)","attributes":{"description":"","title":"Cottage Cheese","placename":"Vancouver, BC, Canada","address":"Vancouver, BC"}},{"local_stop_id":40,"id":40,"geometry":"POINT(-13704979.640936 6319302.780575)","attributes":{"description":"","title":"Organic Mozarella","placename":"Vancouver, BC, Canada","address":"Vancouver, BC"}},{"local_stop_id":39,"id":39,"geometry":"POINT(-13704979.640936 6319302.780575)","attributes":{"description":"","title":"Organic Medium Cheddar","placename":"Vancouver, BC, Canada","address":"Vancouver, BC"}},{"local_stop_id":38,"id":38,"geometry":"POINT(-13704979.640936 6319302.780575)","attributes":{"description":"","title":"Organic Aged Cheddar","placename":"Vancouver, BC, Canada","address":"Vancouver, BC"}},{"local_stop_id":37,"id":37,"geometry":"POINT(-13704979.640936 6319302.780575)","attributes":{"description":"","title":"Plain Organic Yogurt","placename":"Vancouver, BC, Canada","address":"Vancouver, BC"}},{"local_stop_id":36,"id":36,"geometry":"POINT(-13704979.640936 6319302.780575)","attributes":{"description":"","title":"Blueberry Organic Yogurt","placename":"Vancouver, BC, Canada","address":"Vancouver, BC"}},{"local_stop_id":35,"id":35,"geometry":"POINT(-13704979.640936 6319302.780575)","attributes":{"description":"","title":"Peach Organic Yogurt","placename":"Vancouver, BC, Canada","address":"Vancouver, BC"}},{"local_stop_id":34,"id":34,"geometry":"POINT(-13704979.640936 6319302.780575)","attributes":{"description":"","title":"Strawberry Organic Yogurt","placename":"Vancouver, BC, Canada","address":"Vancouver, BC"}},{"local_stop_id":33,"id":33,"geometry":"POINT(-13704979.640936 6319302.780575)","attributes":{"description":"","title":"Raspberry Organic Yogurt","placename":"Vancouver, BC, Canada","address":"Vancouver, BC"}},{"local_stop_id":32,"id":32,"geometry":"POINT(-13704979.640936 6319302.780575)","attributes":{"description":"","title":"Avalon Yogurt Variety Pak","placename":"Vancouver, BC, Canada","address":"Vancouver, BC"}},{"local_stop_id":31,"id":31,"geometry":"POINT(-13704979.640936 6319302.780575)","attributes":{"description":"","title":"Goat's Milk X 2","placename":"Vancouver, BC, Canada","address":"Vancouver, BC"}},{"local_stop_id":30,"id":30,"geometry":"POINT(-13704979.640936 6319302.780575)","attributes":{"description":"","title":"Chocolate Milk","placename":"Vancouver, BC, Canada","address":"Vancouver, BC"}},{"local_stop_id":29,"id":29,"geometry":"POINT(-13704979.640936 6319302.780575)","attributes":{"description":"","title":"Large White Eggs","placename":"Vancouver, BC, Canada","address":"Vancouver, BC"}},{"local_stop_id":28,"id":28,"geometry":"POINT(-13704979.640936 6319302.780575)","attributes":{"description":"","title":"Cottage Cheese & Potato","placename":"Vancouver, BC, Canada","address":"Vancouver, BC"}},{"local_stop_id":27,"id":27,"geometry":"POINT(-13704979.640936 6319302.780575)","attributes":{"description":"","title":"Spicy Sweet Potato","placename":"Vancouver, BC, Canada","address":"Vancouver, BC"}},{"local_stop_id":26,"id":26,"geometry":"POINT(-13704979.640936 6319302.780575)","attributes":{"description":"","title":"Artichoke","placename":"Vancouver, BC, Canada","address":"Vancouver, BC"}},{"local_stop_id":25,"id":25,"geometry":"POINT(-13704979.640936 6319302.780575)","attributes":{"description":"","title":"Perogies","placename":"Vancouver, BC, Canada","address":"Vancouver, BC"}},{"local_stop_id":24,"id":24,"geometry":"POINT(-13704979.640936 6319302.780575)","attributes":{"description":"","title":"Orange Juice","placename":"Vancouver, BC, Canada","address":"Vancouver, BC (with fruit from ?)"}},{"local_stop_id":23,"id":23,"geometry":"POINT(-13704979.640936 6319302.780575)","attributes":{"description":"","title":"Cranberry Manifesto","placename":"Vancouver, BC, Canada","address":"Vancouver, BC (with fruit from ?)"}},{"local_stop_id":22,"id":22,"geometry":"POINT(-13704979.640936 6319302.780575)","attributes":{"description":"","title":"Apple Juice","placename":"Vancouver, BC, Canada","address":"Vancouver, BC (with fruit from ?)"}},{"local_stop_id":21,"id":21,"geometry":"POINT(-13704979.640936 6319302.780575)","attributes":{"description":"","title":"Grapefruit Juice","placename":"Vancouver, BC, Canada","address":"Vancouver, BC (with fruit from ?)"}},{"local_stop_id":20,"id":20,"geometry":"POINT(-13718973.99261 6320002.715005)","attributes":{"description":"","title":"Quick Oats","placename":"Toronto Rd, Vancouver, BC V6T, Canada","address":"Vancouver\/Toronto"}},{"local_stop_id":19,"id":19,"geometry":"POINT(-8857691.882421 5440715.108647)","attributes":{"description":"","title":"Date & Walnut Crisps","placename":"Vaughan, ON, Canada","address":"Vaughan, Ontario"}},{"local_stop_id":18,"id":18,"geometry":"POINT(12053362.657202 1580908.758572)","attributes":{"description":"","title":"Rice Crackers, Wasabi w\/Peas","placename":"Vietnam","address":"Vietnam"}},{"local_stop_id":17,"id":17,"geometry":"POINT(12053362.657202 1580908.758572)","attributes":{"description":"","title":"Maple Syrup Cashews","placename":"Vietnam","address":"Vietnam"}},{"local_stop_id":16,"id":16,"geometry":"POINT(12053362.657202 1580908.758572)","attributes":{"description":"","title":"Pumpkin Seeds","placename":"Vietnam","address":"Vietnam"}},{"local_stop_id":15,"id":15,"geometry":"POINT(1017128.669803 6213843.482751)","attributes":{"description":"","title":"Ritter Sport","placename":"Waldenbuch, Germany","address":"Waldenbuch, Germany"}},{"local_stop_id":14,"id":14,"geometry":"POINT(1017128.669803 6213843.482751)","attributes":{"description":"","title":"Peppermint","placename":"Waldenbuch, Germany","address":"Waldenbuch, Germany"}},{"local_stop_id":13,"id":13,"geometry":"POINT(1017128.669803 6213843.482751)","attributes":{"description":"","title":"Alpine Milk","placename":"Waldenbuch, Germany","address":"Waldenbuch, Germany"}},{"local_stop_id":12,"id":12,"geometry":"POINT(1017128.669803 6213843.482751)","attributes":{"description":"","title":"Butter Biscuit","placename":"Waldenbuch, Germany","address":"Waldenbuch, Germany"}},{"local_stop_id":11,"id":11,"geometry":"POINT(1017128.669803 6213843.482751)","attributes":{"description":"","title":"Cornflakes","placename":"Waldenbuch, Germany","address":"Waldenbuch, Germany"}},{"local_stop_id":10,"id":10,"geometry":"POINT(1017128.669803 6213843.482751)","attributes":{"description":"","title":"Dark Chocolate with Whole Hazelnuts","placename":"Waldenbuch, Germany","address":"Waldenbuch, Germany"}},{"local_stop_id":9,"id":9,"geometry":"POINT(1017128.669803 6213843.482751)","attributes":{"description":"","title":"White Chocolate with Whole Hazelnuts","placename":"Waldenbuch, Germany","address":"Waldenbuch, Germany"}},{"local_stop_id":8,"id":8,"geometry":"POINT(1017128.669803 6213843.482751)","attributes":{"description":"","title":"Raisin Hazelnut","placename":"Waldenbuch, Germany","address":"Waldenbuch, Germany"}},{"local_stop_id":7,"id":7,"geometry":"POINT(-10813296.335619 6428933.082767)","attributes":{"description":"","title":"Hemp Bliss Orgnal","placename":"Winnipeg, MB, Canada","address":"Winnipeg, MB"}},{"local_stop_id":6,"id":6,"geometry":"POINT(-10813296.335619 6428933.082767)","attributes":{"description":"","title":"Epsom Salts","placename":"Winnipeg, MB, Canada","address":"Winnipeg, MB"}},{"local_stop_id":5,"id":5,"geometry":"POINT(-7915899.323665 5217110.62274)","attributes":{"description":"","title":"Lemonade","placename":"Mid-Cambridge, MA, USA","address":"Cambridge, MA"}},{"local_stop_id":4,"id":4,"geometry":"POINT(-12082838.744794 5851508.367143)","attributes":{"description":"","title":"Refrigerator","placename":"123 Main St, Roundup, Mt 59072, USA","address":"123 Main St."}},{"local_stop_id":3,"id":3,"geometry":"POINT(-12082838.744794 5851508.367143)","attributes":{"description":"","title":"Family","placename":"123 Main St, Roundup, Mt 59072, USA","address":"123 Main St."}},{"local_stop_id":2,"id":2,"geometry":"POINT(-7826909.06444 5406225.263116)","attributes":{"description":"","title":"Lemonade Stand","placename":"Main St & Massachusetts Ave, South Portland, ME 04106, USA","address":"Main St. & Massachusetts Ave."}},{"local_stop_id":1,"id":1,"geometry":"POINT(-7915315.508596 5215863.214925)","attributes":{"description":"","title":"Neighbors","placename":"Central Square, Mid-Cambridge, MA 02139, USA","address":"Central Square, Cambridge"}}],"hops":[{"from_stop_id":5,"to_stop_id":4,"geometry":"MULTILINESTRING((-7915899.323665 5217110.62274,-12082838.744794 5851508.367143))","attributes":{"title":"Lemonade to Refrigerator","distance":"2979.148594"}},{"from_stop_id":4,"to_stop_id":3,"geometry":"MULTILINESTRING((-12082838.744794 5851508.367143,-12082838.744794 5851508.367143))","attributes":{"title":"Refrigerator to Family","distance":"0"}},{"from_stop_id":5,"to_stop_id":2,"geometry":"MULTILINESTRING((-7915899.323665 5217110.62274,-7826909.06444 5406225.263116))","attributes":{"title":"Lemonade to Lemonade Stand","distance":"152.690447"}},{"from_stop_id":2,"to_stop_id":1,"geometry":"MULTILINESTRING((-7826909.06444 5406225.263116,-7915315.508596 5215863.214925))","attributes":{"title":"Lemonade Stand to Neighbors","distance":"153.345598"}}]},"editable":false}