{"type":"FeatureCollection","features":[{"type":"Feature","geometry":{"type":"Point","coordinates":[-122.982002,49.1889]},"properties":{"url:moreinfo":"http:\/\/foodtree.com\/sources\/5844","urltitle:moreinfo":"Please visit Avalon Certified Organic Dairy on Foodtree","address":"7985 North Fraser Way, Burnaby, British Columbia, Canada, V5J 0A4","title":"Avalon Certified Organic Dairy"}},{"type":"Feature","geometry":{"type":"Point","coordinates":[-123.603996,48.687599]},"properties":{"url:moreinfo":"http:\/\/foodtree.com\/sources\/337","urltitle:moreinfo":"Please visit Venturi Schulze Vineyards on Foodtree","address":"4235 Vineyard Road, Cobble Hill, British Columbia, Canada","title":"Venturi Schulze Vineyards"}},{"type":"Feature","geometry":{"type":"Point","coordinates":[-122.227997,49.016998]},"properties":{"url:moreinfo":"http:\/\/foodtree.com\/sources\/49","urltitle:moreinfo":"Please visit Gelderman Farms Ltd on Foodtree","address":"35805 Vye Road, Abbotsford  , British Columbia, Canada","title":"Gelderman Farms Ltd"}},{"type":"Feature","geometry":{"type":"Point","coordinates":[-121.223645,37.904848]},"properties":{"url:moreinfo":"http:\/\/foodtree.com\/sources\/10962","urltitle:moreinfo":"Please visit Bubbies Pickles on Foodtree","address":"Box 7326, Stockton, California, USA, 95267","title":"Bubbies Pickles"}},{"type":"Feature","geometry":{"type":"Point","coordinates":[-119.384003,49.842899]},"properties":{"url:moreinfo":"http:\/\/foodtree.com\/sources\/1074","urltitle:moreinfo":"Please visit Mikuni Wild Harvest on Foodtree","address":"3885 Gallaghers Grange, Kelowna, British Columbia, Canada, V1W 3Z9","title":"Mikuni Wild Harvest"}},{"type":"Feature","geometry":{"type":"Point","coordinates":[-121.935997,49.108101]},"properties":{"url:moreinfo":"http:\/\/foodtree.com\/sources\/5894","urltitle:moreinfo":"Please visit Johnston's Fresh Local Quality Meats on Foodtree","address":"5828 Promontory Road, Chilliwack, British Columbia, Canada, V2R4M4","title":"Johnston's Fresh Local Quality Meats"}},{"type":"Feature","geometry":{"type":"Point","coordinates":[-122.514,49.1493]},"properties":{"url:moreinfo":"http:\/\/foodtree.com\/sources\/5899","urltitle:moreinfo":"Please visit Walter's Exotic Meats on Foodtree","address":"25645 82nd Avenue, Langley, British Columbia, Canada, V1M2M8","title":"Walter's Exotic Meats"}},{"type":"Feature","geometry":{"type":"Point","coordinates":[-122.981003,49.272499]},"properties":{"url:moreinfo":"http:\/\/foodtree.com\/sources\/5900","urltitle:moreinfo":"Please visit Fentiman's Botanically Brewed Beverages on Foodtree","address":"2286 Holdom Avenue, Burnaby, British Columbia, Canada, V5B4Y5","title":"Fentiman's Botanically Brewed Beverages"}},{"type":"Feature","geometry":{"type":"Point","coordinates":[-125.169998,49.844898]},"properties":{"url:moreinfo":"http:\/\/foodtree.com\/sources\/5902","urltitle:moreinfo":"Please visit Vancouver Island Bison on Foodtree","address":"3100 Hamm Road, Black Creek, British Columbia, Canada, V9J1B4","title":"Vancouver Island Bison"}},{"type":"Feature","geometry":{"type":"Point","coordinates":[-123.153,49.261002]},"properties":{"url:moreinfo":"http:\/\/foodtree.com\/sources\/5881","urltitle:moreinfo":"Please visit Pete's Meats Butcher Shop & Deli on Foodtree","address":"2817 Arbutus Street, Vancouver, British Columbia, Canada, V6J3Y5","title":"Pete's Meats Butcher Shop & Deli"}}],"properties":{"title":"Pete's Meats Butcher Shop & Deli"}}