{"type":"FeatureCollection","features":[{"type":"Feature","geometry":{"type":"Point","coordinates":[121.4737039831,31.230392996084]},"properties":{"title":"Shanghai, China","address":"Shanghai, China","description":"","stop_instance_id":"stop-1","supplychain_instance_id":"supplychain-1"}},{"type":"Feature","geometry":{"type":"Point","coordinates":[103.84998018554,1.2894364998206]},"properties":{"title":"Singapore, Singapore","address":"Singapore","description":"","stop_instance_id":"stop-4","supplychain_instance_id":"supplychain-1"}},{"type":"Feature","geometry":{"type":"Point","coordinates":[114.10949698411,22.396427997041]},"properties":{"title":"Hong Kong, China","address":"Hong Kong","description":"","stop_instance_id":"stop-9","supplychain_instance_id":"supplychain-1"}},{"type":"Feature","geometry":{"type":"Point","coordinates":[114.05786798412,22.543098997024]},"properties":{"title":"Shenzhen, China","address":"Shenzhen, Guangdong, China","description":"www.szport.net","stop_instance_id":"stop-25","supplychain_instance_id":"supplychain-1","weight":"0","co2e":"0","energy":"0","water":"0","youtube:link":""}},{"type":"Feature","geometry":{"type":"Point","coordinates":[129.07564158203,35.179554295719]},"properties":{"title":"Busan, South Korea","address":"Busan, South Korea","description":"","stop_instance_id":"stop-38","supplychain_instance_id":"supplychain-1"}},{"type":"Feature","geometry":{"type":"Point","coordinates":[121.80817678305,29.888831196217]},"properties":{"youtube:link":"http:\/\/www.zhoushan.cn\/english\/","water":"0","energy":"0","co2e":"0","weight":"0","title":"Ningbo-Zhoushan, China","address":"Ningbo Expy, Beilun, Ningbo, Zhejiang, China, 315806","description":"","stop_instance_id":"stop-49","supplychain_instance_id":"supplychain-1"}},{"type":"Feature","geometry":{"type":"Point","coordinates":[113.26443498424,23.129162996955]},"properties":{"title":"Guangzhou Harbor, China","address":"Guangzhou, Guangdong, China","description":"","stop_instance_id":"stop-62","supplychain_instance_id":"supplychain-1"}},{"type":"Feature","geometry":{"type":"Point","coordinates":[120.38250398324,36.067219995644]},"properties":{"title":"Qingdao, China","address":"Qingdao, Shandong, China","description":"","stop_instance_id":"stop-77","supplychain_instance_id":"supplychain-1"}},{"type":"Feature","geometry":{"type":"Point","coordinates":[55.311666692301,25.264444396711]},"properties":{"title":"Dubai, United Arab Emirates","address":"Dubai - United Arab Emirates","description":"","stop_instance_id":"stop-94","supplychain_instance_id":"supplychain-1"}},{"type":"Feature","geometry":{"type":"Point","coordinates":[4.4817759993762,51.924215994766]},"properties":{"title":"Rotterdam, Netherlands","address":"Rotterdam, The Netherlands","description":"","stop_instance_id":"stop-113","supplychain_instance_id":"supplychain-1"}},{"type":"Feature","geometry":{"type":"Point","coordinates":[117.20098298369,39.084157995405]},"properties":{"title":"Tianjin, China","address":"Tianjin, China","description":"","stop_instance_id":"stop-134","supplychain_instance_id":"supplychain-1"}},{"type":"Feature","geometry":{"type":"Point","coordinates":[120.6660043832,23.010871396969]},"properties":{"title":"Kaohsiung, Taiwan, China","address":"Kaohsiung City, Taiwan","description":"","stop_instance_id":"stop-157","supplychain_instance_id":"supplychain-1"}},{"type":"Feature","geometry":{"type":"Point","coordinates":[101.41337588588,3.0041689995822]},"properties":{"title":"Port Kelang, Malaysia","address":"Port Klang, Selangor, Malaysia","description":"","stop_instance_id":"stop-182","supplychain_instance_id":"supplychain-1"}},{"type":"Feature","geometry":{"type":"Point","coordinates":[4.4028817993872,51.219215894784]},"properties":{"title":"Antwerp, Belgium","address":"Antwerpen, Belgium","description":"","stop_instance_id":"stop-209","supplychain_instance_id":"supplychain-1"}},{"type":"Feature","geometry":{"type":"Point","coordinates":[9.9936817986085,53.551084594736]},"properties":{"title":"Hamburg, Germany","address":"Hamburg, Germany","description":"","stop_instance_id":"stop-238","supplychain_instance_id":"supplychain-1"}},{"type":"Feature","geometry":{"type":"Point","coordinates":[103.57244698558,1.3835679998075]},"properties":{"title":"Tanjung Pelepas, Malaysia","address":"Tanjung Pelepas Hwy, Gelang Patah, Johor, Malaysia","description":"","stop_instance_id":"stop-269","supplychain_instance_id":"supplychain-1"}},{"type":"Feature","geometry":{"type":"Point","coordinates":[-118.24368488354,34.052234195819]},"properties":{"title":"Los Angeles, U.S.A","address":"Los Angeles, CA, USA","description":"","stop_instance_id":"stop-302","supplychain_instance_id":"supplychain-1"}},{"type":"Feature","geometry":{"type":"Point","coordinates":[-118.19561678354,33.768320995844]},"properties":{"title":"Long Beach, U.S.A.","address":"Long Beach, CA, USA","description":"","stop_instance_id":"stop-337","supplychain_instance_id":"supplychain-1","weight":"0","co2e":"0","energy":"0","water":"0","youtube:link":"http:\/\/www.youtube.com\/watch?v=v3QsLoQaCr4&list=UUBynSyz7kItQhBeOmZCitCw&index=10&feature=plcp"}},{"type":"Feature","geometry":{"type":"Point","coordinates":[118.08941998356,24.479835996799]},"properties":{"title":"Xiamen, China","address":"Xiamen, Fujian, China","description":"","stop_instance_id":"stop-374","supplychain_instance_id":"supplychain-1"}},{"type":"Feature","geometry":{"type":"Point","coordinates":[-74.005973089698,40.714352795289]},"properties":{"title":"New York and New Jersey, U.S.A","address":"New York, NY, USA","description":"","stop_instance_id":"stop-413","supplychain_instance_id":"supplychain-1","weight":"0","co2e":"0","energy":"0","water":"0","flickr:setid":"","youtube:link":"http:\/\/www.youtube.com\/watch?v=_8tRMjnw3uw"}},{"type":"Feature","geometry":{"type":"LineString","coordinates":[[-74.005973089698,40.714352795289],[4.4817759993762,51.924215994766]]},"properties":{"title":"New York and New Jersey, U.S.A to Rotterdam, Netherlands","distance":"5853.712952","co2e":"0"}},{"type":"Feature","geometry":{"type":"LineString","coordinates":[[-74.005973089698,40.714352795289],[9.9936817986085,53.551084594736]]},"properties":{"distance":"6129.794128","co2e":"0","title":"New York and New Jersey, U.S.A to Hamburg, Germany"}},{"type":"Feature","geometry":{"type":"LineString","coordinates":[[-74.005973089698,40.714352795289],[4.4028817993872,51.219215894784]]},"properties":{"distance":"5876.843361","title":"New York and New Jersey, U.S.A to Antwerp, Belgium"}}],"properties":{"description":"World Shipping Council","sm:ui:tileset":"terrain","tags":"","title":"Top 20 World Container Ports 2010"}}