{"type":"FeatureCollection","features":[{"type":"Feature","geometry":{"type":"Point","coordinates":[-95.712890999999,37.090240000003]},"properties":{"description":"494.95","address":"United States Of America","placename":"United States","title":"Ylagan"}},{"type":"Feature","geometry":{"type":"Point","coordinates":[-90.230759000004,15.783470999998]},"properties":{"description":"512","address":"Guatemala","placename":"Guatemala","title":"Generadora de Energias Limpias S.A."}},{"type":"Feature","geometry":{"type":"Point","coordinates":[29.154857000003,-19.015437999997]},"properties":{"description":"528","address":"Zimbabwe","placename":"Zimbabwe","title":"Walters"}},{"type":"Feature","geometry":{"type":"Point","coordinates":[-95.712890999999,37.090240000003]},"properties":{"description":"528","address":"United States Of America","placename":"United States","title":"Vilsack"}},{"type":"Feature","geometry":{"type":"Point","coordinates":[100.992541,15.870032]},"properties":{"description":"533.13","address":"Thailand","placename":"Thailand","title":"Ryan"}},{"type":"Feature","geometry":{"type":"Point","coordinates":[-95.712890999999,37.090240000003]},"properties":{"description":"538.71","address":"United States Of America","placename":"United States","title":"Appleton"}},{"type":"Feature","geometry":{"type":"Point","coordinates":[-95.712890999999,37.090240000003]},"properties":{"description":"538.71","address":"United States Of America","placename":"United States","title":"CCoD Environmental Health"}},{"type":"Feature","geometry":{"type":"Point","coordinates":[-95.712890999999,37.090240000003]},"properties":{"description":"538.71","address":"United States Of America","placename":"United States","title":"Monson"}},{"type":"Feature","geometry":{"type":"Point","coordinates":[-95.712890999999,37.090240000003]},"properties":{"description":"538.71","address":"United States Of America","placename":"United States","title":"Off the Grid Survival Gear"}},{"type":"Feature","geometry":{"type":"Point","coordinates":[101.975766,4.2104840000023]},"properties":{"description":"552.4","address":"Malaysia","placename":"Malaysia","title":"Chin"}},{"type":"Feature","geometry":{"type":"Point","coordinates":[-95.712890999999,37.090240000003]},"properties":{"description":"570","address":"United States Of America","placename":"United States","title":"Juniper Trust"}},{"type":"Feature","geometry":{"type":"Point","coordinates":[53.847818000001,23.424076000003]},"properties":{"description":"574.63","address":"United Arab Emirates","placename":"United Arab Emirates","title":"mohammed"}},{"type":"Feature","geometry":{"type":"Point","coordinates":[30.217635999996,12.862807000002]},"properties":{"description":"575.3","address":"Sudan","placename":"Sudan","title":"Helal"}},{"type":"Feature","geometry":{"type":"Point","coordinates":[8.6752770000036,9.0819989999966]},"properties":{"description":"588.1","address":"Nigeria","placename":"Nigeria","title":"Channel IT Nigeria Limited"}},{"type":"Feature","geometry":{"type":"Point","coordinates":[-95.712890999999,37.090240000003]},"properties":{"description":"617.99","address":"United States Of America","placename":"United States","title":"Polder Inc."}},{"type":"Feature","geometry":{"type":"Point","coordinates":[-95.712890999999,37.090240000003]},"properties":{"description":"648.51","address":"United States Of America","placename":"United States","title":"All Hands Disaster Relief"}},{"type":"Feature","geometry":{"type":"Point","coordinates":[29.154857000003,-19.015437999997]},"properties":{"description":"672","address":"Zimbabwe","placename":"Zimbabwe","title":"Impact Electronic Systems"}},{"type":"Feature","geometry":{"type":"Point","coordinates":[-95.712890999999,37.090240000003]},"properties":{"description":"672","address":"United States Of America","placename":"United States","title":"Sephra LP"}},{"type":"Feature","geometry":{"type":"Point","coordinates":[34.301525000002,-13.254308]},"properties":{"description":"672","address":"Malawi","placename":"Malawi","title":"CONCERN UNIVERSAL, MSAMALA SUSTAINABLE ENERGY PROJECT"}},{"type":"Feature","geometry":{"type":"Point","coordinates":[138.252924,36.204824000001]},"properties":{"description":"672","address":"Japan","placename":"Japan","title":"Cosmo System USA"}},{"type":"Feature","geometry":{"type":"Point","coordinates":[114.109497,22.396428000004]},"properties":{"description":"672","address":"Hong Kong","placename":"Hong Kong","title":"Sancus Group"}},{"type":"Feature","geometry":{"type":"Point","coordinates":[21.824312000004,39.074207999997]},"properties":{"description":"672","address":"Greece","placename":"Greece","title":"PLAN S.A."}},{"type":"Feature","geometry":{"type":"Point","coordinates":[32.290275000002,1.3733329999983]},"properties":{"description":"718.28","address":"Uganda","placename":"Uganda","title":"Solar Sister c\/o Sarah Kasule"}},{"type":"Feature","geometry":{"type":"Point","coordinates":[-95.712890999999,37.090240000003]},"properties":{"description":"730","address":"United States Of America","placename":"United States","title":"Citereh Communications"}},{"type":"Feature","geometry":{"type":"Point","coordinates":[100.992541,15.870032]},"properties":{"description":"750","address":"Thailand","placename":"Thailand","title":"Warm Heart Foundation"}},{"type":"Feature","geometry":{"type":"Point","coordinates":[-95.712890999999,37.090240000003]},"properties":{"description":"772.15","address":"United States Of America","placename":"United States","title":"Winter"}},{"type":"Feature","geometry":{"type":"Point","coordinates":[-95.712890999999,37.090240000003]},"properties":{"description":"776.17","address":"United States Of America","placename":"United States","title":"Project C.U.R.E."}},{"type":"Feature","geometry":{"type":"Point","coordinates":[-95.712890999999,37.090240000003]},"properties":{"description":"791","address":"United States Of America","placename":"United States","title":"EdMac Inc"}},{"type":"Feature","geometry":{"type":"Point","coordinates":[5.2912660000021,52.132633000001]},"properties":{"description":"792","address":"Netherlands","placename":"The Netherlands","title":"Sids Camp Store"}},{"type":"Feature","geometry":{"type":"Point","coordinates":[133.775136,-25.274397999999]},"properties":{"description":"792","address":"Australia","placename":"Australia","title":"Solair"}},{"type":"Feature","geometry":{"type":"Point","coordinates":[-95.712890999999,37.090240000003]},"properties":{"description":"802","address":"United States Of America","placename":"United States","title":"Martinez"}},{"type":"Feature","geometry":{"type":"Point","coordinates":[-95.712890999999,37.090240000003]},"properties":{"description":"864","address":"United States Of America","placename":"United States","title":"Green Living Everyday"}},{"type":"Feature","geometry":{"type":"Point","coordinates":[-95.712890999999,37.090240000003]},"properties":{"description":"900","address":"United States Of America","placename":"United States","title":"Cite Soleil Opportunity Counci"}},{"type":"Feature","geometry":{"type":"Point","coordinates":[133.775136,-25.274397999999]},"properties":{"description":"900","address":"Australia","placename":"Australia","title":"Solair"}},{"type":"Feature","geometry":{"type":"Point","coordinates":[-95.712890999999,37.090240000003]},"properties":{"description":"912","address":"United States Of America","placename":"United States","title":"Micasia International Inc."}},{"type":"Feature","geometry":{"type":"Point","coordinates":[-106.346771,56.130366000001]},"properties":{"description":"960","address":"Canada","placename":"Canada","title":"Gowans"}},{"type":"Feature","geometry":{"type":"Point","coordinates":[-63.588652999998,-16.290154000002]},"properties":{"description":"997.92","address":"Bolivia","placename":"Bolivia","title":"Samay"}},{"type":"Feature","geometry":{"type":"Point","coordinates":[-95.712890999999,37.090240000003]},"properties":{"description":"999","address":"United States Of America","placename":"United States","title":"Digirolamo"}},{"type":"Feature","geometry":{"type":"Point","coordinates":[-95.712890999999,37.090240000003]},"properties":{"description":"999","address":"United States Of America","placename":"United States","title":"My Family Emergency Services"}},{"type":"Feature","geometry":{"type":"Point","coordinates":[-95.712890999999,37.090240000003]},"properties":{"description":"999","address":"United States Of America","placename":"United States","title":"American Emergency Supply"}},{"type":"Feature","geometry":{"type":"Point","coordinates":[121.774017,12.879720999999]},"properties":{"description":"999","address":"Philippines","placename":"Philippines","title":"Valla"}},{"type":"Feature","geometry":{"type":"Point","coordinates":[5.2912660000021,52.132633000001]},"properties":{"description":"999","address":"Netherlands","placename":"The Netherlands","title":"Sids Camp Store"}},{"type":"Feature","geometry":{"type":"Point","coordinates":[101.975766,4.2104840000023]},"properties":{"description":"999","address":"Malaysia","placename":"Malaysia","title":"Hoon"}},{"type":"Feature","geometry":{"type":"Point","coordinates":[37.906193000004,-0.023558999995522]},"properties":{"description":"999","address":"Kenya","placename":"Kenya","title":"Midas Marketing"}},{"type":"Feature","geometry":{"type":"Point","coordinates":[34.301525000002,-13.254308]},"properties":{"description":"1003.68","address":"Malawi","placename":"Malawi","title":"FEGS Distributors"}},{"type":"Feature","geometry":{"type":"Point","coordinates":[-95.712890999999,37.090240000003]},"properties":{"description":"1008","address":"United States Of America","placename":"United States","title":"Cherry Hills Community Church"}},{"type":"Feature","geometry":{"type":"Point","coordinates":[-95.712890999999,37.090240000003]},"properties":{"description":"1008","address":"United States Of America","placename":"United States","title":"E3 International"}},{"type":"Feature","geometry":{"type":"Point","coordinates":[-95.712890999999,37.090240000003]},"properties":{"description":"1008","address":"United States Of America","placename":"United States","title":"First Baptist Church"}},{"type":"Feature","geometry":{"type":"Point","coordinates":[-95.712890999999,37.090240000003]},"properties":{"description":"1008","address":"United States Of America","placename":"United States","title":"ChooseUp.com div of Cascade Engineering"}},{"type":"Feature","geometry":{"type":"Point","coordinates":[-95.712890999999,37.090240000003]},"properties":{"description":"1008","address":"United States Of America","placename":"United States","title":"Dacablue Power Systems"}},{"type":"Feature","geometry":{"type":"Point","coordinates":[-95.712890999999,37.090240000003]},"properties":{"description":"1008","address":"United States Of America","placename":"United States","title":"Universal Specialties"}},{"type":"Feature","geometry":{"type":"Point","coordinates":[32.290275000002,1.3733329999983]},"properties":{"description":"1008","address":"Uganda","placename":"Uganda","title":"Dennis"}},{"type":"Feature","geometry":{"type":"Point","coordinates":[-3.7492200000004,40.463667000002]},"properties":{"description":"1008","address":"Spain","placename":"Spain","title":"Ecosnat Distribution"}},{"type":"Feature","geometry":{"type":"Point","coordinates":[-3.7492200000004,40.463667000002]},"properties":{"description":"1008","address":"Spain","placename":"Spain","title":"Ecosnat Distribution"}},{"type":"Feature","geometry":{"type":"Point","coordinates":[-71.542969,-35.675146999998]},"properties":{"description":"1008","address":"Chile","placename":"Chile","title":"Reyes"}},{"type":"Feature","geometry":{"type":"Point","coordinates":[-95.712890999999,37.090240000003]},"properties":{"description":"1032.95","address":"United States Of America","placename":"United States","title":"Penny's Pantry"}},{"type":"Feature","geometry":{"type":"Point","coordinates":[-95.712890999999,37.090240000003]},"properties":{"description":"1037.92","address":"United States Of America","placename":"United States","title":"WS Quality Products"}},{"type":"Feature","geometry":{"type":"Point","coordinates":[37.906193000004,-0.023558999995522]},"properties":{"description":"1055","address":"Kenya","placename":"Kenya","title":"Muiri Consult"}},{"type":"Feature","geometry":{"type":"Point","coordinates":[-95.712890999999,37.090240000003]},"properties":{"description":"1056","address":"United States Of America","placename":"United States","title":"Haiti 10-Year Commission"}},{"type":"Feature","geometry":{"type":"Point","coordinates":[-95.712890999999,37.090240000003]},"properties":{"description":"1099.11","address":"United States Of America","placename":"United States","title":"ROW"}},{"type":"Feature","geometry":{"type":"Point","coordinates":[-95.712890999999,37.090240000003]},"properties":{"description":"1128.83","address":"United States Of America","placename":"United States","title":"Monson"}},{"type":"Feature","geometry":{"type":"Point","coordinates":[-95.712890999999,37.090240000003]},"properties":{"description":"1128.84","address":"United States Of America","placename":"United States","title":"Direct Advantage Sales"}},{"type":"Feature","geometry":{"type":"Point","coordinates":[8.2275120000041,46.818187999999]},"properties":{"description":"1131.28","address":"Switzerland","placename":"Switzerland","title":"rrrevolve trading lanz"}},{"type":"Feature","geometry":{"type":"Point","coordinates":[-95.712890999999,37.090240000003]},"properties":{"description":"1137.6","address":"United States Of America","placename":"United States","title":"Green Living Everyday"}},{"type":"Feature","geometry":{"type":"Point","coordinates":[113.921327,-0.78927499999687]},"properties":{"description":"1151.12","address":"Indonesia","placename":"Indonesia","title":"Ham"}},{"type":"Feature","geometry":{"type":"Point","coordinates":[113.921327,-0.78927499999687]},"properties":{"description":"1151.4","address":"Indonesia","placename":"Indonesia","title":"HAM"}},{"type":"Feature","geometry":{"type":"Point","coordinates":[-95.712890999999,37.090240000003]},"properties":{"description":"1216.56","address":"United States Of America","placename":"United States","title":"mobley"}},{"type":"Feature","geometry":{"type":"Point","coordinates":[-95.712890999999,37.090240000003]},"properties":{"description":"1216.56","address":"United States Of America","placename":"United States","title":"SAFARI LTD"}},{"type":"Feature","geometry":{"type":"Point","coordinates":[-3.7492200000004,40.463667000002]},"properties":{"description":"1217.96","address":"Spain","placename":"Spain","title":"Quintana"}},{"type":"Feature","geometry":{"type":"Point","coordinates":[-95.712890999999,37.090240000003]},"properties":{"description":"1218.5","address":"United States Of America","placename":"United States","title":"Svaren"}},{"type":"Feature","geometry":{"type":"Point","coordinates":[21.824312000004,39.074207999997]},"properties":{"description":"1219.34","address":"Greece","placename":"Greece","title":"Energodomi Panagopoulos"}},{"type":"Feature","geometry":{"type":"Point","coordinates":[-95.712890999999,37.090240000003]},"properties":{"description":"1219.68","address":"United States Of America","placename":"United States","title":"Texas Solar Energy Society\/North Texas Chapter"}},{"type":"Feature","geometry":{"type":"Point","coordinates":[-95.712890999999,37.090240000003]},"properties":{"description":"1219.68","address":"United States Of America","placename":"United States","title":"American Green"}},{"type":"Feature","geometry":{"type":"Point","coordinates":[-95.712890999999,37.090240000003]},"properties":{"description":"1219.68","address":"United States Of America","placename":"United States","title":"mobley"}},{"type":"Feature","geometry":{"type":"Point","coordinates":[-95.712890999999,37.090240000003]},"properties":{"description":"1219.68","address":"United States Of America","placename":"United States","title":"AddoSolar"}},{"type":"Feature","geometry":{"type":"Point","coordinates":[-95.712890999999,37.090240000003]},"properties":{"description":"1219.68","address":"United States Of America","placename":"United States","title":"Nokero TEST ONLY DO NOT SEND"}},{"type":"Feature","geometry":{"type":"Point","coordinates":[-95.712890999999,37.090240000003]},"properties":{"description":"1220","address":"United States Of America","placename":"United States","title":"Svaren"}},{"type":"Feature","geometry":{"type":"Point","coordinates":[-95.712890999999,37.090240000003]},"properties":{"description":"1220.07","address":"United States Of America","placename":"United States","title":"Cite Soleil Opportunity Counci"}},{"type":"Feature","geometry":{"type":"Point","coordinates":[-95.712890999999,37.090240000003]},"properties":{"description":"1220.14","address":"United States Of America","placename":"United States","title":"Pacific Solar Lighting"}},{"type":"Feature","geometry":{"type":"Point","coordinates":[-95.712890999999,37.090240000003]},"properties":{"description":"1225","address":"United States Of America","placename":"United States","title":"EdMac Inc"}},{"type":"Feature","geometry":{"type":"Point","coordinates":[-1.0231940000024,7.9465270000027]},"properties":{"description":"1246","address":"Ghana","placename":"Ghana","title":"Mirex Gulf Resources"}},{"type":"Feature","geometry":{"type":"Point","coordinates":[78.962879999997,20.593684000004]},"properties":{"description":"1261.17","address":"India","placename":"India","title":"Batti"}},{"type":"Feature","geometry":{"type":"Point","coordinates":[78.962879999997,20.593684000004]},"properties":{"description":"1261.3","address":"India","placename":"India","title":"N.P.S Event Services"}},{"type":"Feature","geometry":{"type":"Point","coordinates":[12.567380000004,41.871939999999]},"properties":{"description":"1269.78","address":"Italy","placename":"Italy","title":"Greenshopvideo P.Iva 06958571215"}},{"type":"Feature","geometry":{"type":"Point","coordinates":[0,0]},"properties":{"description":"1296","address":"China Mainland(Major areas)","title":"Ze Feng Wu"}},{"type":"Feature","geometry":{"type":"Point","coordinates":[30.217635999996,12.862807000002]},"properties":{"description":"1310.31","address":"Sudan","placename":"Sudan","title":"Helal"}},{"type":"Feature","geometry":{"type":"Point","coordinates":[-95.712890999999,37.090240000003]},"properties":{"description":"1344","address":"United States Of America","placename":"United States","title":"Serve Haiti"}},{"type":"Feature","geometry":{"type":"Point","coordinates":[101.975766,4.2104840000023]},"properties":{"description":"1344","address":"Malaysia","placename":"Malaysia","title":"Hashim"}},{"type":"Feature","geometry":{"type":"Point","coordinates":[138.252924,36.204824000001]},"properties":{"description":"1344","address":"Japan","placename":"Japan","title":"GRANDEX, Inc."}},{"type":"Feature","geometry":{"type":"Point","coordinates":[37.906193000004,-0.023558999995522]},"properties":{"description":"1392","address":"Kenya","placename":"Kenya","title":"Kant's"}},{"type":"Feature","geometry":{"type":"Point","coordinates":[37.906193000004,-0.023558999995522]},"properties":{"description":"1421.14","address":"Kenya","placename":"Kenya","title":"Timau Mission"}},{"type":"Feature","geometry":{"type":"Point","coordinates":[-95.712890999999,37.090240000003]},"properties":{"description":"1680","address":"United States Of America","placename":"United States","title":"the PET Project"}},{"type":"Feature","geometry":{"type":"Point","coordinates":[-95.712890999999,37.090240000003]},"properties":{"description":"1680","address":"United States Of America","placename":"United States","title":"the PET Project"}},{"type":"Feature","geometry":{"type":"Point","coordinates":[-75.015152,-9.1899670000004]},"properties":{"description":"1776","address":"Peru","placename":"Peru","title":"Anglo Trading, S.A.C."}},{"type":"Feature","geometry":{"type":"Point","coordinates":[-95.712890999999,37.090240000003]},"properties":{"description":"1998","address":"United States Of America","placename":"United States","title":"Tarver program Consultants Inc."}},{"type":"Feature","geometry":{"type":"Point","coordinates":[138.252924,36.204824000001]},"properties":{"description":"2016","address":"Japan","placename":"Japan","title":"GRANDEX, Inc."}},{"type":"Feature","geometry":{"type":"Point","coordinates":[-95.712890999999,37.090240000003]},"properties":{"description":"2190.23","address":"United States Of America","placename":"United States","title":"WS Quality Products"}},{"type":"Feature","geometry":{"type":"Point","coordinates":[121.774017,12.879720999999]},"properties":{"description":"2282.79","address":"Philippines","placename":"Philippines","title":"Sasonbi, Inc."}},{"type":"Feature","geometry":{"type":"Point","coordinates":[53.847818000001,23.424076000003]},"properties":{"description":"2376","address":"United Arab Emirates","placename":"United Arab Emirates","title":"Alpha Tech (Alpha 55 Branch Fzco)"}},{"type":"Feature","geometry":{"type":"Point","coordinates":[-95.712890999999,37.090240000003]},"properties":{"description":"3130.5","address":"United States Of America","placename":"United States","title":"Micasia International"}},{"type":"Feature","geometry":{"type":"Point","coordinates":[101.975766,4.2104840000023]},"properties":{"description":"3360","address":"Malaysia","placename":"Malaysia","title":"Teh Su Meng"}},{"type":"Feature","geometry":{"type":"Point","coordinates":[133.775136,-25.274397999999]},"properties":{"description":"3708","address":"Australia","placename":"Australia","title":"Zen Imports Pty Ltd"}},{"type":"Feature","geometry":{"type":"Point","coordinates":[-95.712890999999,37.090240000003]},"properties":{"description":"4704","address":"United States Of America","placename":"United States","title":"Callahan"}},{"type":"Feature","geometry":{"type":"Point","coordinates":[-95.712890999999,37.090240000003]},"properties":{"description":"4704.38","address":"United States Of America","placename":"United States","title":"FilAid"}},{"type":"Feature","geometry":{"type":"Point","coordinates":[-95.712890999999,37.090240000003]},"properties":{"description":"4896","address":"United States Of America","placename":"United States","title":"Friends of Belle-Riviere"}},{"type":"Feature","geometry":{"type":"Point","coordinates":[-95.712890999999,37.090240000003]},"properties":{"description":"5544","address":"United States Of America","placename":"United States","title":"Western North Carolina Green Building Council"}},{"type":"Feature","geometry":{"type":"Point","coordinates":[32.290275000002,1.3733329999983]},"properties":{"description":"5544","address":"Uganda","placename":"Uganda","title":"Solar Sister c\/o Evelyn Namara, Program Coordinator"}},{"type":"Feature","geometry":{"type":"Point","coordinates":[121.774017,12.879720999999]},"properties":{"description":"5544","address":"Philippines","placename":"Philippines","title":"Sasonbi, Inc."}},{"type":"Feature","geometry":{"type":"Point","coordinates":[-72.285214999997,18.971187000004]},"properties":{"description":"5544","address":"Haiti","placename":"Haiti","title":"Gospel to Haiti - Corrine & Clinton Wolf"}},{"type":"Feature","geometry":{"type":"Point","coordinates":[-95.712890999999,37.090240000003]},"properties":{"description":"7852.65","address":"United States Of America","placename":"United States","title":"Urban Zen Foundation"}},{"type":"Feature","geometry":{"type":"Point","coordinates":[8.6752770000036,9.0819989999966]},"properties":{"description":"11088","address":"Nigeria","placename":"Nigeria","title":"Kala Consulting Solutions"}},{"type":"Feature","geometry":{"type":"Point","coordinates":[114.109497,22.396428000004]},"properties":{"address":"Hong Kong","placename":"Hong Kong","title":"Nokero"}},{"type":"Feature","geometry":{"type":"LineString","coordinates":[[114.109497,22.396428000004],[8.6752770000036,9.0819989999966]]},"properties":[]},{"type":"Feature","geometry":{"type":"LineString","coordinates":[[114.109497,22.396428000004],[-95.712890999999,37.090240000003]]},"properties":[]},{"type":"Feature","geometry":{"type":"LineString","coordinates":[[114.109497,22.396428000004],[-72.285214999997,18.971187000004]]},"properties":[]},{"type":"Feature","geometry":{"type":"LineString","coordinates":[[114.109497,22.396428000004],[121.774017,12.879720999999]]},"properties":[]},{"type":"Feature","geometry":{"type":"LineString","coordinates":[[114.109497,22.396428000004],[32.290275000002,1.3733329999983]]},"properties":[]},{"type":"Feature","geometry":{"type":"LineString","coordinates":[[114.109497,22.396428000004],[-95.712890999999,37.090240000003]]},"properties":[]},{"type":"Feature","geometry":{"type":"LineString","coordinates":[[114.109497,22.396428000004],[-95.712890999999,37.090240000003]]},"properties":[]},{"type":"Feature","geometry":{"type":"LineString","coordinates":[[114.109497,22.396428000004],[-95.712890999999,37.090240000003]]},"properties":[]},{"type":"Feature","geometry":{"type":"LineString","coordinates":[[114.109497,22.396428000004],[-95.712890999999,37.090240000003]]},"properties":[]},{"type":"Feature","geometry":{"type":"LineString","coordinates":[[114.109497,22.396428000004],[133.775136,-25.274397999999]]},"properties":[]},{"type":"Feature","geometry":{"type":"LineString","coordinates":[[114.109497,22.396428000004],[101.975766,4.2104840000023]]},"properties":[]},{"type":"Feature","geometry":{"type":"LineString","coordinates":[[114.109497,22.396428000004],[-95.712890999999,37.090240000003]]},"properties":[]},{"type":"Feature","geometry":{"type":"LineString","coordinates":[[114.109497,22.396428000004],[53.847818000001,23.424076000003]]},"properties":[]},{"type":"Feature","geometry":{"type":"LineString","coordinates":[[114.109497,22.396428000004],[121.774017,12.879720999999]]},"properties":[]},{"type":"Feature","geometry":{"type":"LineString","coordinates":[[114.109497,22.396428000004],[-95.712890999999,37.090240000003]]},"properties":[]},{"type":"Feature","geometry":{"type":"LineString","coordinates":[[114.109497,22.396428000004],[138.252924,36.204824000001]]},"properties":[]},{"type":"Feature","geometry":{"type":"LineString","coordinates":[[114.109497,22.396428000004],[-95.712890999999,37.090240000003]]},"properties":[]},{"type":"Feature","geometry":{"type":"LineString","coordinates":[[114.109497,22.396428000004],[-75.015152,-9.1899670000004]]},"properties":[]},{"type":"Feature","geometry":{"type":"LineString","coordinates":[[114.109497,22.396428000004],[-95.712890999999,37.090240000003]]},"properties":[]},{"type":"Feature","geometry":{"type":"LineString","coordinates":[[114.109497,22.396428000004],[-95.712890999999,37.090240000003]]},"properties":[]},{"type":"Feature","geometry":{"type":"LineString","coordinates":[[114.109497,22.396428000004],[37.906193000004,-0.023558999995522]]},"properties":[]},{"type":"Feature","geometry":{"type":"LineString","coordinates":[[114.109497,22.396428000004],[37.906193000004,-0.023558999995522]]},"properties":[]},{"type":"Feature","geometry":{"type":"LineString","coordinates":[[114.109497,22.396428000004],[138.252924,36.204824000001]]},"properties":[]},{"type":"Feature","geometry":{"type":"LineString","coordinates":[[114.109497,22.396428000004],[101.975766,4.2104840000023]]},"properties":[]},{"type":"Feature","geometry":{"type":"LineString","coordinates":[[114.109497,22.396428000004],[-95.712890999999,37.090240000003]]},"properties":[]},{"type":"Feature","geometry":{"type":"LineString","coordinates":[[114.109497,22.396428000004],[30.217635999996,12.862807000002]]},"properties":[]},{"type":"Feature","geometry":{"type":"LineString","coordinates":[[114.109497,22.396428000004],[0,0]]},"properties":[]},{"type":"Feature","geometry":{"type":"LineString","coordinates":[[114.109497,22.396428000004],[12.567380000004,41.871939999999]]},"properties":[]},{"type":"Feature","geometry":{"type":"LineString","coordinates":[[114.109497,22.396428000004],[78.962879999997,20.593684000004]]},"properties":[]},{"type":"Feature","geometry":{"type":"LineString","coordinates":[[114.109497,22.396428000004],[78.962879999997,20.593684000004]]},"properties":[]},{"type":"Feature","geometry":{"type":"LineString","coordinates":[[114.109497,22.396428000004],[-1.0231940000024,7.9465270000027]]},"properties":[]},{"type":"Feature","geometry":{"type":"LineString","coordinates":[[114.109497,22.396428000004],[-95.712890999999,37.090240000003]]},"properties":[]},{"type":"Feature","geometry":{"type":"LineString","coordinates":[[114.109497,22.396428000004],[-95.712890999999,37.090240000003]]},"properties":[]},{"type":"Feature","geometry":{"type":"LineString","coordinates":[[114.109497,22.396428000004],[-95.712890999999,37.090240000003]]},"properties":[]},{"type":"Feature","geometry":{"type":"LineString","coordinates":[[114.109497,22.396428000004],[-95.712890999999,37.090240000003]]},"properties":[]},{"type":"Feature","geometry":{"type":"LineString","coordinates":[[114.109497,22.396428000004],[-95.712890999999,37.090240000003]]},"properties":[]},{"type":"Feature","geometry":{"type":"LineString","coordinates":[[114.109497,22.396428000004],[-95.712890999999,37.090240000003]]},"properties":[]},{"type":"Feature","geometry":{"type":"LineString","coordinates":[[114.109497,22.396428000004],[-95.712890999999,37.090240000003]]},"properties":[]},{"type":"Feature","geometry":{"type":"LineString","coordinates":[[114.109497,22.396428000004],[-95.712890999999,37.090240000003]]},"properties":[]},{"type":"Feature","geometry":{"type":"LineString","coordinates":[[114.109497,22.396428000004],[-95.712890999999,37.090240000003]]},"properties":[]},{"type":"Feature","geometry":{"type":"LineString","coordinates":[[114.109497,22.396428000004],[21.824312000004,39.074207999997]]},"properties":[]},{"type":"Feature","geometry":{"type":"LineString","coordinates":[[114.109497,22.396428000004],[-95.712890999999,37.090240000003]]},"properties":[]},{"type":"Feature","geometry":{"type":"LineString","coordinates":[[114.109497,22.396428000004],[-3.7492200000004,40.463667000002]]},"properties":[]},{"type":"Feature","geometry":{"type":"LineString","coordinates":[[114.109497,22.396428000004],[-95.712890999999,37.090240000003]]},"properties":[]},{"type":"Feature","geometry":{"type":"LineString","coordinates":[[114.109497,22.396428000004],[-95.712890999999,37.090240000003]]},"properties":[]},{"type":"Feature","geometry":{"type":"LineString","coordinates":[[114.109497,22.396428000004],[113.921327,-0.78927499999687]]},"properties":[]},{"type":"Feature","geometry":{"type":"LineString","coordinates":[[114.109497,22.396428000004],[113.921327,-0.78927499999687]]},"properties":[]},{"type":"Feature","geometry":{"type":"LineString","coordinates":[[114.109497,22.396428000004],[-95.712890999999,37.090240000003]]},"properties":[]},{"type":"Feature","geometry":{"type":"LineString","coordinates":[[114.109497,22.396428000004],[8.2275120000041,46.818187999999]]},"properties":[]},{"type":"Feature","geometry":{"type":"LineString","coordinates":[[114.109497,22.396428000004],[-95.712890999999,37.090240000003]]},"properties":[]},{"type":"Feature","geometry":{"type":"LineString","coordinates":[[114.109497,22.396428000004],[-95.712890999999,37.090240000003]]},"properties":[]},{"type":"Feature","geometry":{"type":"LineString","coordinates":[[114.109497,22.396428000004],[-95.712890999999,37.090240000003]]},"properties":[]},{"type":"Feature","geometry":{"type":"LineString","coordinates":[[114.109497,22.396428000004],[-95.712890999999,37.090240000003]]},"properties":[]},{"type":"Feature","geometry":{"type":"LineString","coordinates":[[114.109497,22.396428000004],[37.906193000004,-0.023558999995522]]},"properties":[]},{"type":"Feature","geometry":{"type":"LineString","coordinates":[[114.109497,22.396428000004],[-95.712890999999,37.090240000003]]},"properties":[]},{"type":"Feature","geometry":{"type":"LineString","coordinates":[[114.109497,22.396428000004],[-95.712890999999,37.090240000003]]},"properties":[]},{"type":"Feature","geometry":{"type":"LineString","coordinates":[[114.109497,22.396428000004],[-71.542969,-35.675146999998]]},"properties":[]},{"type":"Feature","geometry":{"type":"LineString","coordinates":[[114.109497,22.396428000004],[-3.7492200000004,40.463667000002]]},"properties":[]},{"type":"Feature","geometry":{"type":"LineString","coordinates":[[114.109497,22.396428000004],[-3.7492200000004,40.463667000002]]},"properties":[]},{"type":"Feature","geometry":{"type":"LineString","coordinates":[[114.109497,22.396428000004],[32.290275000002,1.3733329999983]]},"properties":[]},{"type":"Feature","geometry":{"type":"LineString","coordinates":[[114.109497,22.396428000004],[-95.712890999999,37.090240000003]]},"properties":[]},{"type":"Feature","geometry":{"type":"LineString","coordinates":[[114.109497,22.396428000004],[-95.712890999999,37.090240000003]]},"properties":[]},{"type":"Feature","geometry":{"type":"LineString","coordinates":[[114.109497,22.396428000004],[-95.712890999999,37.090240000003]]},"properties":[]},{"type":"Feature","geometry":{"type":"LineString","coordinates":[[114.109497,22.396428000004],[-95.712890999999,37.090240000003]]},"properties":[]},{"type":"Feature","geometry":{"type":"LineString","coordinates":[[114.109497,22.396428000004],[-95.712890999999,37.090240000003]]},"properties":[]},{"type":"Feature","geometry":{"type":"LineString","coordinates":[[114.109497,22.396428000004],[-95.712890999999,37.090240000003]]},"properties":[]},{"type":"Feature","geometry":{"type":"LineString","coordinates":[[114.109497,22.396428000004],[34.301525000002,-13.254308]]},"properties":[]},{"type":"Feature","geometry":{"type":"LineString","coordinates":[[114.109497,22.396428000004],[37.906193000004,-0.023558999995522]]},"properties":[]},{"type":"Feature","geometry":{"type":"LineString","coordinates":[[114.109497,22.396428000004],[101.975766,4.2104840000023]]},"properties":[]},{"type":"Feature","geometry":{"type":"LineString","coordinates":[[114.109497,22.396428000004],[5.2912660000021,52.132633000001]]},"properties":[]},{"type":"Feature","geometry":{"type":"LineString","coordinates":[[114.109497,22.396428000004],[121.774017,12.879720999999]]},"properties":[]},{"type":"Feature","geometry":{"type":"LineString","coordinates":[[114.109497,22.396428000004],[-95.712890999999,37.090240000003]]},"properties":[]},{"type":"Feature","geometry":{"type":"LineString","coordinates":[[114.109497,22.396428000004],[-95.712890999999,37.090240000003]]},"properties":[]},{"type":"Feature","geometry":{"type":"LineString","coordinates":[[114.109497,22.396428000004],[-95.712890999999,37.090240000003]]},"properties":[]},{"type":"Feature","geometry":{"type":"LineString","coordinates":[[114.109497,22.396428000004],[-63.588652999998,-16.290154000002]]},"properties":[]},{"type":"Feature","geometry":{"type":"LineString","coordinates":[[114.109497,22.396428000004],[-106.346771,56.130366000001]]},"properties":[]},{"type":"Feature","geometry":{"type":"LineString","coordinates":[[114.109497,22.396428000004],[-95.712890999999,37.090240000003]]},"properties":[]},{"type":"Feature","geometry":{"type":"LineString","coordinates":[[114.109497,22.396428000004],[133.775136,-25.274397999999]]},"properties":[]},{"type":"Feature","geometry":{"type":"LineString","coordinates":[[114.109497,22.396428000004],[-95.712890999999,37.090240000003]]},"properties":[]},{"type":"Feature","geometry":{"type":"LineString","coordinates":[[114.109497,22.396428000004],[-95.712890999999,37.090240000003]]},"properties":[]},{"type":"Feature","geometry":{"type":"LineString","coordinates":[[114.109497,22.396428000004],[-95.712890999999,37.090240000003]]},"properties":[]},{"type":"Feature","geometry":{"type":"LineString","coordinates":[[114.109497,22.396428000004],[133.775136,-25.274397999999]]},"properties":[]},{"type":"Feature","geometry":{"type":"LineString","coordinates":[[114.109497,22.396428000004],[5.2912660000021,52.132633000001]]},"properties":[]},{"type":"Feature","geometry":{"type":"LineString","coordinates":[[114.109497,22.396428000004],[-95.712890999999,37.090240000003]]},"properties":[]},{"type":"Feature","geometry":{"type":"LineString","coordinates":[[114.109497,22.396428000004],[-95.712890999999,37.090240000003]]},"properties":[]},{"type":"Feature","geometry":{"type":"LineString","coordinates":[[114.109497,22.396428000004],[-95.712890999999,37.090240000003]]},"properties":[]},{"type":"Feature","geometry":{"type":"LineString","coordinates":[[114.109497,22.396428000004],[100.992541,15.870032]]},"properties":[]},{"type":"Feature","geometry":{"type":"LineString","coordinates":[[114.109497,22.396428000004],[-95.712890999999,37.090240000003]]},"properties":[]},{"type":"Feature","geometry":{"type":"LineString","coordinates":[[114.109497,22.396428000004],[32.290275000002,1.3733329999983]]},"properties":[]},{"type":"Feature","geometry":{"type":"LineString","coordinates":[[114.109497,22.396428000004],[21.824312000004,39.074207999997]]},"properties":[]},{"type":"Feature","geometry":{"type":"LineString","coordinates":[[114.109497,22.396428000004],[114.109497,22.396428000004]]},"properties":[]},{"type":"Feature","geometry":{"type":"LineString","coordinates":[[114.109497,22.396428000004],[138.252924,36.204824000001]]},"properties":[]},{"type":"Feature","geometry":{"type":"LineString","coordinates":[[114.109497,22.396428000004],[34.301525000002,-13.254308]]},"properties":[]},{"type":"Feature","geometry":{"type":"LineString","coordinates":[[114.109497,22.396428000004],[-95.712890999999,37.090240000003]]},"properties":[]},{"type":"Feature","geometry":{"type":"LineString","coordinates":[[114.109497,22.396428000004],[29.154857000003,-19.015437999997]]},"properties":[]},{"type":"Feature","geometry":{"type":"LineString","coordinates":[[114.109497,22.396428000004],[-95.712890999999,37.090240000003]]},"properties":[]},{"type":"Feature","geometry":{"type":"LineString","coordinates":[[114.109497,22.396428000004],[-95.712890999999,37.090240000003]]},"properties":[]},{"type":"Feature","geometry":{"type":"LineString","coordinates":[[114.109497,22.396428000004],[8.6752770000036,9.0819989999966]]},"properties":[]},{"type":"Feature","geometry":{"type":"LineString","coordinates":[[114.109497,22.396428000004],[30.217635999996,12.862807000002]]},"properties":[]},{"type":"Feature","geometry":{"type":"LineString","coordinates":[[114.109497,22.396428000004],[53.847818000001,23.424076000003]]},"properties":[]},{"type":"Feature","geometry":{"type":"LineString","coordinates":[[114.109497,22.396428000004],[-95.712890999999,37.090240000003]]},"properties":[]},{"type":"Feature","geometry":{"type":"LineString","coordinates":[[114.109497,22.396428000004],[101.975766,4.2104840000023]]},"properties":[]},{"type":"Feature","geometry":{"type":"LineString","coordinates":[[114.109497,22.396428000004],[-95.712890999999,37.090240000003]]},"properties":[]},{"type":"Feature","geometry":{"type":"LineString","coordinates":[[114.109497,22.396428000004],[-95.712890999999,37.090240000003]]},"properties":[]},{"type":"Feature","geometry":{"type":"LineString","coordinates":[[114.109497,22.396428000004],[-95.712890999999,37.090240000003]]},"properties":[]},{"type":"Feature","geometry":{"type":"LineString","coordinates":[[114.109497,22.396428000004],[-95.712890999999,37.090240000003]]},"properties":[]},{"type":"Feature","geometry":{"type":"LineString","coordinates":[[114.109497,22.396428000004],[100.992541,15.870032]]},"properties":[]},{"type":"Feature","geometry":{"type":"LineString","coordinates":[[114.109497,22.396428000004],[-95.712890999999,37.090240000003]]},"properties":[]},{"type":"Feature","geometry":{"type":"LineString","coordinates":[[114.109497,22.396428000004],[29.154857000003,-19.015437999997]]},"properties":[]},{"type":"Feature","geometry":{"type":"LineString","coordinates":[[114.109497,22.396428000004],[-90.230759000004,15.783470999998]]},"properties":[]},{"type":"Feature","geometry":{"type":"LineString","coordinates":[[114.109497,22.396428000004],[-95.712890999999,37.090240000003]]},"properties":[]}],"properties":{"title":"apples","description":"","tags":""}}