{"type":"FeatureCollection","features":[{"type":"Feature","geometry":{"type":"Point","coordinates":[-105.2551187,54.525961399999]},"properties":{"description":"","title":"Electronics","placename":"North America","address":"North America"}},{"type":"Feature","geometry":{"type":"Point","coordinates":[104.195397,35.861660000001]},"properties":{"description":"","title":"Components","placename":"China","address":"China"}},{"type":"Feature","geometry":{"type":"Point","coordinates":[104.195397,35.861660000001]},"properties":{"description":"","title":"Tin Smelters","placename":"China","address":"China"}},{"type":"Feature","geometry":{"type":"Point","coordinates":[15.3716684,-4.3103946999997]},"properties":{"description":"","title":"Mines","placename":"Democratic Republic of the Congo River","address":"Democratic Republic of Congo"}},{"type":"Feature","geometry":{"type":"Point","coordinates":[101.975766,4.2104840000023]},"properties":{"description":"","title":"Tin Smelters","placename":"Malaysia","address":"Malaysia"}},{"type":"Feature","geometry":{"type":"Point","coordinates":[15.3716684,-4.3103946999997]},"properties":{"description":"","title":"Mines","placename":"Democratic Republic of the Congo River","address":"Democratic Republic of Congo"}},{"type":"Feature","geometry":{"type":"Point","coordinates":[104.195397,35.861660000001]},"properties":{"description":"","title":"Tungsten Smelters","placename":"China","address":"China"}},{"type":"Feature","geometry":{"type":"Point","coordinates":[15.3716684,-4.3103946999997]},"properties":{"description":"","title":"Mines","placename":"Democratic Republic of the Congo River","address":"Democratic Republic of Congo"}},{"type":"Feature","geometry":{"type":"Point","coordinates":[14.550071999996,47.516230999997]},"properties":{"description":"","title":"Tungsten Smelters","placename":"Austria","address":"Austria"}},{"type":"Feature","geometry":{"type":"Point","coordinates":[15.3716684,-4.3103946999997]},"properties":{"description":"","title":"Mines","placename":"Democratic Republic of the Congo River","address":"Democratic Republic of Congo"}},{"type":"Feature","geometry":{"type":"Point","coordinates":[105.318756,61.52401]},"properties":{"description":"","title":"Tungsten Smelters","placename":"Russia","address":"Russia"}},{"type":"Feature","geometry":{"type":"Point","coordinates":[15.3716684,-4.3103946999997]},"properties":{"description":"","title":"Mines","placename":"Democratic Republic of the Congo River","address":"Democratic Republic of Congo"}},{"type":"Feature","geometry":{"type":"Point","coordinates":[10.451526000003,51.165690999999]},"properties":{"description":"","title":"Tantalum Smelters","placename":"Germany","address":"Germany"}},{"type":"Feature","geometry":{"type":"Point","coordinates":[15.3716684,-4.3103946999997]},"properties":{"description":"","title":"Mines","placename":"Democratic Republic of the Congo River","address":"Democratic Republic of Congo"}},{"type":"Feature","geometry":{"type":"Point","coordinates":[-95.712890999999,37.090240000003]},"properties":{"description":"","title":"Tantalum Smelters","placename":"United States","address":"United States"}},{"type":"Feature","geometry":{"type":"Point","coordinates":[15.3716684,-4.3103946999997]},"properties":{"description":"","title":"Mines","placename":"Democratic Republic of the Congo River","address":"Democratic Republic of Congo"}},{"type":"Feature","geometry":{"type":"Point","coordinates":[104.195397,35.861660000001]},"properties":{"description":"","title":"Tantalum Smelters","placename":"China","address":"China"}},{"type":"Feature","geometry":{"type":"Point","coordinates":[15.3716684,-4.3103946999997]},"properties":{"description":"","title":"Mines","placename":"Democratic Republic of the Congo River","address":"Democratic Republic of Congo"}},{"type":"Feature","geometry":{"type":"Point","coordinates":[66.923684,48.019573000002]},"properties":{"description":"","title":"Tantalum Smelters","placename":"Kazakhstan","address":"Kazakhstan"}},{"type":"Feature","geometry":{"type":"Point","coordinates":[15.3716684,-4.3103946999997]},"properties":{"description":"","title":"Mines","placename":"Democratic Republic of the Congo River","address":"Democratic Republic of Congo"}},{"type":"Feature","geometry":{"type":"Point","coordinates":[-95.712890999999,37.090240000003]},"properties":{"description":"","title":"Components","placename":"United States","address":"United States"}},{"type":"Feature","geometry":{"type":"Point","coordinates":[104.195397,35.861660000001]},"properties":{"description":"","title":"Tin Smelters","placename":"China","address":"China"}},{"type":"Feature","geometry":{"type":"Point","coordinates":[15.3716684,-4.3103946999997]},"properties":{"description":"","title":"Mines","placename":"Democratic Republic of the Congo River","address":"Democratic Republic of Congo"}},{"type":"Feature","geometry":{"type":"Point","coordinates":[101.975766,4.2104840000023]},"properties":{"description":"","title":"Tin Smelters","placename":"Malaysia","address":"Malaysia"}},{"type":"Feature","geometry":{"type":"Point","coordinates":[15.3716684,-4.3103946999997]},"properties":{"description":"","title":"Mines","placename":"Democratic Republic of the Congo River","address":"Democratic Republic of Congo"}},{"type":"Feature","geometry":{"type":"Point","coordinates":[104.195397,35.861660000001]},"properties":{"description":"","title":"Tungsten Smelters","placename":"China","address":"China"}},{"type":"Feature","geometry":{"type":"Point","coordinates":[15.3716684,-4.3103946999997]},"properties":{"description":"","title":"Mines","placename":"Democratic Republic of the Congo River","address":"Democratic Republic of Congo"}},{"type":"Feature","geometry":{"type":"Point","coordinates":[14.550071999996,47.516230999997]},"properties":{"description":"","title":"Tungsten Smelters","placename":"Austria","address":"Austria"}},{"type":"Feature","geometry":{"type":"Point","coordinates":[15.3716684,-4.3103946999997]},"properties":{"description":"","title":"Mines","placename":"Democratic Republic of the Congo River","address":"Democratic Republic of Congo"}},{"type":"Feature","geometry":{"type":"Point","coordinates":[105.318756,61.52401]},"properties":{"description":"","title":"Tungsten Smelters","placename":"Russia","address":"Russia"}},{"type":"Feature","geometry":{"type":"Point","coordinates":[15.3716684,-4.3103946999997]},"properties":{"description":"","title":"Mines","placename":"Democratic Republic of the Congo River","address":"Democratic Republic of Congo"}},{"type":"Feature","geometry":{"type":"Point","coordinates":[10.451526000003,51.165690999999]},"properties":{"description":"","title":"Tantalum Smelters","placename":"Germany","address":"Germany"}},{"type":"Feature","geometry":{"type":"Point","coordinates":[15.3716684,-4.3103946999997]},"properties":{"description":"","title":"Mines","placename":"Democratic Republic of the Congo River","address":"Democratic Republic of Congo"}},{"type":"Feature","geometry":{"type":"Point","coordinates":[-95.712890999999,37.090240000003]},"properties":{"description":"","title":"Tantalum Smelters","placename":"United States","address":"United States"}},{"type":"Feature","geometry":{"type":"Point","coordinates":[15.3716684,-4.3103946999997]},"properties":{"description":"","title":"Mines","placename":"Democratic Republic of the Congo River","address":"Democratic Republic of Congo"}},{"type":"Feature","geometry":{"type":"Point","coordinates":[104.195397,35.861660000001]},"properties":{"description":"","title":"Tantalum Smelters","placename":"China","address":"China"}},{"type":"Feature","geometry":{"type":"Point","coordinates":[15.3716684,-4.3103946999997]},"properties":{"description":"","title":"Mines","placename":"Democratic Republic of the Congo River","address":"Democratic Republic of Congo"}},{"type":"Feature","geometry":{"type":"Point","coordinates":[66.923684,48.019573000002]},"properties":{"description":"","title":"Tantalum Smelters","placename":"Kazakhstan","address":"Kazakhstan"}},{"type":"Feature","geometry":{"type":"Point","coordinates":[15.3716684,-4.3103946999997]},"properties":{"description":"","title":"Mines","placename":"Democratic Republic of the Congo River","address":"Democratic Republic of Congo"}},{"type":"Feature","geometry":{"type":"Point","coordinates":[-3.4359729999961,55.378051000001]},"properties":{"description":"","title":"Components","placename":"United Kingdom","address":"United Kingdom"}},{"type":"Feature","geometry":{"type":"Point","coordinates":[104.195397,35.861660000001]},"properties":{"description":"","title":"Tin Smelters","placename":"China","address":"China"}},{"type":"Feature","geometry":{"type":"Point","coordinates":[15.3716684,-4.3103946999997]},"properties":{"description":"","title":"Mines","placename":"Democratic Republic of the Congo River","address":"Democratic Republic of Congo"}},{"type":"Feature","geometry":{"type":"Point","coordinates":[101.975766,4.2104840000023]},"properties":{"description":"","title":"Tin Smelters","placename":"Malaysia","address":"Malaysia"}},{"type":"Feature","geometry":{"type":"Point","coordinates":[15.3716684,-4.3103946999997]},"properties":{"description":"","title":"Mines","placename":"Democratic Republic of the Congo River","address":"Democratic Republic of Congo"}},{"type":"Feature","geometry":{"type":"Point","coordinates":[104.195397,35.861660000001]},"properties":{"description":"","title":"Tungsten Smelters","placename":"China","address":"China"}},{"type":"Feature","geometry":{"type":"Point","coordinates":[15.3716684,-4.3103946999997]},"properties":{"description":"","title":"Mines","placename":"Democratic Republic of the Congo River","address":"Democratic Republic of Congo"}},{"type":"Feature","geometry":{"type":"Point","coordinates":[14.550071999996,47.516230999997]},"properties":{"description":"","title":"Tungsten Smelters","placename":"Austria","address":"Austria"}},{"type":"Feature","geometry":{"type":"Point","coordinates":[15.3716684,-4.3103946999997]},"properties":{"description":"","title":"Mines","placename":"Democratic Republic of the Congo River","address":"Democratic Republic of Congo"}},{"type":"Feature","geometry":{"type":"Point","coordinates":[105.318756,61.52401]},"properties":{"description":"","title":"Tungsten Smelters","placename":"Russia","address":"Russia"}},{"type":"Feature","geometry":{"type":"Point","coordinates":[15.3716684,-4.3103946999997]},"properties":{"description":"","title":"Mines","placename":"Democratic Republic of the Congo River","address":"Democratic Republic of Congo"}},{"type":"Feature","geometry":{"type":"Point","coordinates":[10.451526000003,51.165690999999]},"properties":{"description":"","title":"Tantalum Smelters","placename":"Germany","address":"Germany"}},{"type":"Feature","geometry":{"type":"Point","coordinates":[15.3716684,-4.3103946999997]},"properties":{"description":"","title":"Mines","placename":"Democratic Republic of the Congo River","address":"Democratic Republic of Congo"}},{"type":"Feature","geometry":{"type":"Point","coordinates":[-95.712890999999,37.090240000003]},"properties":{"description":"","title":"Tantalum Smelters","placename":"United States","address":"United States"}},{"type":"Feature","geometry":{"type":"Point","coordinates":[15.3716684,-4.3103946999997]},"properties":{"description":"","title":"Mines","placename":"Democratic Republic of the Congo River","address":"Democratic Republic of Congo"}},{"type":"Feature","geometry":{"type":"Point","coordinates":[104.195397,35.861660000001]},"properties":{"description":"","title":"Tantalum Smelters","placename":"China","address":"China"}},{"type":"Feature","geometry":{"type":"Point","coordinates":[15.3716684,-4.3103946999997]},"properties":{"description":"","title":"Mines","placename":"Democratic Republic of the Congo River","address":"Democratic Republic of Congo"}},{"type":"Feature","geometry":{"type":"Point","coordinates":[66.923684,48.019573000002]},"properties":{"description":"","title":"Tantalum Smelters","placename":"Kazakhstan","address":"Kazakhstan"}},{"type":"Feature","geometry":{"type":"Point","coordinates":[15.3716684,-4.3103946999997]},"properties":{"description":"","title":"Mines","placename":"Democratic Republic of the Congo River","address":"Democratic Republic of Congo"}},{"type":"Feature","geometry":{"type":"Point","coordinates":[138.252924,36.204824000001]},"properties":{"description":"","title":"Components","placename":"Japan","address":"Japan"}},{"type":"Feature","geometry":{"type":"Point","coordinates":[104.195397,35.861660000001]},"properties":{"description":"","title":"Tin Smelters","placename":"China","address":"China"}},{"type":"Feature","geometry":{"type":"Point","coordinates":[15.3716684,-4.3103946999997]},"properties":{"description":"","title":"Mines","placename":"Democratic Republic of the Congo River","address":"Democratic Republic of Congo"}},{"type":"Feature","geometry":{"type":"Point","coordinates":[101.975766,4.2104840000023]},"properties":{"description":"","title":"Tin Smelters","placename":"Malaysia","address":"Malaysia"}},{"type":"Feature","geometry":{"type":"Point","coordinates":[15.3716684,-4.3103946999997]},"properties":{"description":"","title":"Mines","placename":"Democratic Republic of the Congo River","address":"Democratic Republic of Congo"}},{"type":"Feature","geometry":{"type":"Point","coordinates":[104.195397,35.861660000001]},"properties":{"description":"","title":"Tungsten Smelters","placename":"China","address":"China"}},{"type":"Feature","geometry":{"type":"Point","coordinates":[15.3716684,-4.3103946999997]},"properties":{"description":"","title":"Mines","placename":"Democratic Republic of the Congo River","address":"Democratic Republic of Congo"}},{"type":"Feature","geometry":{"type":"Point","coordinates":[14.550071999996,47.516230999997]},"properties":{"description":"","title":"Tungsten Smelters","placename":"Austria","address":"Austria"}},{"type":"Feature","geometry":{"type":"Point","coordinates":[15.3716684,-4.3103946999997]},"properties":{"description":"","title":"Mines","placename":"Democratic Republic of the Congo River","address":"Democratic Republic of Congo"}},{"type":"Feature","geometry":{"type":"Point","coordinates":[105.318756,61.52401]},"properties":{"description":"","title":"Tungsten Smelters","placename":"Russia","address":"Russia"}},{"type":"Feature","geometry":{"type":"Point","coordinates":[15.3716684,-4.3103946999997]},"properties":{"description":"","title":"Mines","placename":"Democratic Republic of the Congo River","address":"Democratic Republic of Congo"}},{"type":"Feature","geometry":{"type":"Point","coordinates":[10.451526000003,51.165690999999]},"properties":{"description":"","title":"Tantalum Smelters","placename":"Germany","address":"Germany"}},{"type":"Feature","geometry":{"type":"Point","coordinates":[15.3716684,-4.3103946999997]},"properties":{"description":"","title":"Mines","placename":"Democratic Republic of the Congo River","address":"Democratic Republic of Congo"}},{"type":"Feature","geometry":{"type":"Point","coordinates":[-95.712890999999,37.090240000003]},"properties":{"description":"","title":"Tantalum Smelters","placename":"United States","address":"United States"}},{"type":"Feature","geometry":{"type":"Point","coordinates":[15.3716684,-4.3103946999997]},"properties":{"description":"","title":"Mines","placename":"Democratic Republic of the Congo River","address":"Democratic Republic of Congo"}},{"type":"Feature","geometry":{"type":"Point","coordinates":[104.195397,35.861660000001]},"properties":{"description":"","title":"Tantalum Smelters","placename":"China","address":"China"}},{"type":"Feature","geometry":{"type":"Point","coordinates":[15.3716684,-4.3103946999997]},"properties":{"description":"","title":"Mines","placename":"Democratic Republic of the Congo River","address":"Democratic Republic of Congo"}},{"type":"Feature","geometry":{"type":"Point","coordinates":[66.923684,48.019573000002]},"properties":{"description":"","title":"Tantalum Smelters","placename":"Kazakhstan","address":"Kazakhstan"}},{"type":"Feature","geometry":{"type":"Point","coordinates":[15.3716684,-4.3103946999997]},"properties":{"description":"","title":"Mines","placename":"Democratic Republic of the Congo River","address":"Democratic Republic of Congo"}},{"type":"Feature","geometry":{"type":"Point","coordinates":[-105.2551187,54.525961399999]},"properties":{"description":"","title":"Electronic","placename":"North America","address":"North America"}},{"type":"Feature","geometry":{"type":"Point","coordinates":[-105.2551187,54.525961399999]},"properties":{"description":"","title":"Customer","placename":"North America","address":"North America"}},{"type":"Feature","geometry":{"type":"Point","coordinates":[15.2551187,54.525961399999]},"properties":{"description":"","title":"Customer","placename":"Europe","address":"Europe"}},{"type":"Feature","geometry":{"type":"LineString","coordinates":[[104.195397,35.861660000001],[-105.2551187,54.525961399999]]},"properties":{"title":"Components to Electronics","distance":"9576.918508"}},{"type":"Feature","geometry":{"type":"LineString","coordinates":[[104.195397,35.861660000001],[104.195397,35.861660000001]]},"properties":{"distance":"0","title":"Tin Smelters to Components"}},{"type":"Feature","geometry":{"type":"LineString","coordinates":[[15.3716684,-4.3103946999997],[104.195397,35.861660000001]]},"properties":{"title":"Mines to Tin Smelters","distance":"10182.391688"}},{"type":"Feature","geometry":{"type":"LineString","coordinates":[[101.975766,4.2104840000023],[104.195397,35.861660000001]]},"properties":{"distance":"3526.805953","title":"Tin Smelters to Components"}},{"type":"Feature","geometry":{"type":"LineString","coordinates":[[15.3716684,-4.3103946999997],[101.975766,4.2104840000023]]},"properties":{"distance":"9667.235525","title":"Mines to Tin Smelters"}},{"type":"Feature","geometry":{"type":"LineString","coordinates":[[104.195397,35.861660000001],[104.195397,35.861660000001]]},"properties":{"distance":"0","title":"Tungsten Smelters to Components"}},{"type":"Feature","geometry":{"type":"LineString","coordinates":[[15.3716684,-4.3103946999997],[104.195397,35.861660000001]]},"properties":{"distance":"10182.391688","title":"Mines to Tungsten Smelters"}},{"type":"Feature","geometry":{"type":"LineString","coordinates":[[14.550071999996,47.516230999997],[104.195397,35.861660000001]]},"properties":{"distance":"7137.380062","title":"Tungsten Smelters to Components"}},{"type":"Feature","geometry":{"type":"LineString","coordinates":[[15.3716684,-4.3103946999997],[14.550071999996,47.516230999997]]},"properties":{"distance":"5763.418948","title":"Mines to Tungsten Smelters"}},{"type":"Feature","geometry":{"type":"LineString","coordinates":[[105.318756,61.52401],[104.195397,35.861660000001]]},"properties":{"distance":"2854.615492","title":"Tungsten Smelters to Components"}},{"type":"Feature","geometry":{"type":"LineString","coordinates":[[15.3716684,-4.3103946999997],[105.318756,61.52401]]},"properties":{"distance":"10425.957104","title":"Mines to Tungsten Smelters"}},{"type":"Feature","geometry":{"type":"LineString","coordinates":[[10.451526000003,51.165690999999],[104.195397,35.861660000001]]},"properties":{"distance":"7223.887893","title":"Tantalum Smelters to Components"}},{"type":"Feature","geometry":{"type":"LineString","coordinates":[[15.3716684,-4.3103946999997],[10.451526000003,51.165690999999]]},"properties":{"distance":"6186.459333","title":"Mines to Tantalum Smelters"}},{"type":"Feature","geometry":{"type":"LineString","coordinates":[[-95.712890999999,37.090240000003],[104.195397,35.861660000001]]},"properties":{"distance":"11647.263847","title":"Tantalum Smelters to Components"}},{"type":"Feature","geometry":{"type":"LineString","coordinates":[[15.3716684,-4.3103946999997],[-95.712890999999,37.090240000003]]},"properties":{"distance":"12160.118754","title":"Mines to Tantalum Smelters"}},{"type":"Feature","geometry":{"type":"LineString","coordinates":[[104.195397,35.861660000001],[104.195397,35.861660000001]]},"properties":{"distance":"0","title":"Tantalum Smelters to Components"}},{"type":"Feature","geometry":{"type":"LineString","coordinates":[[15.3716684,-4.3103946999997],[104.195397,35.861660000001]]},"properties":{"title":"Mines to Tantalum Smelters","distance":"10182.391688"}},{"type":"Feature","geometry":{"type":"LineString","coordinates":[[66.923684,48.019573000002],[104.195397,35.861660000001]]},"properties":{"distance":"3325.157219","title":"Tantalum Smelters to Components"}},{"type":"Feature","geometry":{"type":"LineString","coordinates":[[15.3716684,-4.3103946999997],[66.923684,48.019573000002]]},"properties":{"distance":"7669.077598","title":"Mines to Tantalum Smelters"}},{"type":"Feature","geometry":{"type":"LineString","coordinates":[[-95.712890999999,37.090240000003],[-105.2551187,54.525961399999]]},"properties":{"distance":"2070.618718","title":"Components to Electronics"}},{"type":"Feature","geometry":{"type":"LineString","coordinates":[[104.195397,35.861660000001],[-95.712890999999,37.090240000003]]},"properties":{"distance":"11647.263847","title":"Tin Smelters to Components"}},{"type":"Feature","geometry":{"type":"LineString","coordinates":[[15.3716684,-4.3103946999997],[104.195397,35.861660000001]]},"properties":{"distance":"10182.391688","title":"Mines to Tin Smelters"}},{"type":"Feature","geometry":{"type":"LineString","coordinates":[[101.975766,4.2104840000023],[-95.712890999999,37.090240000003]]},"properties":{"title":"Tin Smelters to Components","distance":"15070.493285"}},{"type":"Feature","geometry":{"type":"LineString","coordinates":[[15.3716684,-4.3103946999997],[101.975766,4.2104840000023]]},"properties":{"distance":"9667.235525","title":"Mines to Tin Smelters"}},{"type":"Feature","geometry":{"type":"LineString","coordinates":[[104.195397,35.861660000001],[-95.712890999999,37.090240000003]]},"properties":{"distance":"11647.263847","title":"Tungsten Smelters to Components"}},{"type":"Feature","geometry":{"type":"LineString","coordinates":[[15.3716684,-4.3103946999997],[104.195397,35.861660000001]]},"properties":{"distance":"10182.391688","title":"Mines to Tungsten Smelters"}},{"type":"Feature","geometry":{"type":"LineString","coordinates":[[14.550071999996,47.516230999997],[-95.712890999999,37.090240000003]]},"properties":{"distance":"8343.936825","title":"Tungsten Smelters to Components"}},{"type":"Feature","geometry":{"type":"LineString","coordinates":[[15.3716684,-4.3103946999997],[14.550071999996,47.516230999997]]},"properties":{"distance":"5763.418948","title":"Mines to Tungsten Smelters"}},{"type":"Feature","geometry":{"type":"LineString","coordinates":[[105.318756,61.52401],[-95.712890999999,37.090240000003]]},"properties":{"distance":"8886.084794","title":"Tungsten Smelters to Components"}},{"type":"Feature","geometry":{"type":"LineString","coordinates":[[15.3716684,-4.3103946999997],[105.318756,61.52401]]},"properties":{"distance":"10425.957104","title":"Mines to Tungsten Smelters"}},{"type":"Feature","geometry":{"type":"LineString","coordinates":[[10.451526000003,51.165690999999],[-95.712890999999,37.090240000003]]},"properties":{"distance":"7861.470225","title":"Tantalum Smelters to Components"}},{"type":"Feature","geometry":{"type":"LineString","coordinates":[[15.3716684,-4.3103946999997],[10.451526000003,51.165690999999]]},"properties":{"distance":"6186.459333","title":"Mines to Tantalum Smelters"}},{"type":"Feature","geometry":{"type":"LineString","coordinates":[[-95.712890999999,37.090240000003],[-95.712890999999,37.090240000003]]},"properties":{"distance":"0","title":"Tantalum Smelters to Components"}},{"type":"Feature","geometry":{"type":"LineString","coordinates":[[15.3716684,-4.3103946999997],[-95.712890999999,37.090240000003]]},"properties":{"distance":"12160.118754","title":"Mines to Tantalum Smelters"}},{"type":"Feature","geometry":{"type":"LineString","coordinates":[[104.195397,35.861660000001],[-95.712890999999,37.090240000003]]},"properties":{"distance":"11647.263847","title":"Tantalum Smelters to Components"}},{"type":"Feature","geometry":{"type":"LineString","coordinates":[[15.3716684,-4.3103946999997],[104.195397,35.861660000001]]},"properties":{"distance":"10182.391688","title":"Mines to Tantalum Smelters"}},{"type":"Feature","geometry":{"type":"LineString","coordinates":[[66.923684,48.019573000002],[-95.712890999999,37.090240000003]]},"properties":{"title":"Tantalum Smelters to Components","distance":"10395.986698"}},{"type":"Feature","geometry":{"type":"LineString","coordinates":[[15.3716684,-4.3103946999997],[66.923684,48.019573000002]]},"properties":{"distance":"7669.077598","title":"Mines to Tantalum Smelters"}},{"type":"Feature","geometry":{"type":"LineString","coordinates":[[-3.4359729999961,55.378051000001],[-105.2551187,54.525961399999]]},"properties":{"title":"Components to Electronics","distance":"5886.805599"}},{"type":"Feature","geometry":{"type":"LineString","coordinates":[[104.195397,35.861660000001],[-3.4359729999961,55.378051000001]]},"properties":{"title":"Tin Smelters to Components","distance":"7779.560130"}},{"type":"Feature","geometry":{"type":"LineString","coordinates":[[15.3716684,-4.3103946999997],[104.195397,35.861660000001]]},"properties":{"title":"Mines to Tin Smelters","distance":"10182.391688"}},{"type":"Feature","geometry":{"type":"LineString","coordinates":[[101.975766,4.2104840000023],[-3.4359729999961,55.378051000001]]},"properties":{"distance":"10582.756584","title":"Tin Smelters to Components"}},{"type":"Feature","geometry":{"type":"LineString","coordinates":[[15.3716684,-4.3103946999997],[101.975766,4.2104840000023]]},"properties":{"title":"Mines to Tin Smelters","distance":"9667.235525"}},{"type":"Feature","geometry":{"type":"LineString","coordinates":[[104.195397,35.861660000001],[-3.4359729999961,55.378051000001]]},"properties":{"distance":"7779.560130","title":"Tungsten Smelters to Components"}},{"type":"Feature","geometry":{"type":"LineString","coordinates":[[15.3716684,-4.3103946999997],[104.195397,35.861660000001]]},"properties":{"distance":"10182.391688","title":"Mines to Tungsten Smelters"}},{"type":"Feature","geometry":{"type":"LineString","coordinates":[[14.550071999996,47.516230999997],[-3.4359729999961,55.378051000001]]},"properties":{"distance":"1515.284960","title":"Tungsten Smelters to Components"}},{"type":"Feature","geometry":{"type":"LineString","coordinates":[[15.3716684,-4.3103946999997],[14.550071999996,47.516230999997]]},"properties":{"distance":"5763.418948","title":"Mines to Tungsten Smelters"}},{"type":"Feature","geometry":{"type":"LineString","coordinates":[[105.318756,61.52401],[-3.4359729999961,55.378051000001]]},"properties":{"distance":"5613.819817","title":"Tungsten Smelters to Components"}},{"type":"Feature","geometry":{"type":"LineString","coordinates":[[15.3716684,-4.3103946999997],[105.318756,61.52401]]},"properties":{"distance":"10425.957104","title":"Mines to Tungsten Smelters"}},{"type":"Feature","geometry":{"type":"LineString","coordinates":[[10.451526000003,51.165690999999],[-3.4359729999961,55.378051000001]]},"properties":{"distance":"1032.984767","title":"Tantalum Smelters to Components"}},{"type":"Feature","geometry":{"type":"LineString","coordinates":[[15.3716684,-4.3103946999997],[10.451526000003,51.165690999999]]},"properties":{"distance":"6186.459333","title":"Mines to Tantalum Smelters"}},{"type":"Feature","geometry":{"type":"LineString","coordinates":[[-95.712890999999,37.090240000003],[-3.4359729999961,55.378051000001]]},"properties":{"distance":"6830.403467","title":"Tantalum Smelters to Components"}},{"type":"Feature","geometry":{"type":"LineString","coordinates":[[15.3716684,-4.3103946999997],[-95.712890999999,37.090240000003]]},"properties":{"distance":"12160.118754","title":"Mines to Tantalum Smelters"}},{"type":"Feature","geometry":{"type":"LineString","coordinates":[[104.195397,35.861660000001],[-3.4359729999961,55.378051000001]]},"properties":{"distance":"7779.560130","title":"Tantalum Smelters to Components"}},{"type":"Feature","geometry":{"type":"LineString","coordinates":[[15.3716684,-4.3103946999997],[104.195397,35.861660000001]]},"properties":{"distance":"10182.391688","title":"Mines to Tantalum Smelters"}},{"type":"Feature","geometry":{"type":"LineString","coordinates":[[66.923684,48.019573000002],[-3.4359729999961,55.378051000001]]},"properties":{"distance":"4705.079150","title":"Tantalum Smelters to Components"}},{"type":"Feature","geometry":{"type":"LineString","coordinates":[[15.3716684,-4.3103946999997],[66.923684,48.019573000002]]},"properties":{"distance":"7669.077598","title":"Mines to Tantalum Smelters"}},{"type":"Feature","geometry":{"type":"LineString","coordinates":[[138.252924,36.204824000001],[-105.2551187,54.525961399999]]},"properties":{"title":"Components to Electronics","distance":"8251.550530"}},{"type":"Feature","geometry":{"type":"LineString","coordinates":[[104.195397,35.861660000001],[138.252924,36.204824000001]]},"properties":{"distance":"3046.758002","title":"Tin Smelters to Components"}},{"type":"Feature","geometry":{"type":"LineString","coordinates":[[15.3716684,-4.3103946999997],[104.195397,35.861660000001]]},"properties":{"distance":"10182.391688","title":"Mines to Tin Smelters"}},{"type":"Feature","geometry":{"type":"LineString","coordinates":[[101.975766,4.2104840000023],[138.252924,36.204824000001]]},"properties":{"title":"Tin Smelters to Components","distance":"5137.459185"}},{"type":"Feature","geometry":{"type":"LineString","coordinates":[[15.3716684,-4.3103946999997],[101.975766,4.2104840000023]]},"properties":{"distance":"9667.235525","title":"Mines to Tin Smelters"}},{"type":"Feature","geometry":{"type":"LineString","coordinates":[[104.195397,35.861660000001],[138.252924,36.204824000001]]},"properties":{"title":"Tungsten Smelters to Components","distance":"3046.758002"}},{"type":"Feature","geometry":{"type":"LineString","coordinates":[[15.3716684,-4.3103946999997],[104.195397,35.861660000001]]},"properties":{"distance":"10182.391688","title":"Mines to Tungsten Smelters"}},{"type":"Feature","geometry":{"type":"LineString","coordinates":[[14.550071999996,47.516230999997],[138.252924,36.204824000001]]},"properties":{"distance":"9156.358881","title":"Tungsten Smelters to Components"}},{"type":"Feature","geometry":{"type":"LineString","coordinates":[[15.3716684,-4.3103946999997],[14.550071999996,47.516230999997]]},"properties":{"distance":"5763.418948","title":"Mines to Tungsten Smelters"}},{"type":"Feature","geometry":{"type":"LineString","coordinates":[[105.318756,61.52401],[138.252924,36.204824000001]]},"properties":{"distance":"3628.976577","title":"Tungsten Smelters to Components"}},{"type":"Feature","geometry":{"type":"LineString","coordinates":[[15.3716684,-4.3103946999997],[105.318756,61.52401]]},"properties":{"distance":"10425.957104","title":"Mines to Tungsten Smelters"}},{"type":"Feature","geometry":{"type":"LineString","coordinates":[[10.451526000003,51.165690999999],[138.252924,36.204824000001]]},"properties":{"distance":"9048.413196","title":"Tantalum Smelters to Components"}},{"type":"Feature","geometry":{"type":"LineString","coordinates":[[15.3716684,-4.3103946999997],[10.451526000003,51.165690999999]]},"properties":{"distance":"6186.459333","title":"Mines to Tantalum Smelters"}},{"type":"Feature","geometry":{"type":"LineString","coordinates":[[-95.712890999999,37.090240000003],[138.252924,36.204824000001]]},"properties":{"distance":"10150.436294","title":"Tantalum Smelters to Components"}},{"type":"Feature","geometry":{"type":"LineString","coordinates":[[15.3716684,-4.3103946999997],[-95.712890999999,37.090240000003]]},"properties":{"distance":"12160.118754","title":"Mines to Tantalum Smelters"}},{"type":"Feature","geometry":{"type":"LineString","coordinates":[[104.195397,35.861660000001],[138.252924,36.204824000001]]},"properties":{"distance":"3046.758002","title":"Tantalum Smelters to Components"}},{"type":"Feature","geometry":{"type":"LineString","coordinates":[[15.3716684,-4.3103946999997],[104.195397,35.861660000001]]},"properties":{"distance":"10182.391688","title":"Mines to Tantalum Smelters"}},{"type":"Feature","geometry":{"type":"LineString","coordinates":[[66.923684,48.019573000002],[138.252924,36.204824000001]]},"properties":{"distance":"5812.712268","title":"Tantalum Smelters to Components"}},{"type":"Feature","geometry":{"type":"LineString","coordinates":[[15.3716684,-4.3103946999997],[66.923684,48.019573000002]]},"properties":{"title":"Mines to Tantalum Smelters","distance":"7669.077598"}},{"type":"Feature","geometry":{"type":"LineString","coordinates":[[-105.2551187,54.525961399999],[-105.2551187,54.525961399999]]},"properties":{"title":"Electronic to Customer","distance":"0"}},{"type":"Feature","geometry":{"type":"LineString","coordinates":[[-105.2551187,54.525961399999],[15.2551187,54.525961399999]]},"properties":{"distance":"6728.724612","title":"Electronic to Customer"}},{"type":"Feature","geometry":{"type":"LineString","coordinates":[[15.3716684,-4.3103946999997],[101.97576599999,4.2104840000023]]},"properties":{"co2e":"0","distance":"9667.235525","title":"Mines to Tin Smelters"}}],"properties":{"description":"","tags":"","title":"Consumer Electronics "}}