{"supplychain":{"category":41,"created":1335987809,"enable_comments":true,"flags":0,"id":2824,"modified":1335987863,"other_perms":1,"passcode":null,"user_featured":false,"usergroup_id":null,"usergroup_perms":0,"user_id":1854,"owner":{"id":1854,"name":"adrienneatnfs","avatar":"http:\/\/free.sourcemap.com\/assets\/images\/default-user.png","banner_url":null,"display_name":null},"taxonomy":[{"description":"Category for Electronics","id":41,"left":37,"name":"electronics","right":38,"title":"Electronics & Computers"}],"attributes":{"description":"","tags":"","title":"Consumer Electronics "},"stops":[{"local_stop_id":80,"id":80,"geometry":"POINT(-11716946.21707 7270403.143886)","attributes":{"description":"","title":"Electronics","placename":"North America","address":"North America"}},{"local_stop_id":79,"id":79,"geometry":"POINT(11598978.537043 4281602.659627)","attributes":{"description":"","title":"Components","placename":"China","address":"China"}},{"local_stop_id":78,"id":78,"geometry":"POINT(11598978.537043 4281602.659627)","attributes":{"description":"","title":"Tin Smelters","placename":"China","address":"China"}},{"local_stop_id":77,"id":77,"geometry":"POINT(1711166.298931 -480284.196323)","attributes":{"description":"","title":"Mines","placename":"Democratic Republic of the Congo River","address":"Democratic Republic of Congo"}},{"local_stop_id":76,"id":76,"geometry":"POINT(11351890.344374 469131.367658)","attributes":{"description":"","title":"Tin Smelters","placename":"Malaysia","address":"Malaysia"}},{"local_stop_id":75,"id":75,"geometry":"POINT(1711166.298931 -480284.196323)","attributes":{"description":"","title":"Mines","placename":"Democratic Republic of the Congo River","address":"Democratic Republic of Congo"}},{"local_stop_id":74,"id":74,"geometry":"POINT(11598978.537043 4281602.659627)","attributes":{"description":"","title":"Tungsten Smelters","placename":"China","address":"China"}},{"local_stop_id":73,"id":73,"geometry":"POINT(1711166.298931 -480284.196323)","attributes":{"description":"","title":"Mines","placename":"Democratic Republic of the Congo River","address":"Democratic Republic of Congo"}},{"local_stop_id":72,"id":72,"geometry":"POINT(1619706.606045 6026746.974644)","attributes":{"description":"","title":"Tungsten Smelters","placename":"Austria","address":"Austria"}},{"local_stop_id":71,"id":71,"geometry":"POINT(1711166.298931 -480284.196323)","attributes":{"description":"","title":"Mines","placename":"Democratic Republic of the Congo River","address":"Democratic Republic of Congo"}},{"local_stop_id":70,"id":70,"geometry":"POINT(11724030.288901 8747149.04879)","attributes":{"description":"","title":"Tungsten Smelters","placename":"Russia","address":"Russia"}},{"local_stop_id":69,"id":69,"geometry":"POINT(1711166.298931 -480284.196323)","attributes":{"description":"","title":"Mines","placename":"Democratic Republic of the Congo River","address":"Democratic Republic of Congo"}},{"local_stop_id":68,"id":68,"geometry":"POINT(1163458.552333 6650655.041174)","attributes":{"description":"","title":"Tantalum Smelters","placename":"Germany","address":"Germany"}},{"local_stop_id":67,"id":67,"geometry":"POINT(1711166.298931 -480284.196323)","attributes":{"description":"","title":"Mines","placename":"Democratic Republic of the Congo River","address":"Democratic Republic of Congo"}},{"local_stop_id":66,"id":66,"geometry":"POINT(-10654710.288472 4451692.554811)","attributes":{"description":"","title":"Tantalum Smelters","placename":"United States","address":"United States"}},{"local_stop_id":65,"id":65,"geometry":"POINT(1711166.298931 -480284.196323)","attributes":{"description":"","title":"Mines","placename":"Democratic Republic of the Congo River","address":"Democratic Republic of Congo"}},{"local_stop_id":64,"id":64,"geometry":"POINT(11598978.537043 4281602.659627)","attributes":{"description":"","title":"Tantalum Smelters","placename":"China","address":"China"}},{"local_stop_id":63,"id":63,"geometry":"POINT(1711166.298931 -480284.196323)","attributes":{"description":"","title":"Mines","placename":"Democratic Republic of the Congo River","address":"Democratic Republic of Congo"}},{"local_stop_id":62,"id":62,"geometry":"POINT(7449910.42489 6110111.702601)","attributes":{"description":"","title":"Tantalum Smelters","placename":"Kazakhstan","address":"Kazakhstan"}},{"local_stop_id":61,"id":61,"geometry":"POINT(1711166.298931 -480284.196323)","attributes":{"description":"","title":"Mines","placename":"Democratic Republic of the Congo River","address":"Democratic Republic of Congo"}},{"local_stop_id":60,"id":60,"geometry":"POINT(-10654710.288472 4451692.554811)","attributes":{"description":"","title":"Components","placename":"United States","address":"United States"}},{"local_stop_id":59,"id":59,"geometry":"POINT(11598978.537043 4281602.659627)","attributes":{"description":"","title":"Tin Smelters","placename":"China","address":"China"}},{"local_stop_id":58,"id":58,"geometry":"POINT(1711166.298931 -480284.196323)","attributes":{"description":"","title":"Mines","placename":"Democratic Republic of the Congo River","address":"Democratic Republic of Congo"}},{"local_stop_id":57,"id":57,"geometry":"POINT(11351890.344374 469131.367658)","attributes":{"description":"","title":"Tin Smelters","placename":"Malaysia","address":"Malaysia"}},{"local_stop_id":56,"id":56,"geometry":"POINT(1711166.298931 -480284.196323)","attributes":{"description":"","title":"Mines","placename":"Democratic Republic of the Congo River","address":"Democratic Republic of Congo"}},{"local_stop_id":55,"id":55,"geometry":"POINT(11598978.537043 4281602.659627)","attributes":{"description":"","title":"Tungsten Smelters","placename":"China","address":"China"}},{"local_stop_id":54,"id":54,"geometry":"POINT(1711166.298931 -480284.196323)","attributes":{"description":"","title":"Mines","placename":"Democratic Republic of the Congo River","address":"Democratic Republic of Congo"}},{"local_stop_id":53,"id":53,"geometry":"POINT(1619706.606045 6026746.974644)","attributes":{"description":"","title":"Tungsten Smelters","placename":"Austria","address":"Austria"}},{"local_stop_id":52,"id":52,"geometry":"POINT(1711166.298931 -480284.196323)","attributes":{"description":"","title":"Mines","placename":"Democratic Republic of the Congo River","address":"Democratic Republic of Congo"}},{"local_stop_id":51,"id":51,"geometry":"POINT(11724030.288901 8747149.04879)","attributes":{"description":"","title":"Tungsten Smelters","placename":"Russia","address":"Russia"}},{"local_stop_id":50,"id":50,"geometry":"POINT(1711166.298931 -480284.196323)","attributes":{"description":"","title":"Mines","placename":"Democratic Republic of the Congo River","address":"Democratic Republic of Congo"}},{"local_stop_id":49,"id":49,"geometry":"POINT(1163458.552333 6650655.041174)","attributes":{"description":"","title":"Tantalum Smelters","placename":"Germany","address":"Germany"}},{"local_stop_id":48,"id":48,"geometry":"POINT(1711166.298931 -480284.196323)","attributes":{"description":"","title":"Mines","placename":"Democratic Republic of the Congo River","address":"Democratic Republic of Congo"}},{"local_stop_id":47,"id":47,"geometry":"POINT(-10654710.288472 4451692.554811)","attributes":{"description":"","title":"Tantalum Smelters","placename":"United States","address":"United States"}},{"local_stop_id":46,"id":46,"geometry":"POINT(1711166.298931 -480284.196323)","attributes":{"description":"","title":"Mines","placename":"Democratic Republic of the Congo River","address":"Democratic Republic of Congo"}},{"local_stop_id":45,"id":45,"geometry":"POINT(11598978.537043 4281602.659627)","attributes":{"description":"","title":"Tantalum Smelters","placename":"China","address":"China"}},{"local_stop_id":44,"id":44,"geometry":"POINT(1711166.298931 -480284.196323)","attributes":{"description":"","title":"Mines","placename":"Democratic Republic of the Congo River","address":"Democratic Republic of Congo"}},{"local_stop_id":43,"id":43,"geometry":"POINT(7449910.42489 6110111.702601)","attributes":{"description":"","title":"Tantalum Smelters","placename":"Kazakhstan","address":"Kazakhstan"}},{"local_stop_id":42,"id":42,"geometry":"POINT(1711166.298931 -480284.196323)","attributes":{"description":"","title":"Mines","placename":"Democratic Republic of the Congo River","address":"Democratic Republic of Congo"}},{"local_stop_id":41,"id":41,"geometry":"POINT(-382490.764739 7435586.530983)","attributes":{"description":"","title":"Components","placename":"United Kingdom","address":"United Kingdom"}},{"local_stop_id":40,"id":40,"geometry":"POINT(11598978.537043 4281602.659627)","attributes":{"description":"","title":"Tin Smelters","placename":"China","address":"China"}},{"local_stop_id":39,"id":39,"geometry":"POINT(1711166.298931 -480284.196323)","attributes":{"description":"","title":"Mines","placename":"Democratic Republic of the Congo River","address":"Democratic Republic of Congo"}},{"local_stop_id":38,"id":38,"geometry":"POINT(11351890.344374 469131.367658)","attributes":{"description":"","title":"Tin Smelters","placename":"Malaysia","address":"Malaysia"}},{"local_stop_id":37,"id":37,"geometry":"POINT(1711166.298931 -480284.196323)","attributes":{"description":"","title":"Mines","placename":"Democratic Republic of the Congo River","address":"Democratic Republic of Congo"}},{"local_stop_id":36,"id":36,"geometry":"POINT(11598978.537043 4281602.659627)","attributes":{"description":"","title":"Tungsten Smelters","placename":"China","address":"China"}},{"local_stop_id":35,"id":35,"geometry":"POINT(1711166.298931 -480284.196323)","attributes":{"description":"","title":"Mines","placename":"Democratic Republic of the Congo River","address":"Democratic Republic of Congo"}},{"local_stop_id":34,"id":34,"geometry":"POINT(1619706.606045 6026746.974644)","attributes":{"description":"","title":"Tungsten Smelters","placename":"Austria","address":"Austria"}},{"local_stop_id":33,"id":33,"geometry":"POINT(1711166.298931 -480284.196323)","attributes":{"description":"","title":"Mines","placename":"Democratic Republic of the Congo River","address":"Democratic Republic of Congo"}},{"local_stop_id":32,"id":32,"geometry":"POINT(11724030.288901 8747149.04879)","attributes":{"description":"","title":"Tungsten Smelters","placename":"Russia","address":"Russia"}},{"local_stop_id":31,"id":31,"geometry":"POINT(1711166.298931 -480284.196323)","attributes":{"description":"","title":"Mines","placename":"Democratic Republic of the Congo River","address":"Democratic Republic of Congo"}},{"local_stop_id":30,"id":30,"geometry":"POINT(1163458.552333 6650655.041174)","attributes":{"description":"","title":"Tantalum Smelters","placename":"Germany","address":"Germany"}},{"local_stop_id":29,"id":29,"geometry":"POINT(1711166.298931 -480284.196323)","attributes":{"description":"","title":"Mines","placename":"Democratic Republic of the Congo River","address":"Democratic Republic of Congo"}},{"local_stop_id":28,"id":28,"geometry":"POINT(-10654710.288472 4451692.554811)","attributes":{"description":"","title":"Tantalum Smelters","placename":"United States","address":"United States"}},{"local_stop_id":27,"id":27,"geometry":"POINT(1711166.298931 -480284.196323)","attributes":{"description":"","title":"Mines","placename":"Democratic Republic of the Congo River","address":"Democratic Republic of Congo"}},{"local_stop_id":26,"id":26,"geometry":"POINT(11598978.537043 4281602.659627)","attributes":{"description":"","title":"Tantalum Smelters","placename":"China","address":"China"}},{"local_stop_id":25,"id":25,"geometry":"POINT(1711166.298931 -480284.196323)","attributes":{"description":"","title":"Mines","placename":"Democratic Republic of the Congo River","address":"Democratic Republic of Congo"}},{"local_stop_id":24,"id":24,"geometry":"POINT(7449910.42489 6110111.702601)","attributes":{"description":"","title":"Tantalum Smelters","placename":"Kazakhstan","address":"Kazakhstan"}},{"local_stop_id":23,"id":23,"geometry":"POINT(1711166.298931 -480284.196323)","attributes":{"description":"","title":"Mines","placename":"Democratic Republic of the Congo River","address":"Democratic Republic of Congo"}},{"local_stop_id":22,"id":22,"geometry":"POINT(15390245.100361 4328841.562513)","attributes":{"description":"","title":"Components","placename":"Japan","address":"Japan"}},{"local_stop_id":21,"id":21,"geometry":"POINT(11598978.537043 4281602.659627)","attributes":{"description":"","title":"Tin Smelters","placename":"China","address":"China"}},{"local_stop_id":20,"id":20,"geometry":"POINT(1711166.298931 -480284.196323)","attributes":{"description":"","title":"Mines","placename":"Democratic Republic of the Congo River","address":"Democratic Republic of Congo"}},{"local_stop_id":19,"id":19,"geometry":"POINT(11351890.344374 469131.367658)","attributes":{"description":"","title":"Tin Smelters","placename":"Malaysia","address":"Malaysia"}},{"local_stop_id":18,"id":18,"geometry":"POINT(1711166.298931 -480284.196323)","attributes":{"description":"","title":"Mines","placename":"Democratic Republic of the Congo River","address":"Democratic Republic of Congo"}},{"local_stop_id":17,"id":17,"geometry":"POINT(11598978.537043 4281602.659627)","attributes":{"description":"","title":"Tungsten Smelters","placename":"China","address":"China"}},{"local_stop_id":16,"id":16,"geometry":"POINT(1711166.298931 -480284.196323)","attributes":{"description":"","title":"Mines","placename":"Democratic Republic of the Congo River","address":"Democratic Republic of Congo"}},{"local_stop_id":15,"id":15,"geometry":"POINT(1619706.606045 6026746.974644)","attributes":{"description":"","title":"Tungsten Smelters","placename":"Austria","address":"Austria"}},{"local_stop_id":14,"id":14,"geometry":"POINT(1711166.298931 -480284.196323)","attributes":{"description":"","title":"Mines","placename":"Democratic Republic of the Congo River","address":"Democratic Republic of Congo"}},{"local_stop_id":13,"id":13,"geometry":"POINT(11724030.288901 8747149.04879)","attributes":{"description":"","title":"Tungsten Smelters","placename":"Russia","address":"Russia"}},{"local_stop_id":12,"id":12,"geometry":"POINT(1711166.298931 -480284.196323)","attributes":{"description":"","title":"Mines","placename":"Democratic Republic of the Congo River","address":"Democratic Republic of Congo"}},{"local_stop_id":11,"id":11,"geometry":"POINT(1163458.552333 6650655.041174)","attributes":{"description":"","title":"Tantalum Smelters","placename":"Germany","address":"Germany"}},{"local_stop_id":10,"id":10,"geometry":"POINT(1711166.298931 -480284.196323)","attributes":{"description":"","title":"Mines","placename":"Democratic Republic of the Congo River","address":"Democratic Republic of Congo"}},{"local_stop_id":9,"id":9,"geometry":"POINT(-10654710.288472 4451692.554811)","attributes":{"description":"","title":"Tantalum Smelters","placename":"United States","address":"United States"}},{"local_stop_id":8,"id":8,"geometry":"POINT(1711166.298931 -480284.196323)","attributes":{"description":"","title":"Mines","placename":"Democratic Republic of the Congo River","address":"Democratic Republic of Congo"}},{"local_stop_id":7,"id":7,"geometry":"POINT(11598978.537043 4281602.659627)","attributes":{"description":"","title":"Tantalum Smelters","placename":"China","address":"China"}},{"local_stop_id":6,"id":6,"geometry":"POINT(1711166.298931 -480284.196323)","attributes":{"description":"","title":"Mines","placename":"Democratic Republic of the Congo River","address":"Democratic Republic of Congo"}},{"local_stop_id":5,"id":5,"geometry":"POINT(7449910.42489 6110111.702601)","attributes":{"description":"","title":"Tantalum Smelters","placename":"Kazakhstan","address":"Kazakhstan"}},{"local_stop_id":4,"id":4,"geometry":"POINT(1711166.298931 -480284.196323)","attributes":{"description":"","title":"Mines","placename":"Democratic Republic of the Congo River","address":"Democratic Republic of Congo"}},{"local_stop_id":3,"id":3,"geometry":"POINT(-11716946.21707 7270403.143886)","attributes":{"description":"","title":"Electronic","placename":"North America","address":"North America"}},{"local_stop_id":2,"id":2,"geometry":"POINT(-11716946.21707 7270403.143886)","attributes":{"description":"","title":"Customer","placename":"North America","address":"North America"}},{"local_stop_id":1,"id":1,"geometry":"POINT(1698192.045675 7270403.143886)","attributes":{"description":"","title":"Customer","placename":"Europe","address":"Europe"}}],"hops":[{"from_stop_id":79,"to_stop_id":80,"geometry":"MULTILINESTRING((11598978.537043 4281602.659627,-11716946.21707 7270403.143886))","attributes":{"title":"Components to Electronics","distance":"9576.918508"}},{"from_stop_id":78,"to_stop_id":79,"geometry":"MULTILINESTRING((11598978.537043 4281602.659627,11598978.537043 4281602.659627))","attributes":{"distance":"0","title":"Tin Smelters to Components"}},{"from_stop_id":77,"to_stop_id":78,"geometry":"MULTILINESTRING((1711166.298931 -480284.196323,11598978.537043 4281602.659627))","attributes":{"title":"Mines to Tin Smelters","distance":"10182.391688"}},{"from_stop_id":76,"to_stop_id":79,"geometry":"MULTILINESTRING((11351890.344374 469131.367658,11598978.537043 4281602.659627))","attributes":{"distance":"3526.805953","title":"Tin Smelters to Components"}},{"from_stop_id":75,"to_stop_id":76,"geometry":"MULTILINESTRING((1711166.298931 -480284.196323,11351890.344374 469131.367658))","attributes":{"distance":"9667.235525","title":"Mines to Tin Smelters"}},{"from_stop_id":74,"to_stop_id":79,"geometry":"MULTILINESTRING((11598978.537043 4281602.659627,11598978.537043 4281602.659627))","attributes":{"distance":"0","title":"Tungsten Smelters to Components"}},{"from_stop_id":73,"to_stop_id":74,"geometry":"MULTILINESTRING((1711166.298931 -480284.196323,11598978.537043 4281602.659627))","attributes":{"distance":"10182.391688","title":"Mines to Tungsten Smelters"}},{"from_stop_id":72,"to_stop_id":79,"geometry":"MULTILINESTRING((1619706.606045 6026746.974644,11598978.537043 4281602.659627))","attributes":{"distance":"7137.380062","title":"Tungsten Smelters to Components"}},{"from_stop_id":71,"to_stop_id":72,"geometry":"MULTILINESTRING((1711166.298931 -480284.196323,1619706.606045 6026746.974644))","attributes":{"distance":"5763.418948","title":"Mines to Tungsten Smelters"}},{"from_stop_id":70,"to_stop_id":79,"geometry":"MULTILINESTRING((11724030.288901 8747149.04879,11598978.537043 4281602.659627))","attributes":{"distance":"2854.615492","title":"Tungsten Smelters to Components"}},{"from_stop_id":69,"to_stop_id":70,"geometry":"MULTILINESTRING((1711166.298931 -480284.196323,11724030.288901 8747149.04879))","attributes":{"distance":"10425.957104","title":"Mines to Tungsten Smelters"}},{"from_stop_id":68,"to_stop_id":79,"geometry":"MULTILINESTRING((1163458.552333 6650655.041174,11598978.537043 4281602.659627))","attributes":{"distance":"7223.887893","title":"Tantalum Smelters to Components"}},{"from_stop_id":67,"to_stop_id":68,"geometry":"MULTILINESTRING((1711166.298931 -480284.196323,1163458.552333 6650655.041174))","attributes":{"distance":"6186.459333","title":"Mines to Tantalum Smelters"}},{"from_stop_id":66,"to_stop_id":79,"geometry":"MULTILINESTRING((-10654710.288472 4451692.554811,11598978.537043 4281602.659627))","attributes":{"distance":"11647.263847","title":"Tantalum Smelters to Components"}},{"from_stop_id":65,"to_stop_id":66,"geometry":"MULTILINESTRING((1711166.298931 -480284.196323,-10654710.288472 4451692.554811))","attributes":{"distance":"12160.118754","title":"Mines to Tantalum Smelters"}},{"from_stop_id":64,"to_stop_id":79,"geometry":"MULTILINESTRING((11598978.537043 4281602.659627,11598978.537043 4281602.659627))","attributes":{"distance":"0","title":"Tantalum Smelters to Components"}},{"from_stop_id":63,"to_stop_id":64,"geometry":"MULTILINESTRING((1711166.298931 -480284.196323,11598978.537043 4281602.659627))","attributes":{"title":"Mines to Tantalum Smelters","distance":"10182.391688"}},{"from_stop_id":62,"to_stop_id":79,"geometry":"MULTILINESTRING((7449910.42489 6110111.702601,11598978.537043 4281602.659627))","attributes":{"distance":"3325.157219","title":"Tantalum Smelters to Components"}},{"from_stop_id":61,"to_stop_id":62,"geometry":"MULTILINESTRING((1711166.298931 -480284.196323,7449910.42489 6110111.702601))","attributes":{"distance":"7669.077598","title":"Mines to Tantalum Smelters"}},{"from_stop_id":60,"to_stop_id":80,"geometry":"MULTILINESTRING((-10654710.288472 4451692.554811,-11716946.21707 7270403.143886))","attributes":{"distance":"2070.618718","title":"Components to Electronics"}},{"from_stop_id":59,"to_stop_id":60,"geometry":"MULTILINESTRING((11598978.537043 4281602.659627,-10654710.288472 4451692.554811))","attributes":{"distance":"11647.263847","title":"Tin Smelters to Components"}},{"from_stop_id":58,"to_stop_id":59,"geometry":"MULTILINESTRING((1711166.298931 -480284.196323,11598978.537043 4281602.659627))","attributes":{"distance":"10182.391688","title":"Mines to Tin Smelters"}},{"from_stop_id":57,"to_stop_id":60,"geometry":"MULTILINESTRING((11351890.344374 469131.367658,-10654710.288472 4451692.554811))","attributes":{"title":"Tin Smelters to Components","distance":"15070.493285"}},{"from_stop_id":56,"to_stop_id":57,"geometry":"MULTILINESTRING((1711166.298931 -480284.196323,11351890.344374 469131.367658))","attributes":{"distance":"9667.235525","title":"Mines to Tin Smelters"}},{"from_stop_id":55,"to_stop_id":60,"geometry":"MULTILINESTRING((11598978.537043 4281602.659627,-10654710.288472 4451692.554811))","attributes":{"distance":"11647.263847","title":"Tungsten Smelters to Components"}},{"from_stop_id":54,"to_stop_id":55,"geometry":"MULTILINESTRING((1711166.298931 -480284.196323,11598978.537043 4281602.659627))","attributes":{"distance":"10182.391688","title":"Mines to Tungsten Smelters"}},{"from_stop_id":53,"to_stop_id":60,"geometry":"MULTILINESTRING((1619706.606045 6026746.974644,-10654710.288472 4451692.554811))","attributes":{"distance":"8343.936825","title":"Tungsten Smelters to Components"}},{"from_stop_id":52,"to_stop_id":53,"geometry":"MULTILINESTRING((1711166.298931 -480284.196323,1619706.606045 6026746.974644))","attributes":{"distance":"5763.418948","title":"Mines to Tungsten Smelters"}},{"from_stop_id":51,"to_stop_id":60,"geometry":"MULTILINESTRING((11724030.288901 8747149.04879,-10654710.288472 4451692.554811))","attributes":{"distance":"8886.084794","title":"Tungsten Smelters to Components"}},{"from_stop_id":50,"to_stop_id":51,"geometry":"MULTILINESTRING((1711166.298931 -480284.196323,11724030.288901 8747149.04879))","attributes":{"distance":"10425.957104","title":"Mines to Tungsten Smelters"}},{"from_stop_id":49,"to_stop_id":60,"geometry":"MULTILINESTRING((1163458.552333 6650655.041174,-10654710.288472 4451692.554811))","attributes":{"distance":"7861.470225","title":"Tantalum Smelters to Components"}},{"from_stop_id":48,"to_stop_id":49,"geometry":"MULTILINESTRING((1711166.298931 -480284.196323,1163458.552333 6650655.041174))","attributes":{"distance":"6186.459333","title":"Mines to Tantalum Smelters"}},{"from_stop_id":47,"to_stop_id":60,"geometry":"MULTILINESTRING((-10654710.288472 4451692.554811,-10654710.288472 4451692.554811))","attributes":{"distance":"0","title":"Tantalum Smelters to Components"}},{"from_stop_id":46,"to_stop_id":47,"geometry":"MULTILINESTRING((1711166.298931 -480284.196323,-10654710.288472 4451692.554811))","attributes":{"distance":"12160.118754","title":"Mines to Tantalum Smelters"}},{"from_stop_id":45,"to_stop_id":60,"geometry":"MULTILINESTRING((11598978.537043 4281602.659627,-10654710.288472 4451692.554811))","attributes":{"distance":"11647.263847","title":"Tantalum Smelters to Components"}},{"from_stop_id":44,"to_stop_id":45,"geometry":"MULTILINESTRING((1711166.298931 -480284.196323,11598978.537043 4281602.659627))","attributes":{"distance":"10182.391688","title":"Mines to Tantalum Smelters"}},{"from_stop_id":43,"to_stop_id":60,"geometry":"MULTILINESTRING((7449910.42489 6110111.702601,-10654710.288472 4451692.554811))","attributes":{"title":"Tantalum Smelters to Components","distance":"10395.986698"}},{"from_stop_id":42,"to_stop_id":43,"geometry":"MULTILINESTRING((1711166.298931 -480284.196323,7449910.42489 6110111.702601))","attributes":{"distance":"7669.077598","title":"Mines to Tantalum Smelters"}},{"from_stop_id":41,"to_stop_id":80,"geometry":"MULTILINESTRING((-382490.764739 7435586.530983,-11716946.21707 7270403.143886))","attributes":{"title":"Components to Electronics","distance":"5886.805599"}},{"from_stop_id":40,"to_stop_id":41,"geometry":"MULTILINESTRING((11598978.537043 4281602.659627,-382490.764739 7435586.530983))","attributes":{"title":"Tin Smelters to Components","distance":"7779.560130"}},{"from_stop_id":39,"to_stop_id":40,"geometry":"MULTILINESTRING((1711166.298931 -480284.196323,11598978.537043 4281602.659627))","attributes":{"title":"Mines to Tin Smelters","distance":"10182.391688"}},{"from_stop_id":38,"to_stop_id":41,"geometry":"MULTILINESTRING((11351890.344374 469131.367658,-382490.764739 7435586.530983))","attributes":{"distance":"10582.756584","title":"Tin Smelters to Components"}},{"from_stop_id":37,"to_stop_id":38,"geometry":"MULTILINESTRING((1711166.298931 -480284.196323,11351890.344374 469131.367658))","attributes":{"title":"Mines to Tin Smelters","distance":"9667.235525"}},{"from_stop_id":36,"to_stop_id":41,"geometry":"MULTILINESTRING((11598978.537043 4281602.659627,-382490.764739 7435586.530983))","attributes":{"distance":"7779.560130","title":"Tungsten Smelters to Components"}},{"from_stop_id":35,"to_stop_id":36,"geometry":"MULTILINESTRING((1711166.298931 -480284.196323,11598978.537043 4281602.659627))","attributes":{"distance":"10182.391688","title":"Mines to Tungsten Smelters"}},{"from_stop_id":34,"to_stop_id":41,"geometry":"MULTILINESTRING((1619706.606045 6026746.974644,-382490.764739 7435586.530983))","attributes":{"distance":"1515.284960","title":"Tungsten Smelters to Components"}},{"from_stop_id":33,"to_stop_id":34,"geometry":"MULTILINESTRING((1711166.298931 -480284.196323,1619706.606045 6026746.974644))","attributes":{"distance":"5763.418948","title":"Mines to Tungsten Smelters"}},{"from_stop_id":32,"to_stop_id":41,"geometry":"MULTILINESTRING((11724030.288901 8747149.04879,-382490.764739 7435586.530983))","attributes":{"distance":"5613.819817","title":"Tungsten Smelters to Components"}},{"from_stop_id":31,"to_stop_id":32,"geometry":"MULTILINESTRING((1711166.298931 -480284.196323,11724030.288901 8747149.04879))","attributes":{"distance":"10425.957104","title":"Mines to Tungsten Smelters"}},{"from_stop_id":30,"to_stop_id":41,"geometry":"MULTILINESTRING((1163458.552333 6650655.041174,-382490.764739 7435586.530983))","attributes":{"distance":"1032.984767","title":"Tantalum Smelters to Components"}},{"from_stop_id":29,"to_stop_id":30,"geometry":"MULTILINESTRING((1711166.298931 -480284.196323,1163458.552333 6650655.041174))","attributes":{"distance":"6186.459333","title":"Mines to Tantalum Smelters"}},{"from_stop_id":28,"to_stop_id":41,"geometry":"MULTILINESTRING((-10654710.288472 4451692.554811,-382490.764739 7435586.530983))","attributes":{"distance":"6830.403467","title":"Tantalum Smelters to Components"}},{"from_stop_id":27,"to_stop_id":28,"geometry":"MULTILINESTRING((1711166.298931 -480284.196323,-10654710.288472 4451692.554811))","attributes":{"distance":"12160.118754","title":"Mines to Tantalum Smelters"}},{"from_stop_id":26,"to_stop_id":41,"geometry":"MULTILINESTRING((11598978.537043 4281602.659627,-382490.764739 7435586.530983))","attributes":{"distance":"7779.560130","title":"Tantalum Smelters to Components"}},{"from_stop_id":25,"to_stop_id":26,"geometry":"MULTILINESTRING((1711166.298931 -480284.196323,11598978.537043 4281602.659627))","attributes":{"distance":"10182.391688","title":"Mines to Tantalum Smelters"}},{"from_stop_id":24,"to_stop_id":41,"geometry":"MULTILINESTRING((7449910.42489 6110111.702601,-382490.764739 7435586.530983))","attributes":{"distance":"4705.079150","title":"Tantalum Smelters to Components"}},{"from_stop_id":23,"to_stop_id":24,"geometry":"MULTILINESTRING((1711166.298931 -480284.196323,7449910.42489 6110111.702601))","attributes":{"distance":"7669.077598","title":"Mines to Tantalum Smelters"}},{"from_stop_id":22,"to_stop_id":80,"geometry":"MULTILINESTRING((15390245.100361 4328841.562513,-11716946.21707 7270403.143886))","attributes":{"title":"Components to Electronics","distance":"8251.550530"}},{"from_stop_id":21,"to_stop_id":22,"geometry":"MULTILINESTRING((11598978.537043 4281602.659627,15390245.100361 4328841.562513))","attributes":{"distance":"3046.758002","title":"Tin Smelters to Components"}},{"from_stop_id":20,"to_stop_id":21,"geometry":"MULTILINESTRING((1711166.298931 -480284.196323,11598978.537043 4281602.659627))","attributes":{"distance":"10182.391688","title":"Mines to Tin Smelters"}},{"from_stop_id":19,"to_stop_id":22,"geometry":"MULTILINESTRING((11351890.344374 469131.367658,15390245.100361 4328841.562513))","attributes":{"title":"Tin Smelters to Components","distance":"5137.459185"}},{"from_stop_id":18,"to_stop_id":19,"geometry":"MULTILINESTRING((1711166.298931 -480284.196323,11351890.344374 469131.367658))","attributes":{"distance":"9667.235525","title":"Mines to Tin Smelters"}},{"from_stop_id":17,"to_stop_id":22,"geometry":"MULTILINESTRING((11598978.537043 4281602.659627,15390245.100361 4328841.562513))","attributes":{"title":"Tungsten Smelters to Components","distance":"3046.758002"}},{"from_stop_id":16,"to_stop_id":17,"geometry":"MULTILINESTRING((1711166.298931 -480284.196323,11598978.537043 4281602.659627))","attributes":{"distance":"10182.391688","title":"Mines to Tungsten Smelters"}},{"from_stop_id":15,"to_stop_id":22,"geometry":"MULTILINESTRING((1619706.606045 6026746.974644,15390245.100361 4328841.562513))","attributes":{"distance":"9156.358881","title":"Tungsten Smelters to Components"}},{"from_stop_id":14,"to_stop_id":15,"geometry":"MULTILINESTRING((1711166.298931 -480284.196323,1619706.606045 6026746.974644))","attributes":{"distance":"5763.418948","title":"Mines to Tungsten Smelters"}},{"from_stop_id":13,"to_stop_id":22,"geometry":"MULTILINESTRING((11724030.288901 8747149.04879,15390245.100361 4328841.562513))","attributes":{"distance":"3628.976577","title":"Tungsten Smelters to Components"}},{"from_stop_id":12,"to_stop_id":13,"geometry":"MULTILINESTRING((1711166.298931 -480284.196323,11724030.288901 8747149.04879))","attributes":{"distance":"10425.957104","title":"Mines to Tungsten Smelters"}},{"from_stop_id":11,"to_stop_id":22,"geometry":"MULTILINESTRING((1163458.552333 6650655.041174,15390245.100361 4328841.562513))","attributes":{"distance":"9048.413196","title":"Tantalum Smelters to Components"}},{"from_stop_id":10,"to_stop_id":11,"geometry":"MULTILINESTRING((1711166.298931 -480284.196323,1163458.552333 6650655.041174))","attributes":{"distance":"6186.459333","title":"Mines to Tantalum Smelters"}},{"from_stop_id":9,"to_stop_id":22,"geometry":"MULTILINESTRING((-10654710.288472 4451692.554811,15390245.100361 4328841.562513))","attributes":{"distance":"10150.436294","title":"Tantalum Smelters to Components"}},{"from_stop_id":8,"to_stop_id":9,"geometry":"MULTILINESTRING((1711166.298931 -480284.196323,-10654710.288472 4451692.554811))","attributes":{"distance":"12160.118754","title":"Mines to Tantalum Smelters"}},{"from_stop_id":7,"to_stop_id":22,"geometry":"MULTILINESTRING((11598978.537043 4281602.659627,15390245.100361 4328841.562513))","attributes":{"distance":"3046.758002","title":"Tantalum Smelters to Components"}},{"from_stop_id":6,"to_stop_id":7,"geometry":"MULTILINESTRING((1711166.298931 -480284.196323,11598978.537043 4281602.659627))","attributes":{"distance":"10182.391688","title":"Mines to Tantalum Smelters"}},{"from_stop_id":5,"to_stop_id":22,"geometry":"MULTILINESTRING((7449910.42489 6110111.702601,15390245.100361 4328841.562513))","attributes":{"distance":"5812.712268","title":"Tantalum Smelters to Components"}},{"from_stop_id":4,"to_stop_id":5,"geometry":"MULTILINESTRING((1711166.298931 -480284.196323,7449910.42489 6110111.702601))","attributes":{"title":"Mines to Tantalum Smelters","distance":"7669.077598"}},{"from_stop_id":3,"to_stop_id":2,"geometry":"MULTILINESTRING((-11716946.21707 7270403.143886,-11716946.21707 7270403.143886))","attributes":{"title":"Electronic to Customer","distance":"0"}},{"from_stop_id":3,"to_stop_id":1,"geometry":"MULTILINESTRING((-11716946.21707 7270403.143886,1698192.045675 7270403.143886))","attributes":{"distance":"6728.724612","title":"Electronic to Customer"}},{"from_stop_id":4,"to_stop_id":19,"geometry":"MULTILINESTRING((1711166.298931 -480284.196323,11351890.344373 469131.367658))","attributes":{"co2e":"0","distance":"9667.235525","title":"Mines to Tin Smelters"}}]},"editable":false}