{"type":"FeatureCollection","features":[{"type":"Feature","geometry":{"type":"Point","coordinates":[-7.9999999988864,12.649999998268]},"properties":{"description":"","address":"Bamako, Mali","title":"Bamako"}},{"type":"Feature","geometry":{"type":"Point","coordinates":[-5.466666699239,12.383333298303]},"properties":{"supplychain_instance_id":"supplychain-1","stop_instance_id":"stop-42","description":"","address":"Koutiala, Mali","title":"Koutiala"}},{"type":"Feature","geometry":{"type":"Point","coordinates":[-1.5338638997865,12.364636998305]},"properties":{"supplychain_instance_id":"supplychain-1","stop_instance_id":"stop-29","description":"","address":"Ouagadougou, Burkina Faso","title":"Ouagadougou"}},{"type":"Feature","geometry":{"type":"Point","coordinates":[-17.333333297587,14.749999997993]},"properties":{"supplychain_instance_id":"supplychain-1","stop_instance_id":"stop-10","description":"","address":"Dakar Region, Senegal","title":"Dakar"}},{"type":"Feature","geometry":{"type":"Point","coordinates":[8.5166669988144,11.999999998354]},"properties":{"supplychain_instance_id":"supplychain-1","stop_instance_id":"stop-5","description":"","address":"Kano, Nigeria","title":"Kano"}},{"type":"Feature","geometry":{"type":"Point","coordinates":[-0.19630599997267,5.555716899229]},"properties":{"supplychain_instance_id":"supplychain-1","stop_instance_id":"stop-1","description":"","address":"Accra, Ghana","title":"Accra"}}],"properties":{"description":"PICS BAGS DISTRIBUTORS IN WEST AND CENTRAL AFRICA","tags":"pics distributors","title":"PICS DISTRIBUTORS"}}