{"type":"FeatureCollection","features":[{"type":"Feature","geometry":{"type":"Point","coordinates":[-71.103651100004,42.365560999997]},"properties":{"address":"Central Square, Cambridge","placename":"Central Square Florist, 653 Massachusetts avenue, Mid-Cambridge, Massachusetts 02139, USA","title":"Neighbors"}},{"type":"Feature","geometry":{"type":"Point","coordinates":[-117.0392607,32.724249399998]},"properties":{"address":"Main St. & Massachusetts Ave.","placename":"Massachusetts Ave & Main St, Lemon Grove, CA 91945, USA","title":"Lemonade Stand"}},{"type":"Feature","geometry":{"type":"Point","coordinates":[-108.5419872,46.442267399999]},"properties":{"address":"123 Main St.","placename":"123 Main St, Roundup, Mt 59072, USA","title":"Family"}},{"type":"Feature","geometry":{"type":"Point","coordinates":[-108.5419872,46.442267399999]},"properties":{"address":"123 Main St.","placename":"123 Main St, Roundup, Mt 59072, USA","title":"Refrigerator"}},{"type":"Feature","geometry":{"type":"Point","coordinates":[-71.109733499997,42.373615800001]},"properties":{"address":"Cambridge, MA","placename":"Cambridge, MA, USA","title":"Lemonade"}},{"type":"Feature","geometry":{"type":"Point","coordinates":[-119.6981901,34.420830499998]},"properties":{"address":"Santa Barbara, CA","placename":"Santa Barbara, CA, USA","title":"Tier 1"}},{"type":"Feature","geometry":{"type":"Point","coordinates":[-74.1723667,40.735656999999]},"properties":{"address":"Newark, NJ","placename":"Newark, NJ, USA","title":"Tier 1"}},{"type":"Feature","geometry":{"type":"Point","coordinates":[-84.503716399998,38.040583699998]},"properties":{"address":"Lexington , KY","placename":"Lexington, KY, USA","title":"Tier 1"}},{"type":"Feature","geometry":{"type":"Point","coordinates":[-92.536586500003,45.123021300002]},"properties":{"address":"New Richmond, WI","placename":"New Richmond, WI 54017, USA","title":"Tier 1"}},{"type":"Feature","geometry":{"type":"Point","coordinates":[-75.341566699996,40.441768200002]},"properties":{"address":"Quakertown, PA","placename":"Quakertown, PA 18951, USA","title":"Tier 1"}},{"type":"Feature","geometry":{"type":"Point","coordinates":[-93.794137799999,45.305520099998]},"properties":{"address":"Monticello, MN","placename":"Monticello, MN, USA","title":"Tier 1"}},{"type":"Feature","geometry":{"type":"Point","coordinates":[-87.821185400003,42.584742500001]},"properties":{"address":"Kenosha, WI","placename":"Kenosha, WI, USA","title":"Tier 1"}},{"type":"Feature","geometry":{"type":"Point","coordinates":[-70.871164799998,42.894812400002]},"properties":{"address":"Seabrook, NH","placename":"Seabrook, NH, USA","title":"Tier 1"}},{"type":"Feature","geometry":{"type":"Point","coordinates":[-93.746559999999,45.336605000001]},"properties":{"address":"Big Lake, MN","placename":"Big Lake, MN, USA","title":"Tier 1"}},{"type":"Feature","geometry":{"type":"Point","coordinates":[-84.761903200002,41.293106000001]},"properties":{"address":"Hicksville, OH","placename":"Hicksville, OH 43526, USA","title":"Tier 1"}},{"type":"Feature","geometry":{"type":"Point","coordinates":[-85.488312699999,41.157268599999]},"properties":{"address":"Columbia City, IN","placename":"Columbia City, IN 46725, USA","title":"Tier 1"}},{"type":"Feature","geometry":{"type":"Point","coordinates":[-72.6162009,42.204258599999]},"properties":{"address":"Holyoke, MA","placename":"Holyoke, MA, USA","title":"Tier 1"}},{"type":"Feature","geometry":{"type":"Point","coordinates":[-87.953422600004,43.319726500001]},"properties":{"address":"Grafton, WI","placename":"Grafton, WI, USA","title":"Tier 1"}},{"type":"Feature","geometry":{"type":"Point","coordinates":[-87.821185400003,42.584742500001]},"properties":{"address":"Kenosha, WI","placename":"Kenosha, WI, USA","title":"Tier 1"}},{"type":"Feature","geometry":{"type":"Point","coordinates":[-81.339552,41.666157299997]},"properties":{"address":"Mentor, OH","placename":"Mentor, OH, USA","title":"Tier 1"}},{"type":"Feature","geometry":{"type":"Point","coordinates":[-81.655650999998,30.332183800001]},"properties":{"address":"Jacksonville, FL","placename":"Jacksonville, FL, USA","title":"Tier 1"}},{"type":"Feature","geometry":{"type":"Point","coordinates":[-84.146861599999,33.447336099999]},"properties":{"address":"McDonough, GA","placename":"McDonough, GA, USA","title":"Tier 1"}},{"type":"Feature","geometry":{"type":"Point","coordinates":[-74.205701100001,41.016763899997]},"properties":{"address":"Franklin Lakes, NJ","placename":"Franklin Lakes, NJ, USA","title":"Tier 1"}},{"type":"Feature","geometry":{"type":"Point","coordinates":[-121.9885719,37.5482697]},"properties":{"address":"Fremont, CA","placename":"Fremont, CA, USA","title":"Tier 1"}},{"type":"Feature","geometry":{"type":"Point","coordinates":[-75.490183300001,40.608430499997]},"properties":{"address":"Allentown, PA","placename":"Allentown, PA, USA","title":"Tier 1"}},{"type":"Feature","geometry":{"type":"Point","coordinates":[-75.181006300001,40.298995100001]},"properties":{"address":"New Britain, PA","placename":"New Britain, PA, USA","title":"Tier 1"}},{"type":"Feature","geometry":{"type":"Point","coordinates":[-75.3835525,40.101285599997]},"properties":{"address":"King of Prussia, PA","placename":"King of Prussia, PA, USA","title":"Tier 1"}},{"type":"Feature","geometry":{"type":"Point","coordinates":[-90.199404200003,38.6270025]},"properties":{"address":"St. Louis, MO","placename":"St Louis, MO, USA","title":"Tier 1"}},{"type":"Feature","geometry":{"type":"Point","coordinates":[-93.089957799997,44.953702899998]},"properties":{"address":"St. Paul, MN","placename":"St Paul, MN, USA","title":"Tier 1"}},{"type":"Feature","geometry":{"type":"Point","coordinates":[-73.775132599998,41.074818799998]},"properties":{"address":"Valhalla, NY","placename":"Valhalla, NY, USA","title":"Tier 1"}},{"type":"Feature","geometry":{"type":"Point","coordinates":[-71.041666699996,42.130555600001]},"properties":{"address":"Avon, MA","placename":"Avon, MA, USA","title":"Tier 1"}},{"type":"Feature","geometry":{"type":"Point","coordinates":[-93.089957799997,44.953702899998]},"properties":{"address":"St. Paul, MN","placename":"St Paul, MN, USA","title":"Tier 1"}},{"type":"Feature","geometry":{"type":"Point","coordinates":[-87.844793799999,42.3636331]},"properties":{"address":"Waukegan, IL","placename":"Waukegan, IL, USA","title":"Tier 1"}},{"type":"Feature","geometry":{"type":"Point","coordinates":[-71.235611300004,42.376485200003]},"properties":{"address":"Waltham, MA","placename":"Waltham, MA, USA","title":"Tier 1"}},{"type":"Feature","geometry":{"type":"Point","coordinates":[-78.8783689,42.886446799999]},"properties":{"address":"Buffalo, NY","placename":"Buffalo, NY, USA","title":"Tier 1"}},{"type":"Feature","geometry":{"type":"Point","coordinates":[-71.018378700001,42.0834335]},"properties":{"address":"Brockton, MA","placename":"Brockton, MA, USA","title":"Tier 1"}},{"type":"Feature","geometry":{"type":"Point","coordinates":[-104.8319195,39.729431900001]},"properties":{"address":"Aurora, CO","placename":"Aurora, CO, USA","title":"Tier 1"}},{"type":"Feature","geometry":{"type":"Point","coordinates":[-71.412834299996,41.823989100001]},"properties":{"address":"Providence, RI","placename":"Providence, RI, USA","title":"Tier 1"}},{"type":"Feature","geometry":{"type":"Point","coordinates":[-81.055889400001,29.285812900001]},"properties":{"address":"Ormand Beach, FL","placename":"Ormond Beach, FL, USA","title":"Tier 1"}},{"type":"Feature","geometry":{"type":"Point","coordinates":[-79.379481099997,40.321180800001]},"properties":{"address":"Latrobe, PA","placename":"Latrobe, PA 15650, USA","title":"Tier 1"}},{"type":"Feature","geometry":{"type":"Point","coordinates":[-104.8213634,38.833881600003]},"properties":{"address":"Colorado Springs, CO","placename":"Colorado Springs, CO, USA","title":"Tier 1"}},{"type":"Feature","geometry":{"type":"Point","coordinates":[-118.2436849,34.052234200001]},"properties":{"address":"Los Angeles, CA","placename":"Los Angeles, CA, USA","title":"Tier 1"}},{"type":"Feature","geometry":{"type":"Point","coordinates":[-118.3089624,33.888348699999]},"properties":{"address":"Gardena, CA","placename":"Gardena, CA, USA","title":"Tier 1"}},{"type":"Feature","geometry":{"type":"Point","coordinates":[-86.495821900003,34.318149699998]},"properties":{"address":"Arab, AL","placename":"Arab, AL 35016, USA","title":"Tier 1"}},{"type":"Feature","geometry":{"type":"Point","coordinates":[-79.813644599997,35.707914600002]},"properties":{"address":"Asheboro, NC","placename":"Asheboro, NC, USA","title":"Tier 1"}},{"type":"Feature","geometry":{"type":"Point","coordinates":[-71.018378700001,42.0834335]},"properties":{"address":"Brockton, MA","placename":"Brockton, MA, USA","title":"Tier 1"}},{"type":"Feature","geometry":{"type":"Point","coordinates":[-75.299341700003,40.279827399998]},"properties":{"address":"Hatfield, PA","placename":"Hatfield, PA 19440, USA","title":"Tier 1"}},{"type":"Feature","geometry":{"type":"Point","coordinates":[-71.018378700001,42.0834335]},"properties":{"address":"Brockton, MA","placename":"Brockton, MA, USA","title":"Tier 1"}},{"type":"Feature","geometry":{"type":"Point","coordinates":[-74.005973100003,40.7143528]},"properties":{"address":"New York, NY","placename":"New York, NY, USA","title":"Tier 1"}},{"type":"Feature","geometry":{"type":"Point","coordinates":[-105.2705456,40.014985600001]},"properties":{"address":"Boulder, CO","placename":"Boulder, CO, USA","title":"Tier 1"}},{"type":"Feature","geometry":{"type":"Point","coordinates":[-117.7946942,33.683947299998]},"properties":{"address":"Irvine, CA","placename":"Irvine, CA, USA","title":"Tier 1"}},{"type":"Feature","geometry":{"type":"Point","coordinates":[-73.153973400003,43.074785799998]},"properties":{"address":"Arlington, VT","placename":"Arlington, VT, USA","title":"Tier 1"}},{"type":"Feature","geometry":{"type":"Point","coordinates":[-78.8783689,42.886446799999]},"properties":{"address":"Buffalo, NY","placename":"Buffalo, NY, USA","title":"Tier 1"}},{"type":"Feature","geometry":{"type":"Point","coordinates":[-87.963130799999,42.166283099997]},"properties":{"address":"Buffalo Grove, IL","placename":"Buffalo Grove, IL, USA","title":"Tier 1"}},{"type":"Feature","geometry":{"type":"Point","coordinates":[-84.191606899996,39.758947799999]},"properties":{"address":"Dayton, OH","placename":"Dayton, OH, USA","title":"Tier 1"}},{"type":"Feature","geometry":{"type":"Point","coordinates":[-87.906473599997,43.038902500002]},"properties":{"address":"Milwaukee, WI","placename":"Milwaukee, WI, USA","title":"Tier 1"}},{"type":"Feature","geometry":{"type":"Point","coordinates":[-72.016666700001,41.966666699998]},"properties":{"address":"Woodstock, CT","placename":"Woodstock, CT, USA","title":"Tier 1"}},{"type":"Feature","geometry":{"type":"Point","coordinates":[-104.8213634,38.833881600003]},"properties":{"address":"Colorado Springs, CO","placename":"Colorado Springs, CO, USA","title":"Tier 1"}},{"type":"Feature","geometry":{"type":"Point","coordinates":[-117.1572551,32.715329199999]},"properties":{"address":"San Diego, CA","placename":"San Diego, CA, USA","title":"Tier 1"}},{"type":"Feature","geometry":{"type":"Point","coordinates":[-71.470350900004,43.527854599999]},"properties":{"address":"Laconia, NH","placename":"Laconia, NH, USA","title":"Tier 1"}},{"type":"Feature","geometry":{"type":"Point","coordinates":[-71.425000000004,42.199999999999]},"properties":{"address":"Holliston, MA","placename":"Holliston, MA, USA","title":"Tier 1"}},{"type":"Feature","geometry":{"type":"Point","coordinates":[-122.8037102,45.487062]},"properties":{"address":"Beaverton, OR","placename":"Beaverton, OR, USA","title":"Tier 1"}},{"type":"Feature","geometry":{"type":"Point","coordinates":[-73.195176700003,41.186547799997]},"properties":{"address":"Bridgeport, CT","placename":"Bridgeport, CT, USA","title":"Tier 1"}},{"type":"Feature","geometry":{"type":"Point","coordinates":[-70.865337200003,43.2617503]},"properties":{"address":"Somersworth, NH","placename":"Somersworth, NH, USA","title":"Tier 1"}},{"type":"Feature","geometry":{"type":"Point","coordinates":[-81.022833099996,29.2108147]},"properties":{"address":"Daytona Beach, FL","placename":"Daytona Beach, FL, USA","title":"Tier 1"}},{"type":"Feature","geometry":{"type":"Point","coordinates":[-83.704949800004,42.797806099997]},"properties":{"address":"Fenton, MI","placename":"Fenton, MI, USA","title":"Tier 1"}},{"type":"Feature","geometry":{"type":"Point","coordinates":[-118.5642291,34.389816199997]},"properties":{"address":"Valencia, CA","placename":"Valencia, Santa Clarita, CA, USA","title":"Tier 1"}},{"type":"Feature","geometry":{"type":"Point","coordinates":[-74.411540099998,40.579270100002]},"properties":{"address":"South Plainfield, NJ","placename":"South Plainfield, NJ, USA","title":"Tier 1"}},{"type":"Feature","geometry":{"type":"Point","coordinates":[-105.2705456,40.014985600001]},"properties":{"address":"Boulder, CO","placename":"Boulder, CO, USA","title":"Tier 1"}},{"type":"Feature","geometry":{"type":"Point","coordinates":[-71.470350900004,43.527854599999]},"properties":{"address":"Laconia, NH","placename":"Laconia, NH, USA","title":"Tier 1"}},{"type":"Feature","geometry":{"type":"Point","coordinates":[-83.2341028,42.6875323]},"properties":{"address":"Auburn Hills, MI","placename":"Auburn Hills, MI, USA","title":"Tier 1"}},{"type":"Feature","geometry":{"type":"Point","coordinates":[-85.668086299998,42.963359900002]},"properties":{"address":"Grand Rapids, MI","placename":"Grand Rapids, MI, USA","title":"Tier 1"}},{"type":"Feature","geometry":{"type":"Point","coordinates":[-73.202613800003,40.825653600002]},"properties":{"address":"Hauppauge, NY","placename":"Hauppauge, NY, USA","title":"Tier 1"}},{"type":"Feature","geometry":{"type":"Point","coordinates":[-72.424511699996,43.238627500003]},"properties":{"address":"Charlestown, NH","placename":"Charlestown, NH, USA","title":"Tier 1"}},{"type":"Feature","geometry":{"type":"Point","coordinates":[-119.8138027,39.529632899998]},"properties":{"address":"Reno, NV","placename":"Reno, NV, USA","title":"Tier 1"}},{"type":"Feature","geometry":{"type":"Point","coordinates":[-81.835689999998,41.3144966]},"properties":{"address":"Strongsville, OH","placename":"Strongsville, OH, USA","title":"Tier 1"}},{"type":"Feature","geometry":{"type":"Point","coordinates":[-97.416870000004,42.029640000003]},"properties":{"address":"Norfolk, NE","placename":"Norfolk, NE 68701, USA","title":"Tier 1"}},{"type":"Feature","geometry":{"type":"Point","coordinates":[-116.5532476,48.276590299998]},"properties":{"address":"Sandpoint, ID","placename":"Sandpoint, ID, USA","title":"Tier 1"}},{"type":"Feature","geometry":{"type":"Point","coordinates":[-117.9992265,33.660297000002]},"properties":{"address":"Huntington Beach, CA","placename":"Huntington Beach, CA, USA","title":"Tier 1"}},{"type":"Feature","geometry":{"type":"Point","coordinates":[-121.082167,38.685736700003]},"properties":{"address":"El Dorado Hills, CA","placename":"El Dorado Hills, CA, USA","title":"Tier 1"}},{"type":"Feature","geometry":{"type":"Point","coordinates":[-85.488312699999,41.157268599999]},"properties":{"address":"Columbia City, IN","placename":"Columbia City, IN 46725, USA","title":"Tier 1"}},{"type":"Feature","geometry":{"type":"Point","coordinates":[-79.716432599997,39.900076000003]},"properties":{"address":"Uniontown, PA","placename":"Uniontown, PA 15401, USA","title":"Tier 1"}},{"type":"Feature","geometry":{"type":"Point","coordinates":[-118.442425,34.227617]},"properties":{"address":"Panorama City, CA","placename":"Panorama City, Los Angeles, CA, USA","title":"Tier 1"}},{"type":"Feature","geometry":{"type":"Point","coordinates":[-92.536586500003,45.123021300002]},"properties":{"address":"New Richmond, WI","placename":"New Richmond, WI 54017, USA","title":"Tier 1"}},{"type":"Feature","geometry":{"type":"Point","coordinates":[-90.048980100003,35.149534299999]},"properties":{"address":"Memphis, TN","placename":"Memphis, TN, USA","title":"Tier 1"}},{"type":"Feature","geometry":{"type":"Point","coordinates":[-85.849992100004,41.331990399998]},"properties":{"address":"Leesburg, IN","placename":"Leesburg, IN, USA","title":"Tier 1"}},{"type":"Feature","geometry":{"type":"Point","coordinates":[-78.476678100003,38.029305900003]},"properties":{"address":"Charlottesville, VA","placename":"Charlottesville, VA, USA","title":"Tier 1"}},{"type":"Feature","geometry":{"type":"Point","coordinates":[-71.966461999996,41.354265599997]},"properties":{"address":"Mystic, CT","placename":"Mystic, Stonington, CT, USA","title":"Tier 1"}},{"type":"Feature","geometry":{"type":"Point","coordinates":[-86.250006599996,41.683381299998]},"properties":{"address":"South Bend, IN","placename":"South Bend, IN, USA","title":"Tier 1"}},{"type":"Feature","geometry":{"type":"Point","coordinates":[-81.835689999998,41.3144966]},"properties":{"address":"Strongsville, OH","placename":"Strongsville, OH, USA","title":"Tier 1"}},{"type":"Feature","geometry":{"type":"Point","coordinates":[-118.0120086,33.917235700003]},"properties":{"address":"La Mirada, CA","placename":"La Mirada, CA, USA","title":"Tier 1"}},{"type":"Feature","geometry":{"type":"Point","coordinates":[-85.1663593,40.880603]},"properties":{"address":"Ossian, IN","placename":"Ossian, IN 46777, USA","title":"Tier 1"}},{"type":"Feature","geometry":{"type":"Point","coordinates":[-85.3194208,41.230603399997]},"properties":{"address":"Churubusco, IN","placename":"Churubusco, IN 46723, USA","title":"Tier 1"}},{"type":"Feature","geometry":{"type":"Point","coordinates":[-93.201036699998,43.1535728]},"properties":{"address":"Mason City, IA","placename":"Mason City, IA 50401, USA","title":"Tier 1"}},{"type":"Feature","geometry":{"type":"Point","coordinates":[-74.383762400001,40.740933999997]},"properties":{"address":"Chatham, NJ","placename":"Chatham, NJ, USA","title":"Tier 1"}},{"type":"Feature","geometry":{"type":"Point","coordinates":[-87.332813900002,41.4828144]},"properties":{"address":"Merrillville, IN","placename":"Merrillville, IN, USA","title":"Tier 1"}},{"type":"Feature","geometry":{"type":"Point","coordinates":[-70.8166667,42.116666700002]},"properties":{"address":"Hanover, MA","placename":"Hanover, MA, USA","title":"Tier 1"}},{"type":"Feature","geometry":{"type":"Point","coordinates":[-74.466388900001,40.539722200002]},"properties":{"address":"Piscataway, NJ","placename":"Piscataway Township, NJ, USA","title":"Tier 1"}},{"type":"Feature","geometry":{"type":"Point","coordinates":[-88.813946900001,35.614516900002]},"properties":{"address":"Jackson, TN","placename":"Jackson, TN, USA","title":"Tier 1"}},{"type":"Feature","geometry":{"type":"Point","coordinates":[-84.345316899997,46.495299599997]},"properties":{"address":"Sault Sainte Marie, MI","placename":"Sault Ste. Marie, MI, USA","title":"Tier 1"}},{"type":"Feature","geometry":{"type":"Point","coordinates":[-85.587228600004,42.2917069]},"properties":{"address":"Kalamazoo, MI","placename":"Kalamazoo, MI, USA","title":"Tier 1"}},{"type":"Feature","geometry":{"type":"Point","coordinates":[-120.6596156,35.2827524]},"properties":{"address":"San Luis Obispo, CA","placename":"San Luis Obispo, CA, USA","title":"Tier 1"}},{"type":"Feature","geometry":{"type":"Point","coordinates":[-75.232663999996,43.100902999998]},"properties":{"address":"Utica, NY","placename":"Utica, NY, USA","title":"Tier 1"}},{"type":"Feature","geometry":{"type":"Point","coordinates":[-81.794810299996,26.142035800001]},"properties":{"address":"Naples, FL","placename":"Naples, FL, USA","title":"Tier 1"}},{"type":"Feature","geometry":{"type":"Point","coordinates":[-93.266669999997,44.983334]},"properties":{"address":"Minneapolis, MN","placename":"Minneapolis, MN, USA","title":"Tier 1"}},{"type":"Feature","geometry":{"type":"Point","coordinates":[-118.0275667,34.0686206]},"properties":{"address":"El Monte, CA","placename":"El Monte, CA, USA","title":"Tier 1"}},{"type":"Feature","geometry":{"type":"Point","coordinates":[-80.058096900004,26.775340500001]},"properties":{"address":"Riviera Beach, FL","placename":"Riviera Beach, FL, USA","title":"Tier 1"}},{"type":"Feature","geometry":{"type":"Point","coordinates":[-90.664571799998,42.5005583]},"properties":{"address":"Dubuque, IA","placename":"Dubuque, IA, USA","title":"Tier 1"}},{"type":"Feature","geometry":{"type":"Point","coordinates":[-83.2341028,42.6875323]},"properties":{"address":"Auburn Hills, MI","placename":"Auburn Hills, MI, USA","title":"Tier 1"}},{"type":"Feature","geometry":{"type":"Point","coordinates":[-85.737184700001,38.277570199999]},"properties":{"address":"Jeffersonville, IN","placename":"Jeffersonville, IN, USA","title":"Tier 1"}},{"type":"Feature","geometry":{"type":"Point","coordinates":[-93.6018389,44.789344600003]},"properties":{"address":"Chaska, MN","placename":"Chaska, MN, USA","title":"Tier 1"}},{"type":"Feature","geometry":{"type":"Point","coordinates":[-80.244215999996,36.099859599998]},"properties":{"address":"Winston Salem, NC","placename":"Winston-Salem, NC, USA","title":"Tier 1"}},{"type":"Feature","geometry":{"type":"Point","coordinates":[-80.255340700003,42.031445599999]},"properties":{"address":"Fairview, PA","placename":"Fairview, PA, USA","title":"Tier 1"}},{"type":"Feature","geometry":{"type":"Point","coordinates":[-72.772499999996,41.613888900003]},"properties":{"address":"Berlin, CT","placename":"Berlin, CT, USA","title":"Tier 1"}},{"type":"Feature","geometry":{"type":"Point","coordinates":[-85.238863399996,41.365882300002]},"properties":{"address":"Avilla, IN","placename":"Avilla, IN 46710, USA","title":"Tier 1"}},{"type":"Feature","geometry":{"type":"Point","coordinates":[-71.454789100002,42.995639699998]},"properties":{"address":"Manchester, NH","placename":"Manchester, NH, USA","title":"Tier 1"}},{"type":"Feature","geometry":{"type":"Point","coordinates":[-70.934205000003,41.636215200002]},"properties":{"address":"New Bedford, MA","placename":"New Bedford, MA, USA","title":"Tier 1"}},{"type":"Feature","geometry":{"type":"Point","coordinates":[-85.8530469,41.238099999999]},"properties":{"address":"Warsaw, IN","placename":"Warsaw, IN, USA","title":"Tier 1"}},{"type":"Feature","geometry":{"type":"Point","coordinates":[-86.158073599997,39.768515499999]},"properties":{"address":"Indianapolis, IN","placename":"Indianapolis, IN, USA","title":"Tier 1"}},{"type":"Feature","geometry":{"type":"Point","coordinates":[-111.8327229,41.838262199998]},"properties":{"address":"Smithfield, UT","placename":"Smithfield, UT, USA","title":"Tier 1"}},{"type":"Feature","geometry":{"type":"Point","coordinates":[-85.705541700003,41.200322900003]},"properties":{"address":"Pierceton, IN","placename":"Pierceton, IN 46562, USA","title":"Tier 1"}},{"type":"Feature","geometry":{"type":"Point","coordinates":[-74.305995899999,40.883740599998]},"properties":{"address":"Fairfield, NJ","placename":"Fairfield, NJ, USA","title":"Tier 1"}},{"type":"Feature","geometry":{"type":"Point","coordinates":[-84.191606899996,39.758947799999]},"properties":{"address":"Dayton, OH","placename":"Dayton, OH, USA","title":"Tier 1"}},{"type":"Feature","geometry":{"type":"Point","coordinates":[-85.8530469,41.238099999999]},"properties":{"address":"Warsaw, IN","placename":"Warsaw, IN, USA","title":"Tier 1"}},{"type":"Feature","geometry":{"type":"Point","coordinates":[-80.211447200004,40.246459300001]},"properties":{"address":"Houston, PA","placename":"Houston, PA, USA","title":"Tier 1"}},{"type":"Feature","geometry":{"type":"Point","coordinates":[-84.1988308,39.890612199999]},"properties":{"address":"Vandalia, OH","placename":"Vandalia, OH, USA","title":"Tier 1"}},{"type":"Feature","geometry":{"type":"Point","coordinates":[-85.488312699999,41.157268599999]},"properties":{"address":"Columbia City, IN","placename":"Columbia City, IN 46725, USA","title":"Tier 1"}},{"type":"Feature","geometry":{"type":"Point","coordinates":[-86.158073599997,39.768515499999]},"properties":{"address":"Indianapolis, IN","placename":"Indianapolis, IN, USA","title":"Tier 1"}},{"type":"Feature","geometry":{"type":"Point","coordinates":[-72.207770899997,42.124148999997]},"properties":{"address":"Brimfield, MA","placename":"Brimfield, MA, USA","title":"Tier 1"}},{"type":"Feature","geometry":{"type":"Point","coordinates":[-85.668086299998,42.963359900002]},"properties":{"address":"Grand Rapids, MI","placename":"Grand Rapids, MI, USA","title":"Tier 1"}},{"type":"Feature","geometry":{"type":"Point","coordinates":[-71.470350900004,43.527854599999]},"properties":{"address":"Laconia, NH","placename":"Laconia, NH, USA","title":"Tier 1"}},{"type":"Feature","geometry":{"type":"Point","coordinates":[-78.743918900002,42.767559300002]},"properties":{"address":"Orchard Park, NY","placename":"Orchard Park, NY 14127, USA","title":"Tier 1"}},{"type":"Feature","geometry":{"type":"Point","coordinates":[-117.6483876,34.097509999999]},"properties":{"address":"Upland, CA","placename":"Upland, CA, USA","title":"Tier 1"}},{"type":"Feature","geometry":{"type":"Point","coordinates":[-71.396724999997,42.083431300002]},"properties":{"address":"Franklin, MA","placename":"Franklin, MA, USA","title":"Tier 1"}},{"type":"Feature","geometry":{"type":"Point","coordinates":[-78.8783689,42.886446799999]},"properties":{"address":"Buffalo, NY","placename":"Buffalo, NY, USA","title":"Tier 1"}},{"type":"Feature","geometry":{"type":"Point","coordinates":[-93.402453200004,45.119409100001]},"properties":{"address":"Osseo, MN","placename":"Osseo, MN, USA","title":"Tier 1"}},{"type":"Feature","geometry":{"type":"Point","coordinates":[-111.8910474,40.760779300001]},"properties":{"address":"Salt Lake City, UT","placename":"Salt Lake City, UT, USA","title":"Tier 1"}},{"type":"Feature","geometry":{"type":"Point","coordinates":[-72.0995209,41.355653899997]},"properties":{"address":"New London, CT","placename":"New London, CT, USA","title":"Tier 1"}},{"type":"Feature","geometry":{"type":"Point","coordinates":[-83.885111700001,43.360929899999]},"properties":{"address":"Bridgeport, MI","placename":"Bridgeport Charter Township, MI, USA","title":"Tier 1"}},{"type":"Feature","geometry":{"type":"Point","coordinates":[-84.020502900002,42.3180919]},"properties":{"address":"Chelsea, MI","placename":"Chelsea, MI 48118, USA","title":"Tier 1"}},{"type":"Feature","geometry":{"type":"Point","coordinates":[-122.8037102,45.487062]},"properties":{"address":"Beaverton, OR","placename":"Beaverton, OR, USA","title":"Tier 1"}},{"type":"Feature","geometry":{"type":"Point","coordinates":[-81.695408799997,41.4994954]},"properties":{"address":"Cleveland, OH","placename":"Cleveland, OH, USA","title":"Tier 1"}},{"type":"Feature","geometry":{"type":"Point","coordinates":[-71.470350900004,43.527854599999]},"properties":{"address":"Laconia, NH","placename":"Laconia, NH, USA","title":"Tier 1"}},{"type":"Feature","geometry":{"type":"Point","coordinates":[0.79785300000103,51.531521999999]},"properties":{"address":"Shoeburyness, United Kingdom","placename":"Shoeburyness, Southend-on-Sea SS3, UK","title":"Tier 1"}},{"type":"Feature","geometry":{"type":"Point","coordinates":[-3.1790900000001,51.481580999998]},"properties":{"address":"Cardiff, United Kingdom","placename":"Cardiff, UK","title":"Tier 1"}},{"type":"Feature","geometry":{"type":"Point","coordinates":[-3.1790900000001,51.481580999998]},"properties":{"address":"Cardiff, United Kingdom","placename":"Cardiff, UK","title":"Tier 1"}},{"type":"Feature","geometry":{"type":"Point","coordinates":[-1.6177800000041,54.978251999997]},"properties":{"address":"Newcastle, United Kingdom","placename":"Newcastle Upon Tyne, Tyne and Wear, UK","title":"Tier 1"}},{"type":"Feature","geometry":{"type":"Point","coordinates":[-2.6544181999964,52.076516400001]},"properties":{"address":"Herefordshire, United Kingdom","placename":"Herefordshire, UK","title":"Tier 1"}},{"type":"Feature","geometry":{"type":"Point","coordinates":[-2.4875290000045,53.748575]},"properties":{"address":"Blackburn, United Kingdom","placename":"Blackburn, Blackburn with Darwen, UK","title":"Tier 1"}},{"type":"Feature","geometry":{"type":"Point","coordinates":[-1.4700850000015,53.381128999999]},"properties":{"address":"Sheffield, United Kingdom","placename":"Sheffield, South Yorkshire, UK","title":"Tier 1"}},{"type":"Feature","geometry":{"type":"Point","coordinates":[-0.32900299999587,51.467121000002]},"properties":{"address":"Isleworth, United Kingdom","placename":"Isleworth, Greater London, UK","title":"Tier 1"}},{"type":"Feature","geometry":{"type":"Point","coordinates":[-1.541909899999,50.758530999999]},"properties":{"address":"Lymington, United Kingdom","placename":"Lymington, Hampshire, UK","title":"Tier 1"}},{"type":"Feature","geometry":{"type":"Point","coordinates":[0.83006889999701,51.662231]},"properties":{"address":"Southminister, United Kingdom","placename":"Southminster, Essex CM0, UK","title":"Tier 1"}},{"type":"Feature","geometry":{"type":"Point","coordinates":[-1.4710200000025,54.011022000002]},"properties":{"address":"Knaresborough, United Kingdom","placename":"Knaresborough, North Yorkshire, UK","title":"Tier 1"}},{"type":"Feature","geometry":{"type":"Point","coordinates":[-1.4700850000015,53.381128999999]},"properties":{"address":"Sheffield, United Kingdom","placename":"Sheffield, South Yorkshire, UK","title":"Tier 1"}},{"type":"Feature","geometry":{"type":"Point","coordinates":[-1.7631909999975,51.886805000002]},"properties":{"address":"Bourton on the Water, United Kingdom","placename":"Bourton-on-the-Water, Gloucestershire GL54, UK","title":"Tier 1"}},{"type":"Feature","geometry":{"type":"Point","coordinates":[-1.5485669999976,53.801278999997]},"properties":{"address":"Leeds, United Kingdom","placename":"Leeds, West Yorkshire, UK","title":"Tier 1"}},{"type":"Feature","geometry":{"type":"Point","coordinates":[-1.0867010000041,50.806985000002]},"properties":{"address":"Portsmouth, United Kingdom","placename":"Portsmouth, UK","title":"Tier 1"}},{"type":"Feature","geometry":{"type":"Point","coordinates":[-2.0756090000006,51.897599]},"properties":{"address":"Cheltenham, United Kingdom","placename":"Cheltenham, Gloucestershire, UK","title":"Tier 1"}},{"type":"Feature","geometry":{"type":"Point","coordinates":[-0.16988000000035,51.239207999999]},"properties":{"address":"Redhill, United Kingdom","placename":"Redhill, Surrey, UK","title":"Tier 1"}},{"type":"Feature","geometry":{"type":"Point","coordinates":[-1.2464673999963,51.761205600003]},"properties":{"address":"Oxfordshire, United Kingdom","placename":"Oxfordshire, UK","title":"Tier 1"}},{"type":"Feature","geometry":{"type":"Point","coordinates":[-1.4700850000015,53.381128999999]},"properties":{"address":"Sheffield, United Kingdom","placename":"Sheffield, South Yorkshire, UK","title":"Tier 1"}},{"type":"Feature","geometry":{"type":"Point","coordinates":[121.5333333,24.950000000001]},"properties":{"address":"Hsin-tien, Taiwan, Province of China","placename":"Sindian District, New Taipei City, Taiwan 231","title":"Tier 1"}},{"type":"Feature","geometry":{"type":"Point","coordinates":[7.2951799999975,47.102500000002]},"properties":{"address":"Worben, Switzerland","placename":"Worben, Switzerland","title":"Tier 1"}},{"type":"Feature","geometry":{"type":"Point","coordinates":[9.3987524999999,46.810915599999]},"properties":{"address":"Bonaduz, Switzerland","placename":"Bonaduz, Switzerland","title":"Tier 1"}},{"type":"Feature","geometry":{"type":"Point","coordinates":[8.696975100002,47.255492999997]},"properties":{"address":"Mannedorf, Switzerland","placename":"M\u00e4nnedorf, Switzerland","title":"Tier 1"}},{"type":"Feature","geometry":{"type":"Point","coordinates":[7.4993,47.212500000002]},"properties":{"address":"Bellach, Switzerland","placename":"Bellach, Switzerland","title":"Tier 1"}},{"type":"Feature","geometry":{"type":"Point","coordinates":[7.2437726999981,47.1401866]},"properties":{"address":"Biel, Switzerland","placename":"Biel\/Bienne, Switzerland","title":"Tier 1"}},{"type":"Feature","geometry":{"type":"Point","coordinates":[9.3708800000012,47.4241]},"properties":{"address":"St. Gallen, Switzerland","placename":"St Gallen, Switzerland","title":"Tier 1"}},{"type":"Feature","geometry":{"type":"Point","coordinates":[13.774549999996,58.526580000001]},"properties":{"address":"Timmersdala, Sweden","placename":"Timmersdala, Sweden","title":"Tier 1"}},{"type":"Feature","geometry":{"type":"Point","coordinates":[15.6213727,58.410806999999]},"properties":{"address":"Linkopinq, Sweden","placename":"Link\u00f6ping Municipality, Sweden","title":"Tier 1"}},{"type":"Feature","geometry":{"type":"Point","coordinates":[15.133534799997,58.322690799999]},"properties":{"address":"Mjolby, Sweden","placename":"Mjolby, Sweden","title":"Tier 1"}},{"type":"Feature","geometry":{"type":"Point","coordinates":[2.1699187000018,41.387916999998]},"properties":{"address":"Barcelona, Spain","placename":"Barcelona, Spain","title":"Tier 1"}},{"type":"Feature","geometry":{"type":"Point","coordinates":[-4.0137659999968,40.287810499998]},"properties":{"address":"Navalcarnero, Spain","placename":"28600 Navalcarnero, Spain","title":"Tier 1"}},{"type":"Feature","geometry":{"type":"Point","coordinates":[103.786057,1.4360460000002]},"properties":{"address":"Woodlands, Singapore","placename":"Woodlands, Singapore","title":"Tier 1"}},{"type":"Feature","geometry":{"type":"Point","coordinates":[172.6362254,-43.532054400003]},"properties":{"address":"Christchurch, New Zealand","placename":"Christchurch, New Zealand","title":"Tier 1"}},{"type":"Feature","geometry":{"type":"Point","coordinates":[174.6560941,-36.890514699998]},"properties":{"address":"Glendene, New Zealand","placename":"Glendene, Auckland, New Zealand","title":"Tier 1"}},{"type":"Feature","geometry":{"type":"Point","coordinates":[5.7689820000039,50.915327600003]},"properties":{"address":"Maastricht Airport, Netherlands","placename":"Maastricht Aachen Airport (MST), Vliegveldweg 90, 6199 AD Maastricht-Airport, The Netherlands","title":"Tier 1"}},{"type":"Feature","geometry":{"type":"Point","coordinates":[5.6568201999991,51.910513599999]},"properties":{"address":"Dodewaard, Netherlands","placename":"6669 Dodewaard, The Netherlands","title":"Tier 1"}},{"type":"Feature","geometry":{"type":"Point","coordinates":[5.8546219999991,51.842867000003]},"properties":{"address":"Nijmegen, Netherlands","placename":"Nijmegen, The Netherlands","title":"Tier 1"}},{"type":"Feature","geometry":{"type":"Point","coordinates":[4.493926200004,52.160321600001]},"properties":{"address":"Leiden, Netherlands","placename":"Leiden, The Netherlands","title":"Tier 1"}},{"type":"Feature","geometry":{"type":"Point","coordinates":[-117.018204,32.533488999998]},"properties":{"address":"Tijuana, Mexico","placename":"Tijuana Municipality, Baja California, Mexico","title":"Tier 1"}},{"type":"Feature","geometry":{"type":"Point","coordinates":[-106.4625624,31.7311292]},"properties":{"address":"Cuidad Juarez, Mexico","placename":"Ciudad Ju\u00e1rez, Chihuahua, Mexico","title":"Tier 1"}},{"type":"Feature","geometry":{"type":"Point","coordinates":[-100.9954254,25.426724399998]},"properties":{"address":"Saltillo, Mexico","placename":"Saltillo, Coahuila, Mexico","title":"Tier 1"}},{"type":"Feature","geometry":{"type":"Point","coordinates":[139.7535951,35.694002699996]},"properties":{"address":"Chiyoda, Japan","placename":"Chiyoda, Tokyo, Japan","title":"Tier 1"}},{"type":"Feature","geometry":{"type":"Point","coordinates":[138.464966,35.608327499999]},"properties":{"address":"Minami Alps, Japan","placename":"Minami Alps, Yamanashi Prefecture, Japan","title":"Tier 1"}},{"type":"Feature","geometry":{"type":"Point","coordinates":[139.7809079,35.739709999999]},"properties":{"address":"Arakawa-ku, Tokyo 116, Japan","placename":"Arakawa, Tokyo, Japan","title":"Tier 1"}},{"type":"Feature","geometry":{"type":"Point","coordinates":[140.0997724,35.722468399999]},"properties":{"address":"Yachiyo, Japan","placename":"Yachiyo, Chiba Prefecture, Japan","title":"Tier 1"}},{"type":"Feature","geometry":{"type":"Point","coordinates":[139.3158056,35.666339399997]},"properties":{"address":"Hachioji, Japan","placename":"Hachioji, Tokyo, Japan","title":"Tier 1"}},{"type":"Feature","geometry":{"type":"Point","coordinates":[35.213832999997,33.006074000003]},"properties":{"address":"Gaton, Israel","placename":"Ga'aton, Israel","title":"Tier 1"}},{"type":"Feature","geometry":{"type":"Point","coordinates":[35.213710999996,31.768317999998]},"properties":{"address":"Jerusalem, Israel","placename":"Jerusalem, Israel","title":"Tier 1"}},{"type":"Feature","geometry":{"type":"Point","coordinates":[34.894759,32.173386]},"properties":{"address":"Deganya, Israel","placename":"Deganya, Kfar Saba, Israel","title":"Tier 1"}},{"type":"Feature","geometry":{"type":"Point","coordinates":[-6.5669624000038,52.501187099998]},"properties":{"address":"Enniscorthy, Ireland","placename":"Enniscorthy, Co. Wexford, Ireland","title":"Tier 1"}},{"type":"Feature","geometry":{"type":"Point","coordinates":[-6.8791722999983,53.725821]},"properties":{"address":"Kells, Ireland","placename":"Kells, Co. Meath, Ireland","title":"Tier 1"}},{"type":"Feature","geometry":{"type":"Point","coordinates":[20.373107700004,47.903198700001]},"properties":{"address":"Eger, Hungary","placename":"Eger, Hungary","title":"Tier 1"}},{"type":"Feature","geometry":{"type":"Point","coordinates":[8.8192094999982,47.982331599998]},"properties":{"address":"Tuttlingen, Germany","placename":"Tuttlingen, Germany","title":"Tier 1"}},{"type":"Feature","geometry":{"type":"Point","coordinates":[7.8421043000023,47.999007700001]},"properties":{"address":"Freiburg, Germany","placename":"Freiburg im Breisgau, Germany","title":"Tier 1"}},{"type":"Feature","geometry":{"type":"Point","coordinates":[0,0]},"properties":{"address":"Binzon, Germany","title":"Tier 1"}},{"type":"Feature","geometry":{"type":"Point","coordinates":[9.0924585000003,49.352081300001]},"properties":{"address":"Obrigheim, Germany","placename":"Obrigheim, Germany","title":"Tier 1"}},{"type":"Feature","geometry":{"type":"Point","coordinates":[8.7288899999955,48.020263599998]},"properties":{"address":"Seitingen-Oberflacht, Germany","placename":"Seitingen-Oberflacht, Germany","title":"Tier 1"}},{"type":"Feature","geometry":{"type":"Point","coordinates":[9.1992432999961,48.933430299998]},"properties":{"address":"Geisingen, Germany","placename":"Freiberg am Neckar, Germany","title":"Tier 1"}},{"type":"Feature","geometry":{"type":"Point","coordinates":[8.776586299998,48.003380600002]},"properties":{"address":"Wurmlingen, Germany","placename":"Wurmlingen, Germany","title":"Tier 1"}},{"type":"Feature","geometry":{"type":"Point","coordinates":[8.8192094999982,47.982331599998]},"properties":{"address":"Tuttlingen, Germany","placename":"Tuttlingen, Germany","title":"Tier 1"}},{"type":"Feature","geometry":{"type":"Point","coordinates":[8.8192094999982,47.982331599998]},"properties":{"address":"Tuttlingen, Germany","placename":"Tuttlingen, Germany","title":"Tier 1"}},{"type":"Feature","geometry":{"type":"Point","coordinates":[8.776586299998,48.003380600002]},"properties":{"address":"Wurmlingen, Germany","placename":"Wurmlingen, Germany","title":"Tier 1"}},{"type":"Feature","geometry":{"type":"Point","coordinates":[8.8539319999976,47.931964799999]},"properties":{"address":"Emmingen-Liptingen, Germany","placename":"Emmingen-Liptingen, Germany","title":"Tier 1"}},{"type":"Feature","geometry":{"type":"Point","coordinates":[8.8192094999982,47.982331599998]},"properties":{"address":"Tuttlingen, Germany","placename":"Tuttlingen, Germany","title":"Tier 1"}},{"type":"Feature","geometry":{"type":"Point","coordinates":[8.8192094999982,47.982331599998]},"properties":{"address":"Tuttlingen, Germany","placename":"Tuttlingen, Germany","title":"Tier 1"}},{"type":"Feature","geometry":{"type":"Point","coordinates":[8.8382645999981,50.120216800002]},"properties":{"address":"Muhlheim, Germany","placename":"M\u00fchlheim am Main, Germany","title":"Tier 1"}},{"type":"Feature","geometry":{"type":"Point","coordinates":[8.8192094999982,47.982331599998]},"properties":{"address":"Tuttlingen, Germany","placename":"Tuttlingen, Germany","title":"Tier 1"}},{"type":"Feature","geometry":{"type":"Point","coordinates":[8.8192094999982,47.982331599998]},"properties":{"address":"Tuttlingen, Germany","placename":"Tuttlingen, Germany","title":"Tier 1"}},{"type":"Feature","geometry":{"type":"Point","coordinates":[8.8192094999982,47.982331599998]},"properties":{"address":"Tuttlingen, Germany","placename":"Tuttlingen, Germany","title":"Tier 1"}},{"type":"Feature","geometry":{"type":"Point","coordinates":[8.8192094999982,47.982331599998]},"properties":{"address":"Tuttlingen, Germany","placename":"Tuttlingen, Germany","title":"Tier 1"}},{"type":"Feature","geometry":{"type":"Point","coordinates":[9.1817588000031,48.775418100001]},"properties":{"address":"Stuttgart, Germany","placename":"Stuttgart, Germany","title":"Tier 1"}},{"type":"Feature","geometry":{"type":"Point","coordinates":[10.000879800002,53.699306600001]},"properties":{"address":"Norderstedt, Germany","placename":"Norderstedt, Germany","title":"Tier 1"}},{"type":"Feature","geometry":{"type":"Point","coordinates":[8.8192094999982,47.982331599998]},"properties":{"address":"Tuttlingen, Germany","placename":"Tuttlingen, Germany","title":"Tier 1"}},{"type":"Feature","geometry":{"type":"Point","coordinates":[8.8192094999982,47.982331599998]},"properties":{"address":"Tuttlingen, Germany","placename":"Tuttlingen, Germany","title":"Tier 1"}},{"type":"Feature","geometry":{"type":"Point","coordinates":[8.7347581999967,48.074818899998]},"properties":{"address":"Spaichingen, Germany","placename":"Spaichingen, Germany","title":"Tier 1"}},{"type":"Feature","geometry":{"type":"Point","coordinates":[8.8382645999981,50.120216800002]},"properties":{"address":"Muhlheim, Germany","placename":"M\u00fchlheim am Main, Germany","title":"Tier 1"}},{"type":"Feature","geometry":{"type":"Point","coordinates":[8.8539319999976,47.931964799999]},"properties":{"address":"Liptingen, Germany","placename":"Emmingen-Liptingen, Germany","title":"Tier 1"}},{"type":"Feature","geometry":{"type":"Point","coordinates":[8.6745990000014,48.039750699997]},"properties":{"address":"Durchhausen, Germany","placename":"Durchhausen, Germany","title":"Tier 1"}},{"type":"Feature","geometry":{"type":"Point","coordinates":[8.7048762999961,48.127784300001]},"properties":{"address":"Frittlingen, Germany","placename":"Frittlingen, Germany","title":"Tier 1"}},{"type":"Feature","geometry":{"type":"Point","coordinates":[8.8192094999982,47.982331599998]},"properties":{"address":"Tuttlingen, Germany","placename":"Tuttlingen, Germany","title":"Tier 1"}},{"type":"Feature","geometry":{"type":"Point","coordinates":[8.9224624999993,48.019898799999]},"properties":{"address":"Fridingen, Germany","placename":"Fridingen, Germany","title":"Tier 1"}},{"type":"Feature","geometry":{"type":"Point","coordinates":[8.8192094999982,47.982331599998]},"properties":{"address":"Tuttlingen, Germany","placename":"Tuttlingen, Germany","title":"Tier 1"}},{"type":"Feature","geometry":{"type":"Point","coordinates":[8.8192094999982,47.982331599998]},"properties":{"address":"Tuttlingen, Germany","placename":"Tuttlingen, Germany","title":"Tier 1"}},{"type":"Feature","geometry":{"type":"Point","coordinates":[8.8192094999982,47.982331599998]},"properties":{"address":"Tuttlingen, Germany","placename":"Tuttlingen, Germany","title":"Tier 1"}},{"type":"Feature","geometry":{"type":"Point","coordinates":[8.765814199996,48.066779299997]},"properties":{"address":"Balgheim, Germany","placename":"Balgheim, Germany","title":"Tier 1"}},{"type":"Feature","geometry":{"type":"Point","coordinates":[8.8192094999982,47.982331599998]},"properties":{"address":"Tuttlingen, Germany","placename":"Tuttlingen, Germany","title":"Tier 1"}},{"type":"Feature","geometry":{"type":"Point","coordinates":[8.8192094999982,47.982331599998]},"properties":{"address":"Tuttlingen, Germany","placename":"Tuttlingen, Germany","title":"Tier 1"}},{"type":"Feature","geometry":{"type":"Point","coordinates":[8.7048762999961,48.127784300001]},"properties":{"address":"Frittlingen, Germany","placename":"Frittlingen, Germany","title":"Tier 1"}},{"type":"Feature","geometry":{"type":"Point","coordinates":[8.8192094999982,47.982331599998]},"properties":{"address":"Tuttlingen, Germany","placename":"Tuttlingen, Germany","title":"Tier 1"}},{"type":"Feature","geometry":{"type":"Point","coordinates":[8.8192094999982,47.982331599998]},"properties":{"address":"Tuttlingen, Germany","placename":"Tuttlingen, Germany","title":"Tier 1"}},{"type":"Feature","geometry":{"type":"Point","coordinates":[8.8192094999982,47.982331599998]},"properties":{"address":"Tuttlingen, Germany","placename":"Tuttlingen, Germany","title":"Tier 1"}},{"type":"Feature","geometry":{"type":"Point","coordinates":[11.142137899996,47.840685900001]},"properties":{"address":"Weilheim, Germany","placename":"Weilheim in Oberbayern, Germany","title":"Tier 1"}},{"type":"Feature","geometry":{"type":"Point","coordinates":[8.8382645999981,50.120216800002]},"properties":{"address":"Muhlheim, Germany","placename":"M\u00fchlheim am Main, Germany","title":"Tier 1"}},{"type":"Feature","geometry":{"type":"Point","coordinates":[8.973135800001,48.065488799999]},"properties":{"address":"Irndorf, Germany","placename":"Irndorf, Germany","title":"Tier 1"}},{"type":"Feature","geometry":{"type":"Point","coordinates":[8.8192094999982,47.982331599998]},"properties":{"address":"Tuttlingen, Germany","placename":"Tuttlingen, Germany","title":"Tier 1"}},{"type":"Feature","geometry":{"type":"Point","coordinates":[11.142137899996,47.840685900001]},"properties":{"address":"Weilheim, Germany","placename":"Weilheim in Oberbayern, Germany","title":"Tier 1"}},{"type":"Feature","geometry":{"type":"Point","coordinates":[7.1430246000016,50.817747099999]},"properties":{"address":"Troisdorf, Germany","placename":"Troisdorf, Germany","title":"Tier 1"}},{"type":"Feature","geometry":{"type":"Point","coordinates":[8.8192094999982,47.982331599998]},"properties":{"address":"Tuttlingen, Germany","placename":"Tuttlingen, Germany","title":"Tier 1"}},{"type":"Feature","geometry":{"type":"Point","coordinates":[9.4197264000004,48.713189600001]},"properties":{"address":"Plochingen, Germany","placename":"Plochingen, Germany","title":"Tier 1"}},{"type":"Feature","geometry":{"type":"Point","coordinates":[8.9018625000024,52.026673199998]},"properties":{"address":"Lemgo, Germany","placename":"Lemgo, Germany","title":"Tier 1"}},{"type":"Feature","geometry":{"type":"Point","coordinates":[8.5383018999978,48.062626599997]},"properties":{"address":"Villingen-Schwenningen, Germany","placename":"Villingen-Schwenningen, Germany","title":"Tier 1"}},{"type":"Feature","geometry":{"type":"Point","coordinates":[9.291886500001,50.2550222]},"properties":{"address":"Wachtersbach, Germany","placename":"W\u00e4chtersbach, Germany","title":"Tier 1"}},{"type":"Feature","geometry":{"type":"Point","coordinates":[1.6332769999967,50.418714999999]},"properties":{"address":"Rang Du Fliers, France","placename":"Rang-du-Fliers, France","title":"Tier 1"}},{"type":"Feature","geometry":{"type":"Point","coordinates":[5.203700999996,46.179147999999]},"properties":{"address":"Peronnas, France","placename":"P\u00e9ronnas, France","title":"Tier 1"}},{"type":"Feature","geometry":{"type":"Point","coordinates":[1.4567330000022,43.674267999998]},"properties":{"address":"Launaguet, France","placename":"Launaguet, France","title":"Tier 1"}},{"type":"Feature","geometry":{"type":"Point","coordinates":[1.5297540000002,43.530581999999]},"properties":{"address":"Labege, France","placename":"Lab\u00e8ge, France","title":"Tier 1"}},{"type":"Feature","geometry":{"type":"Point","coordinates":[5.1392558999971,48.113747999999]},"properties":{"address":"Chaumont, France","placename":"Chaumont, France","title":"Tier 1"}},{"type":"Feature","geometry":{"type":"Point","coordinates":[1.4841860000044,43.657192000001]},"properties":{"address":"L'Union, France","placename":"L'Union, France","title":"Tier 1"}},{"type":"Feature","geometry":{"type":"Point","coordinates":[24.943555300001,60.166585600001]},"properties":{"address":"Helsinki, Finland","placename":"Helsinki, Finland","title":"Tier 1"}},{"type":"Feature","geometry":{"type":"Point","coordinates":[24.821919999997,60.285489000002]},"properties":{"address":"Vantaa, Finland","placename":"Vantaa, Finland","title":"Tier 1"}},{"type":"Feature","geometry":{"type":"Point","coordinates":[24.753197199996,59.4426896]},"properties":{"address":"Tallinn, Estonia","placename":"Tallinn, Estonia","title":"Tier 1"}},{"type":"Feature","geometry":{"type":"Point","coordinates":[-69.307808,18.455758999997]},"properties":{"address":"San Pedro de Macoris, Dominican Republic","placename":"San Pedro de Macor\u00eds, Dominican Republic","title":"Tier 1"}},{"type":"Feature","geometry":{"type":"Point","coordinates":[12.514806999999,55.735202000001]},"properties":{"address":"Soeborg, Denmark","placename":"2860 S\u00f8borg, Denmark","title":"Tier 1"}},{"type":"Feature","geometry":{"type":"Point","coordinates":[12.514806999999,55.735202000001]},"properties":{"address":"Soeborg, Denmark","placename":"2860 S\u00f8borg, Denmark","title":"Tier 1"}},{"type":"Feature","geometry":{"type":"Point","coordinates":[11.964526000001,55.601292]},"properties":{"address":"Lejre, Denmark","placename":"4320 Lejre, Denmark","title":"Tier 1"}},{"type":"Feature","geometry":{"type":"Point","coordinates":[12.370791,55.813039]},"properties":{"address":"Farum, Denmark","placename":"3520 Farum Municipality, Denmark","title":"Tier 1"}},{"type":"Feature","geometry":{"type":"Point","coordinates":[-83.674069600001,9.9072877999982]},"properties":{"address":"Coyol, Costa Rica","placename":"Coyol, Turrialba, Costa Rica","title":"Tier 1"}},{"type":"Feature","geometry":{"type":"Point","coordinates":[121.473704,31.230393]},"properties":{"address":"Shanghai, China","placename":"Shanghai, China","title":"Tier 1"}},{"type":"Feature","geometry":{"type":"Point","coordinates":[113.86096,22.607708199998]},"properties":{"address":"Baoan District, 518126 Shenzhen, China","placename":"Bao'an District, Shenzhen, Guangdong, China, 518126","title":"Tier 1"}},{"type":"Feature","geometry":{"type":"Point","coordinates":[114.057868,22.543099000001]},"properties":{"address":"Shenzhen, China","placename":"Shenzhen, Guangdong, China","title":"Tier 1"}},{"type":"Feature","geometry":{"type":"Point","coordinates":[3.2248692000008,51.210836499999]},"properties":{"address":"Brugge, Belgium","placename":"Brugge, Belgium","title":"Tier 1"}},{"type":"Feature","geometry":{"type":"Point","coordinates":[145.1584427,-37.921536400001]},"properties":{"address":"Mulgrave, Australia","placename":"Mulgrave VIC 3170, Australia","title":"Tier 1"}},{"type":"Feature","geometry":{"type":"Point","coordinates":[-74.1723667,40.735656999999]},"properties":{"address":"Newark, NJ","placename":"Newark, NJ, USA","title":"Tier 0"}},{"type":"Feature","geometry":{"type":"Point","coordinates":[-119.6981901,34.420830499998]},"properties":{"address":"Santa Barbara, CA","placename":"Santa Barbara, CA, USA","title":"Tier 0"}},{"type":"Feature","geometry":{"type":"Point","coordinates":[-84.503716399998,38.040583699998]},"properties":{"address":"Lexington, KY","placename":"Lexington, KY, USA","title":"Tier 0"}},{"type":"Feature","geometry":{"type":"LineString","coordinates":[[145.1584427,-37.921536400001],[-74.1723667,40.735656999999]]},"properties":[]},{"type":"Feature","geometry":{"type":"LineString","coordinates":[[3.2248692000008,51.210836499999],[-74.1723667,40.735656999999]]},"properties":[]},{"type":"Feature","geometry":{"type":"LineString","coordinates":[[114.057868,22.543099000001],[-74.1723667,40.735656999999]]},"properties":[]},{"type":"Feature","geometry":{"type":"LineString","coordinates":[[113.86096,22.607708199998],[-74.1723667,40.735656999999]]},"properties":[]},{"type":"Feature","geometry":{"type":"LineString","coordinates":[[121.473704,31.230393],[-74.1723667,40.735656999999]]},"properties":[]},{"type":"Feature","geometry":{"type":"LineString","coordinates":[[-83.674069600001,9.9072877999982],[-74.1723667,40.735656999999]]},"properties":[]},{"type":"Feature","geometry":{"type":"LineString","coordinates":[[12.370791,55.813039],[-74.1723667,40.735656999999]]},"properties":[]},{"type":"Feature","geometry":{"type":"LineString","coordinates":[[11.964526000001,55.601292],[-74.1723667,40.735656999999]]},"properties":[]},{"type":"Feature","geometry":{"type":"LineString","coordinates":[[12.514806999999,55.735202000001],[-74.1723667,40.735656999999]]},"properties":[]},{"type":"Feature","geometry":{"type":"LineString","coordinates":[[12.514806999999,55.735202000001],[-74.1723667,40.735656999999]]},"properties":[]},{"type":"Feature","geometry":{"type":"LineString","coordinates":[[-69.307808,18.455758999997],[-74.1723667,40.735656999999]]},"properties":[]},{"type":"Feature","geometry":{"type":"LineString","coordinates":[[24.753197199996,59.4426896],[-74.1723667,40.735656999999]]},"properties":[]},{"type":"Feature","geometry":{"type":"LineString","coordinates":[[24.821919999997,60.285489000002],[-74.1723667,40.735656999999]]},"properties":[]},{"type":"Feature","geometry":{"type":"LineString","coordinates":[[24.943555300001,60.166585600001],[-74.1723667,40.735656999999]]},"properties":[]},{"type":"Feature","geometry":{"type":"LineString","coordinates":[[1.4841860000044,43.657192000001],[-74.1723667,40.735656999999]]},"properties":[]},{"type":"Feature","geometry":{"type":"LineString","coordinates":[[5.1392558999971,48.113747999999],[-74.1723667,40.735656999999]]},"properties":[]},{"type":"Feature","geometry":{"type":"LineString","coordinates":[[1.5297540000002,43.530581999999],[-74.1723667,40.735656999999]]},"properties":[]},{"type":"Feature","geometry":{"type":"LineString","coordinates":[[1.4567330000022,43.674267999998],[-74.1723667,40.735656999999]]},"properties":[]},{"type":"Feature","geometry":{"type":"LineString","coordinates":[[5.203700999996,46.179147999999],[-74.1723667,40.735656999999]]},"properties":[]},{"type":"Feature","geometry":{"type":"LineString","coordinates":[[1.6332769999967,50.418714999999],[-74.1723667,40.735656999999]]},"properties":[]},{"type":"Feature","geometry":{"type":"LineString","coordinates":[[9.291886500001,50.2550222],[-74.1723667,40.735656999999]]},"properties":[]},{"type":"Feature","geometry":{"type":"LineString","coordinates":[[8.5383018999978,48.062626599997],[-74.1723667,40.735656999999]]},"properties":[]},{"type":"Feature","geometry":{"type":"LineString","coordinates":[[8.9018625000024,52.026673199998],[-74.1723667,40.735656999999]]},"properties":[]},{"type":"Feature","geometry":{"type":"LineString","coordinates":[[9.4197264000004,48.713189600001],[-74.1723667,40.735656999999]]},"properties":[]},{"type":"Feature","geometry":{"type":"LineString","coordinates":[[8.8192094999982,47.982331599998],[-74.1723667,40.735656999999]]},"properties":[]},{"type":"Feature","geometry":{"type":"LineString","coordinates":[[7.1430246000016,50.817747099999],[-74.1723667,40.735656999999]]},"properties":[]},{"type":"Feature","geometry":{"type":"LineString","coordinates":[[11.142137899996,47.840685900001],[-74.1723667,40.735656999999]]},"properties":[]},{"type":"Feature","geometry":{"type":"LineString","coordinates":[[8.8192094999982,47.982331599998],[-74.1723667,40.735656999999]]},"properties":[]},{"type":"Feature","geometry":{"type":"LineString","coordinates":[[8.973135800001,48.065488799999],[-74.1723667,40.735656999999]]},"properties":[]},{"type":"Feature","geometry":{"type":"LineString","coordinates":[[8.8382645999981,50.120216800002],[-74.1723667,40.735656999999]]},"properties":[]},{"type":"Feature","geometry":{"type":"LineString","coordinates":[[11.142137899996,47.840685900001],[-74.1723667,40.735656999999]]},"properties":[]},{"type":"Feature","geometry":{"type":"LineString","coordinates":[[8.8192094999982,47.982331599998],[-74.1723667,40.735656999999]]},"properties":[]},{"type":"Feature","geometry":{"type":"LineString","coordinates":[[8.8192094999982,47.982331599998],[-74.1723667,40.735656999999]]},"properties":[]},{"type":"Feature","geometry":{"type":"LineString","coordinates":[[8.8192094999982,47.982331599998],[-74.1723667,40.735656999999]]},"properties":[]},{"type":"Feature","geometry":{"type":"LineString","coordinates":[[8.7048762999961,48.127784300001],[-74.1723667,40.735656999999]]},"properties":[]},{"type":"Feature","geometry":{"type":"LineString","coordinates":[[8.8192094999982,47.982331599998],[-74.1723667,40.735656999999]]},"properties":[]},{"type":"Feature","geometry":{"type":"LineString","coordinates":[[8.8192094999982,47.982331599998],[-74.1723667,40.735656999999]]},"properties":[]},{"type":"Feature","geometry":{"type":"LineString","coordinates":[[8.765814199996,48.066779299997],[-74.1723667,40.735656999999]]},"properties":[]},{"type":"Feature","geometry":{"type":"LineString","coordinates":[[8.8192094999982,47.982331599998],[-74.1723667,40.735656999999]]},"properties":[]},{"type":"Feature","geometry":{"type":"LineString","coordinates":[[8.8192094999982,47.982331599998],[-74.1723667,40.735656999999]]},"properties":[]},{"type":"Feature","geometry":{"type":"LineString","coordinates":[[8.8192094999982,47.982331599998],[-74.1723667,40.735656999999]]},"properties":[]},{"type":"Feature","geometry":{"type":"LineString","coordinates":[[8.9224624999993,48.019898799999],[-74.1723667,40.735656999999]]},"properties":[]},{"type":"Feature","geometry":{"type":"LineString","coordinates":[[8.8192094999982,47.982331599998],[-74.1723667,40.735656999999]]},"properties":[]},{"type":"Feature","geometry":{"type":"LineString","coordinates":[[8.7048762999961,48.127784300001],[-74.1723667,40.735656999999]]},"properties":[]},{"type":"Feature","geometry":{"type":"LineString","coordinates":[[8.6745990000014,48.039750699997],[-74.1723667,40.735656999999]]},"properties":[]},{"type":"Feature","geometry":{"type":"LineString","coordinates":[[8.8539319999976,47.931964799999],[-74.1723667,40.735656999999]]},"properties":[]},{"type":"Feature","geometry":{"type":"LineString","coordinates":[[8.8382645999981,50.120216800002],[-74.1723667,40.735656999999]]},"properties":[]},{"type":"Feature","geometry":{"type":"LineString","coordinates":[[8.7347581999967,48.074818899998],[-74.1723667,40.735656999999]]},"properties":[]},{"type":"Feature","geometry":{"type":"LineString","coordinates":[[8.8192094999982,47.982331599998],[-74.1723667,40.735656999999]]},"properties":[]},{"type":"Feature","geometry":{"type":"LineString","coordinates":[[8.8192094999982,47.982331599998],[-74.1723667,40.735656999999]]},"properties":[]},{"type":"Feature","geometry":{"type":"LineString","coordinates":[[10.000879800002,53.699306600001],[-74.1723667,40.735656999999]]},"properties":[]},{"type":"Feature","geometry":{"type":"LineString","coordinates":[[9.1817588000031,48.775418100001],[-74.1723667,40.735656999999]]},"properties":[]},{"type":"Feature","geometry":{"type":"LineString","coordinates":[[8.8192094999982,47.982331599998],[-74.1723667,40.735656999999]]},"properties":[]},{"type":"Feature","geometry":{"type":"LineString","coordinates":[[8.8192094999982,47.982331599998],[-74.1723667,40.735656999999]]},"properties":[]},{"type":"Feature","geometry":{"type":"LineString","coordinates":[[8.8192094999982,47.982331599998],[-74.1723667,40.735656999999]]},"properties":[]},{"type":"Feature","geometry":{"type":"LineString","coordinates":[[8.8192094999982,47.982331599998],[-74.1723667,40.735656999999]]},"properties":[]},{"type":"Feature","geometry":{"type":"LineString","coordinates":[[8.8382645999981,50.120216800002],[-74.1723667,40.735656999999]]},"properties":[]},{"type":"Feature","geometry":{"type":"LineString","coordinates":[[8.8192094999982,47.982331599998],[-74.1723667,40.735656999999]]},"properties":[]},{"type":"Feature","geometry":{"type":"LineString","coordinates":[[8.8192094999982,47.982331599998],[-74.1723667,40.735656999999]]},"properties":[]},{"type":"Feature","geometry":{"type":"LineString","coordinates":[[8.8539319999976,47.931964799999],[-74.1723667,40.735656999999]]},"properties":[]},{"type":"Feature","geometry":{"type":"LineString","coordinates":[[8.776586299998,48.003380600002],[-74.1723667,40.735656999999]]},"properties":[]},{"type":"Feature","geometry":{"type":"LineString","coordinates":[[8.8192094999982,47.982331599998],[-74.1723667,40.735656999999]]},"properties":[]},{"type":"Feature","geometry":{"type":"LineString","coordinates":[[8.8192094999982,47.982331599998],[-74.1723667,40.735656999999]]},"properties":[]},{"type":"Feature","geometry":{"type":"LineString","coordinates":[[8.776586299998,48.003380600002],[-74.1723667,40.735656999999]]},"properties":[]},{"type":"Feature","geometry":{"type":"LineString","coordinates":[[9.1992432999961,48.933430299998],[-74.1723667,40.735656999999]]},"properties":[]},{"type":"Feature","geometry":{"type":"LineString","coordinates":[[8.7288899999955,48.020263599998],[-74.1723667,40.735656999999]]},"properties":[]},{"type":"Feature","geometry":{"type":"LineString","coordinates":[[9.0924585000003,49.352081300001],[-74.1723667,40.735656999999]]},"properties":[]},{"type":"Feature","geometry":{"type":"LineString","coordinates":[[0,0],[-74.1723667,40.735656999999]]},"properties":[]},{"type":"Feature","geometry":{"type":"LineString","coordinates":[[7.8421043000023,47.999007700001],[-74.1723667,40.735656999999]]},"properties":[]},{"type":"Feature","geometry":{"type":"LineString","coordinates":[[8.8192094999982,47.982331599998],[-74.1723667,40.735656999999]]},"properties":[]},{"type":"Feature","geometry":{"type":"LineString","coordinates":[[20.373107700004,47.903198700001],[-74.1723667,40.735656999999]]},"properties":[]},{"type":"Feature","geometry":{"type":"LineString","coordinates":[[-6.8791722999983,53.725821],[-74.1723667,40.735656999999]]},"properties":[]},{"type":"Feature","geometry":{"type":"LineString","coordinates":[[-6.5669624000038,52.501187099998],[-74.1723667,40.735656999999]]},"properties":[]},{"type":"Feature","geometry":{"type":"LineString","coordinates":[[34.894759,32.173386],[-74.1723667,40.735656999999]]},"properties":[]},{"type":"Feature","geometry":{"type":"LineString","coordinates":[[35.213710999996,31.768317999998],[-74.1723667,40.735656999999]]},"properties":[]},{"type":"Feature","geometry":{"type":"LineString","coordinates":[[35.213832999997,33.006074000003],[-74.1723667,40.735656999999]]},"properties":[]},{"type":"Feature","geometry":{"type":"LineString","coordinates":[[139.3158056,35.666339399997],[-74.1723667,40.735656999999]]},"properties":[]},{"type":"Feature","geometry":{"type":"LineString","coordinates":[[140.0997724,35.722468399999],[-74.1723667,40.735656999999]]},"properties":[]},{"type":"Feature","geometry":{"type":"LineString","coordinates":[[139.7809079,35.739709999999],[-74.1723667,40.735656999999]]},"properties":[]},{"type":"Feature","geometry":{"type":"LineString","coordinates":[[138.464966,35.608327499999],[-74.1723667,40.735656999999]]},"properties":[]},{"type":"Feature","geometry":{"type":"LineString","coordinates":[[139.7535951,35.694002699996],[-74.1723667,40.735656999999]]},"properties":[]},{"type":"Feature","geometry":{"type":"LineString","coordinates":[[-100.9954254,25.426724399998],[-74.1723667,40.735656999999]]},"properties":[]},{"type":"Feature","geometry":{"type":"LineString","coordinates":[[-106.4625624,31.7311292],[-74.1723667,40.735656999999]]},"properties":[]},{"type":"Feature","geometry":{"type":"LineString","coordinates":[[-117.018204,32.533488999998],[-74.1723667,40.735656999999]]},"properties":[]},{"type":"Feature","geometry":{"type":"LineString","coordinates":[[4.493926200004,52.160321600001],[-74.1723667,40.735656999999]]},"properties":[]},{"type":"Feature","geometry":{"type":"LineString","coordinates":[[5.8546219999991,51.842867000003],[-74.1723667,40.735656999999]]},"properties":[]},{"type":"Feature","geometry":{"type":"LineString","coordinates":[[5.6568201999991,51.910513599999],[-74.1723667,40.735656999999]]},"properties":[]},{"type":"Feature","geometry":{"type":"LineString","coordinates":[[5.7689820000039,50.915327600003],[-74.1723667,40.735656999999]]},"properties":[]},{"type":"Feature","geometry":{"type":"LineString","coordinates":[[174.6560941,-36.890514699998],[-74.1723667,40.735656999999]]},"properties":[]},{"type":"Feature","geometry":{"type":"LineString","coordinates":[[172.6362254,-43.532054400003],[-74.1723667,40.735656999999]]},"properties":[]},{"type":"Feature","geometry":{"type":"LineString","coordinates":[[103.786057,1.4360460000002],[-74.1723667,40.735656999999]]},"properties":[]},{"type":"Feature","geometry":{"type":"LineString","coordinates":[[-4.0137659999968,40.287810499998],[-74.1723667,40.735656999999]]},"properties":[]},{"type":"Feature","geometry":{"type":"LineString","coordinates":[[2.1699187000018,41.387916999998],[-74.1723667,40.735656999999]]},"properties":[]},{"type":"Feature","geometry":{"type":"LineString","coordinates":[[15.133534799997,58.322690799999],[-74.1723667,40.735656999999]]},"properties":[]},{"type":"Feature","geometry":{"type":"LineString","coordinates":[[15.6213727,58.410806999999],[-74.1723667,40.735656999999]]},"properties":[]},{"type":"Feature","geometry":{"type":"LineString","coordinates":[[13.774549999996,58.526580000001],[-74.1723667,40.735656999999]]},"properties":[]},{"type":"Feature","geometry":{"type":"LineString","coordinates":[[9.3708800000012,47.4241],[-74.1723667,40.735656999999]]},"properties":[]},{"type":"Feature","geometry":{"type":"LineString","coordinates":[[7.2437726999981,47.1401866],[-74.1723667,40.735656999999]]},"properties":[]},{"type":"Feature","geometry":{"type":"LineString","coordinates":[[7.4993,47.212500000002],[-74.1723667,40.735656999999]]},"properties":[]},{"type":"Feature","geometry":{"type":"LineString","coordinates":[[8.696975100002,47.255492999997],[-74.1723667,40.735656999999]]},"properties":[]},{"type":"Feature","geometry":{"type":"LineString","coordinates":[[9.3987524999999,46.810915599999],[-74.1723667,40.735656999999]]},"properties":[]},{"type":"Feature","geometry":{"type":"LineString","coordinates":[[7.2951799999975,47.102500000002],[-74.1723667,40.735656999999]]},"properties":[]},{"type":"Feature","geometry":{"type":"LineString","coordinates":[[121.5333333,24.950000000001],[-74.1723667,40.735656999999]]},"properties":[]},{"type":"Feature","geometry":{"type":"LineString","coordinates":[[-1.4700850000015,53.381128999999],[-74.1723667,40.735656999999]]},"properties":[]},{"type":"Feature","geometry":{"type":"LineString","coordinates":[[-1.2464673999963,51.761205600003],[-74.1723667,40.735656999999]]},"properties":[]},{"type":"Feature","geometry":{"type":"LineString","coordinates":[[-0.16988000000035,51.239207999999],[-74.1723667,40.735656999999]]},"properties":[]},{"type":"Feature","geometry":{"type":"LineString","coordinates":[[-2.0756090000006,51.897599],[-74.1723667,40.735656999999]]},"properties":[]},{"type":"Feature","geometry":{"type":"LineString","coordinates":[[-1.0867010000041,50.806985000002],[-74.1723667,40.735656999999]]},"properties":[]},{"type":"Feature","geometry":{"type":"LineString","coordinates":[[-1.5485669999976,53.801278999997],[-74.1723667,40.735656999999]]},"properties":[]},{"type":"Feature","geometry":{"type":"LineString","coordinates":[[-1.7631909999975,51.886805000002],[-74.1723667,40.735656999999]]},"properties":[]},{"type":"Feature","geometry":{"type":"LineString","coordinates":[[-1.4700850000015,53.381128999999],[-74.1723667,40.735656999999]]},"properties":[]},{"type":"Feature","geometry":{"type":"LineString","coordinates":[[-1.4710200000025,54.011022000002],[-74.1723667,40.735656999999]]},"properties":[]},{"type":"Feature","geometry":{"type":"LineString","coordinates":[[0.83006889999701,51.662231],[-74.1723667,40.735656999999]]},"properties":[]},{"type":"Feature","geometry":{"type":"LineString","coordinates":[[-1.541909899999,50.758530999999],[-74.1723667,40.735656999999]]},"properties":[]},{"type":"Feature","geometry":{"type":"LineString","coordinates":[[-0.32900299999587,51.467121000002],[-74.1723667,40.735656999999]]},"properties":[]},{"type":"Feature","geometry":{"type":"LineString","coordinates":[[-1.4700850000015,53.381128999999],[-74.1723667,40.735656999999]]},"properties":[]},{"type":"Feature","geometry":{"type":"LineString","coordinates":[[-2.4875290000045,53.748575],[-74.1723667,40.735656999999]]},"properties":[]},{"type":"Feature","geometry":{"type":"LineString","coordinates":[[-2.6544181999964,52.076516400001],[-74.1723667,40.735656999999]]},"properties":[]},{"type":"Feature","geometry":{"type":"LineString","coordinates":[[-1.6177800000041,54.978251999997],[-74.1723667,40.735656999999]]},"properties":[]},{"type":"Feature","geometry":{"type":"LineString","coordinates":[[-3.1790900000001,51.481580999998],[-74.1723667,40.735656999999]]},"properties":[]},{"type":"Feature","geometry":{"type":"LineString","coordinates":[[-3.1790900000001,51.481580999998],[-74.1723667,40.735656999999]]},"properties":[]},{"type":"Feature","geometry":{"type":"LineString","coordinates":[[0.79785300000103,51.531521999999],[-74.1723667,40.735656999999]]},"properties":[]},{"type":"Feature","geometry":{"type":"LineString","coordinates":[[-71.470350900004,43.527854599999],[-74.1723667,40.735656999999]]},"properties":[]},{"type":"Feature","geometry":{"type":"LineString","coordinates":[[-81.695408799997,41.4994954],[-74.1723667,40.735656999999]]},"properties":[]},{"type":"Feature","geometry":{"type":"LineString","coordinates":[[-122.8037102,45.487062],[-74.1723667,40.735656999999]]},"properties":[]},{"type":"Feature","geometry":{"type":"LineString","coordinates":[[-84.020502900002,42.3180919],[-74.1723667,40.735656999999]]},"properties":[]},{"type":"Feature","geometry":{"type":"LineString","coordinates":[[-83.885111700001,43.360929899999],[-74.1723667,40.735656999999]]},"properties":[]},{"type":"Feature","geometry":{"type":"LineString","coordinates":[[-72.0995209,41.355653899997],[-74.1723667,40.735656999999]]},"properties":[]},{"type":"Feature","geometry":{"type":"LineString","coordinates":[[-111.8910474,40.760779300001],[-74.1723667,40.735656999999]]},"properties":[]},{"type":"Feature","geometry":{"type":"LineString","coordinates":[[-93.402453200004,45.119409100001],[-74.1723667,40.735656999999]]},"properties":[]},{"type":"Feature","geometry":{"type":"LineString","coordinates":[[-78.8783689,42.886446799999],[-74.1723667,40.735656999999]]},"properties":[]},{"type":"Feature","geometry":{"type":"LineString","coordinates":[[-71.396724999997,42.083431300002],[-74.1723667,40.735656999999]]},"properties":[]},{"type":"Feature","geometry":{"type":"LineString","coordinates":[[-117.6483876,34.097509999999],[-74.1723667,40.735656999999]]},"properties":[]},{"type":"Feature","geometry":{"type":"LineString","coordinates":[[-78.743918900002,42.767559300002],[-74.1723667,40.735656999999]]},"properties":[]},{"type":"Feature","geometry":{"type":"LineString","coordinates":[[-71.470350900004,43.527854599999],[-74.1723667,40.735656999999]]},"properties":[]},{"type":"Feature","geometry":{"type":"LineString","coordinates":[[-85.668086299998,42.963359900002],[-74.1723667,40.735656999999]]},"properties":[]},{"type":"Feature","geometry":{"type":"LineString","coordinates":[[-72.207770899997,42.124148999997],[-74.1723667,40.735656999999]]},"properties":[]},{"type":"Feature","geometry":{"type":"LineString","coordinates":[[-86.158073599997,39.768515499999],[-74.1723667,40.735656999999]]},"properties":[]},{"type":"Feature","geometry":{"type":"LineString","coordinates":[[-85.488312699999,41.157268599999],[-74.1723667,40.735656999999]]},"properties":[]},{"type":"Feature","geometry":{"type":"LineString","coordinates":[[-84.1988308,39.890612199999],[-74.1723667,40.735656999999]]},"properties":[]},{"type":"Feature","geometry":{"type":"LineString","coordinates":[[-80.211447200004,40.246459300001],[-74.1723667,40.735656999999]]},"properties":[]},{"type":"Feature","geometry":{"type":"LineString","coordinates":[[-85.8530469,41.238099999999],[-74.1723667,40.735656999999]]},"properties":[]},{"type":"Feature","geometry":{"type":"LineString","coordinates":[[-84.191606899996,39.758947799999],[-74.1723667,40.735656999999]]},"properties":[]},{"type":"Feature","geometry":{"type":"LineString","coordinates":[[-74.305995899999,40.883740599998],[-74.1723667,40.735656999999]]},"properties":[]},{"type":"Feature","geometry":{"type":"LineString","coordinates":[[-85.705541700003,41.200322900003],[-74.1723667,40.735656999999]]},"properties":[]},{"type":"Feature","geometry":{"type":"LineString","coordinates":[[-111.8327229,41.838262199998],[-74.1723667,40.735656999999]]},"properties":[]},{"type":"Feature","geometry":{"type":"LineString","coordinates":[[-86.158073599997,39.768515499999],[-74.1723667,40.735656999999]]},"properties":[]},{"type":"Feature","geometry":{"type":"LineString","coordinates":[[-85.8530469,41.238099999999],[-74.1723667,40.735656999999]]},"properties":[]},{"type":"Feature","geometry":{"type":"LineString","coordinates":[[-70.934205000003,41.636215200002],[-74.1723667,40.735656999999]]},"properties":[]},{"type":"Feature","geometry":{"type":"LineString","coordinates":[[-71.454789100002,42.995639699998],[-74.1723667,40.735656999999]]},"properties":[]},{"type":"Feature","geometry":{"type":"LineString","coordinates":[[-85.238863399996,41.365882300002],[-74.1723667,40.735656999999]]},"properties":[]},{"type":"Feature","geometry":{"type":"LineString","coordinates":[[-72.772499999996,41.613888900003],[-74.1723667,40.735656999999]]},"properties":[]},{"type":"Feature","geometry":{"type":"LineString","coordinates":[[-80.255340700003,42.031445599999],[-74.1723667,40.735656999999]]},"properties":[]},{"type":"Feature","geometry":{"type":"LineString","coordinates":[[-80.244215999996,36.099859599998],[-74.1723667,40.735656999999]]},"properties":[]},{"type":"Feature","geometry":{"type":"LineString","coordinates":[[-93.6018389,44.789344600003],[-74.1723667,40.735656999999]]},"properties":[]},{"type":"Feature","geometry":{"type":"LineString","coordinates":[[-85.737184700001,38.277570199999],[-74.1723667,40.735656999999]]},"properties":[]},{"type":"Feature","geometry":{"type":"LineString","coordinates":[[-83.2341028,42.6875323],[-74.1723667,40.735656999999]]},"properties":[]},{"type":"Feature","geometry":{"type":"LineString","coordinates":[[-90.664571799998,42.5005583],[-74.1723667,40.735656999999]]},"properties":[]},{"type":"Feature","geometry":{"type":"LineString","coordinates":[[-80.058096900004,26.775340500001],[-74.1723667,40.735656999999]]},"properties":[]},{"type":"Feature","geometry":{"type":"LineString","coordinates":[[-118.0275667,34.0686206],[-74.1723667,40.735656999999]]},"properties":[]},{"type":"Feature","geometry":{"type":"LineString","coordinates":[[-93.266669999997,44.983334],[-74.1723667,40.735656999999]]},"properties":[]},{"type":"Feature","geometry":{"type":"LineString","coordinates":[[-81.794810299996,26.142035800001],[-74.1723667,40.735656999999]]},"properties":[]},{"type":"Feature","geometry":{"type":"LineString","coordinates":[[-75.232663999996,43.100902999998],[-74.1723667,40.735656999999]]},"properties":[]},{"type":"Feature","geometry":{"type":"LineString","coordinates":[[-120.6596156,35.2827524],[-74.1723667,40.735656999999]]},"properties":[]},{"type":"Feature","geometry":{"type":"LineString","coordinates":[[-85.587228600004,42.2917069],[-74.1723667,40.735656999999]]},"properties":[]},{"type":"Feature","geometry":{"type":"LineString","coordinates":[[-84.345316899997,46.495299599997],[-74.1723667,40.735656999999]]},"properties":[]},{"type":"Feature","geometry":{"type":"LineString","coordinates":[[-88.813946900001,35.614516900002],[-74.1723667,40.735656999999]]},"properties":[]},{"type":"Feature","geometry":{"type":"LineString","coordinates":[[-74.466388900001,40.539722200002],[-74.1723667,40.735656999999]]},"properties":[]},{"type":"Feature","geometry":{"type":"LineString","coordinates":[[-70.8166667,42.116666700002],[-74.1723667,40.735656999999]]},"properties":[]},{"type":"Feature","geometry":{"type":"LineString","coordinates":[[-87.332813900002,41.4828144],[-74.1723667,40.735656999999]]},"properties":[]},{"type":"Feature","geometry":{"type":"LineString","coordinates":[[-74.383762400001,40.740933999997],[-74.1723667,40.735656999999]]},"properties":[]},{"type":"Feature","geometry":{"type":"LineString","coordinates":[[-93.201036699998,43.1535728],[-74.1723667,40.735656999999]]},"properties":[]},{"type":"Feature","geometry":{"type":"LineString","coordinates":[[-85.3194208,41.230603399997],[-74.1723667,40.735656999999]]},"properties":[]},{"type":"Feature","geometry":{"type":"LineString","coordinates":[[-85.1663593,40.880603],[-74.1723667,40.735656999999]]},"properties":[]},{"type":"Feature","geometry":{"type":"LineString","coordinates":[[-118.0120086,33.917235700003],[-74.1723667,40.735656999999]]},"properties":[]},{"type":"Feature","geometry":{"type":"LineString","coordinates":[[-81.835689999998,41.3144966],[-74.1723667,40.735656999999]]},"properties":[]},{"type":"Feature","geometry":{"type":"LineString","coordinates":[[-86.250006599996,41.683381299998],[-74.1723667,40.735656999999]]},"properties":[]},{"type":"Feature","geometry":{"type":"LineString","coordinates":[[-71.966461999996,41.354265599997],[-74.1723667,40.735656999999]]},"properties":[]},{"type":"Feature","geometry":{"type":"LineString","coordinates":[[-78.476678100003,38.029305900003],[-74.1723667,40.735656999999]]},"properties":[]},{"type":"Feature","geometry":{"type":"LineString","coordinates":[[-85.849992100004,41.331990399998],[-74.1723667,40.735656999999]]},"properties":[]},{"type":"Feature","geometry":{"type":"LineString","coordinates":[[-90.048980100003,35.149534299999],[-74.1723667,40.735656999999]]},"properties":[]},{"type":"Feature","geometry":{"type":"LineString","coordinates":[[-92.536586500003,45.123021300002],[-74.1723667,40.735656999999]]},"properties":[]},{"type":"Feature","geometry":{"type":"LineString","coordinates":[[-118.442425,34.227617],[-74.1723667,40.735656999999]]},"properties":[]},{"type":"Feature","geometry":{"type":"LineString","coordinates":[[-79.716432599997,39.900076000003],[-74.1723667,40.735656999999]]},"properties":[]},{"type":"Feature","geometry":{"type":"LineString","coordinates":[[-85.488312699999,41.157268599999],[-74.1723667,40.735656999999]]},"properties":[]},{"type":"Feature","geometry":{"type":"LineString","coordinates":[[-121.082167,38.685736700003],[-74.1723667,40.735656999999]]},"properties":[]},{"type":"Feature","geometry":{"type":"LineString","coordinates":[[-117.9992265,33.660297000002],[-74.1723667,40.735656999999]]},"properties":[]},{"type":"Feature","geometry":{"type":"LineString","coordinates":[[-116.5532476,48.276590299998],[-74.1723667,40.735656999999]]},"properties":[]},{"type":"Feature","geometry":{"type":"LineString","coordinates":[[-97.416870000004,42.029640000003],[-74.1723667,40.735656999999]]},"properties":[]},{"type":"Feature","geometry":{"type":"LineString","coordinates":[[-81.835689999998,41.3144966],[-74.1723667,40.735656999999]]},"properties":[]},{"type":"Feature","geometry":{"type":"LineString","coordinates":[[-119.8138027,39.529632899998],[-74.1723667,40.735656999999]]},"properties":[]},{"type":"Feature","geometry":{"type":"LineString","coordinates":[[-72.424511699996,43.238627500003],[-74.1723667,40.735656999999]]},"properties":[]},{"type":"Feature","geometry":{"type":"LineString","coordinates":[[-73.202613800003,40.825653600002],[-74.1723667,40.735656999999]]},"properties":[]},{"type":"Feature","geometry":{"type":"LineString","coordinates":[[-85.668086299998,42.963359900002],[-74.1723667,40.735656999999]]},"properties":[]},{"type":"Feature","geometry":{"type":"LineString","coordinates":[[-83.2341028,42.6875323],[-74.1723667,40.735656999999]]},"properties":[]},{"type":"Feature","geometry":{"type":"LineString","coordinates":[[-71.470350900004,43.527854599999],[-74.1723667,40.735656999999]]},"properties":[]},{"type":"Feature","geometry":{"type":"LineString","coordinates":[[-105.2705456,40.014985600001],[-74.1723667,40.735656999999]]},"properties":[]},{"type":"Feature","geometry":{"type":"LineString","coordinates":[[-74.411540099998,40.579270100002],[-74.1723667,40.735656999999]]},"properties":[]},{"type":"Feature","geometry":{"type":"LineString","coordinates":[[-118.5642291,34.389816199997],[-74.1723667,40.735656999999]]},"properties":[]},{"type":"Feature","geometry":{"type":"LineString","coordinates":[[-83.704949800004,42.797806099997],[-74.1723667,40.735656999999]]},"properties":[]},{"type":"Feature","geometry":{"type":"LineString","coordinates":[[-81.022833099996,29.2108147],[-74.1723667,40.735656999999]]},"properties":[]},{"type":"Feature","geometry":{"type":"LineString","coordinates":[[-70.865337200003,43.2617503],[-74.1723667,40.735656999999]]},"properties":[]},{"type":"Feature","geometry":{"type":"LineString","coordinates":[[-73.195176700003,41.186547799997],[-74.1723667,40.735656999999]]},"properties":[]},{"type":"Feature","geometry":{"type":"LineString","coordinates":[[-122.8037102,45.487062],[-74.1723667,40.735656999999]]},"properties":[]},{"type":"Feature","geometry":{"type":"LineString","coordinates":[[-71.425000000004,42.199999999999],[-74.1723667,40.735656999999]]},"properties":[]},{"type":"Feature","geometry":{"type":"LineString","coordinates":[[-71.470350900004,43.527854599999],[-74.1723667,40.735656999999]]},"properties":[]},{"type":"Feature","geometry":{"type":"LineString","coordinates":[[-117.1572551,32.715329199999],[-74.1723667,40.735656999999]]},"properties":[]},{"type":"Feature","geometry":{"type":"LineString","coordinates":[[-104.8213634,38.833881600003],[-74.1723667,40.735656999999]]},"properties":[]},{"type":"Feature","geometry":{"type":"LineString","coordinates":[[-72.016666700001,41.966666699998],[-74.1723667,40.735656999999]]},"properties":[]},{"type":"Feature","geometry":{"type":"LineString","coordinates":[[-87.906473599997,43.038902500002],[-74.1723667,40.735656999999]]},"properties":[]},{"type":"Feature","geometry":{"type":"LineString","coordinates":[[-84.191606899996,39.758947799999],[-74.1723667,40.735656999999]]},"properties":[]},{"type":"Feature","geometry":{"type":"LineString","coordinates":[[-87.963130799999,42.166283099997],[-74.1723667,40.735656999999]]},"properties":[]},{"type":"Feature","geometry":{"type":"LineString","coordinates":[[-78.8783689,42.886446799999],[-74.1723667,40.735656999999]]},"properties":[]},{"type":"Feature","geometry":{"type":"LineString","coordinates":[[-73.153973400003,43.074785799998],[-74.1723667,40.735656999999]]},"properties":[]},{"type":"Feature","geometry":{"type":"LineString","coordinates":[[-117.7946942,33.683947299998],[-74.1723667,40.735656999999]]},"properties":[]},{"type":"Feature","geometry":{"type":"LineString","coordinates":[[-105.2705456,40.014985600001],[-74.1723667,40.735656999999]]},"properties":[]},{"type":"Feature","geometry":{"type":"LineString","coordinates":[[-74.005973100003,40.7143528],[-74.1723667,40.735656999999]]},"properties":[]},{"type":"Feature","geometry":{"type":"LineString","coordinates":[[-71.018378700001,42.0834335],[-74.1723667,40.735656999999]]},"properties":[]},{"type":"Feature","geometry":{"type":"LineString","coordinates":[[-75.299341700003,40.279827399998],[-74.1723667,40.735656999999]]},"properties":[]},{"type":"Feature","geometry":{"type":"LineString","coordinates":[[-71.018378700001,42.0834335],[-74.1723667,40.735656999999]]},"properties":[]},{"type":"Feature","geometry":{"type":"LineString","coordinates":[[-79.813644599997,35.707914600002],[-74.1723667,40.735656999999]]},"properties":[]},{"type":"Feature","geometry":{"type":"LineString","coordinates":[[-86.495821900003,34.318149699998],[-74.1723667,40.735656999999]]},"properties":[]},{"type":"Feature","geometry":{"type":"LineString","coordinates":[[-118.3089624,33.888348699999],[-74.1723667,40.735656999999]]},"properties":[]},{"type":"Feature","geometry":{"type":"LineString","coordinates":[[-118.2436849,34.052234200001],[-74.1723667,40.735656999999]]},"properties":[]},{"type":"Feature","geometry":{"type":"LineString","coordinates":[[-104.8213634,38.833881600003],[-74.1723667,40.735656999999]]},"properties":[]},{"type":"Feature","geometry":{"type":"LineString","coordinates":[[-79.379481099997,40.321180800001],[-74.1723667,40.735656999999]]},"properties":[]},{"type":"Feature","geometry":{"type":"LineString","coordinates":[[-81.055889400001,29.285812900001],[-74.1723667,40.735656999999]]},"properties":[]},{"type":"Feature","geometry":{"type":"LineString","coordinates":[[-71.412834299996,41.823989100001],[-74.1723667,40.735656999999]]},"properties":[]},{"type":"Feature","geometry":{"type":"LineString","coordinates":[[-104.8319195,39.729431900001],[-74.1723667,40.735656999999]]},"properties":[]},{"type":"Feature","geometry":{"type":"LineString","coordinates":[[-71.018378700001,42.0834335],[-74.1723667,40.735656999999]]},"properties":[]},{"type":"Feature","geometry":{"type":"LineString","coordinates":[[-78.8783689,42.886446799999],[-74.1723667,40.735656999999]]},"properties":[]},{"type":"Feature","geometry":{"type":"LineString","coordinates":[[-71.235611300004,42.376485200003],[-74.1723667,40.735656999999]]},"properties":[]},{"type":"Feature","geometry":{"type":"LineString","coordinates":[[-87.844793799999,42.3636331],[-74.1723667,40.735656999999]]},"properties":[]},{"type":"Feature","geometry":{"type":"LineString","coordinates":[[-93.089957799997,44.953702899998],[-74.1723667,40.735656999999]]},"properties":[]},{"type":"Feature","geometry":{"type":"LineString","coordinates":[[-71.041666699996,42.130555600001],[-74.1723667,40.735656999999]]},"properties":[]},{"type":"Feature","geometry":{"type":"LineString","coordinates":[[-73.775132599998,41.074818799998],[-74.1723667,40.735656999999]]},"properties":[]},{"type":"Feature","geometry":{"type":"LineString","coordinates":[[-93.089957799997,44.953702899998],[-74.1723667,40.735656999999]]},"properties":[]},{"type":"Feature","geometry":{"type":"LineString","coordinates":[[-90.199404200003,38.6270025],[-74.1723667,40.735656999999]]},"properties":[]},{"type":"Feature","geometry":{"type":"LineString","coordinates":[[-75.3835525,40.101285599997],[-74.1723667,40.735656999999]]},"properties":[]},{"type":"Feature","geometry":{"type":"LineString","coordinates":[[-75.181006300001,40.298995100001],[-74.1723667,40.735656999999]]},"properties":[]},{"type":"Feature","geometry":{"type":"LineString","coordinates":[[-75.490183300001,40.608430499997],[-74.1723667,40.735656999999]]},"properties":[]},{"type":"Feature","geometry":{"type":"LineString","coordinates":[[-121.9885719,37.5482697],[-74.1723667,40.735656999999]]},"properties":[]},{"type":"Feature","geometry":{"type":"LineString","coordinates":[[-74.205701100001,41.016763899997],[-74.1723667,40.735656999999]]},"properties":[]},{"type":"Feature","geometry":{"type":"LineString","coordinates":[[-84.146861599999,33.447336099999],[-74.1723667,40.735656999999]]},"properties":[]},{"type":"Feature","geometry":{"type":"LineString","coordinates":[[-81.655650999998,30.332183800001],[-74.1723667,40.735656999999]]},"properties":[]},{"type":"Feature","geometry":{"type":"LineString","coordinates":[[-81.339552,41.666157299997],[-74.1723667,40.735656999999]]},"properties":[]},{"type":"Feature","geometry":{"type":"LineString","coordinates":[[-87.821185400003,42.584742500001],[-74.1723667,40.735656999999]]},"properties":[]},{"type":"Feature","geometry":{"type":"LineString","coordinates":[[-87.953422600004,43.319726500001],[-74.1723667,40.735656999999]]},"properties":[]},{"type":"Feature","geometry":{"type":"LineString","coordinates":[[-72.6162009,42.204258599999],[-74.1723667,40.735656999999]]},"properties":[]},{"type":"Feature","geometry":{"type":"LineString","coordinates":[[-85.488312699999,41.157268599999],[-74.1723667,40.735656999999]]},"properties":[]},{"type":"Feature","geometry":{"type":"LineString","coordinates":[[-84.761903200002,41.293106000001],[-74.1723667,40.735656999999]]},"properties":[]},{"type":"Feature","geometry":{"type":"LineString","coordinates":[[-93.746559999999,45.336605000001],[-74.1723667,40.735656999999]]},"properties":[]},{"type":"Feature","geometry":{"type":"LineString","coordinates":[[-70.871164799998,42.894812400002],[-74.1723667,40.735656999999]]},"properties":[]},{"type":"Feature","geometry":{"type":"LineString","coordinates":[[-87.821185400003,42.584742500001],[-74.1723667,40.735656999999]]},"properties":[]},{"type":"Feature","geometry":{"type":"LineString","coordinates":[[-93.794137799999,45.305520099998],[-74.1723667,40.735656999999]]},"properties":[]},{"type":"Feature","geometry":{"type":"LineString","coordinates":[[-75.341566699996,40.441768200002],[-74.1723667,40.735656999999]]},"properties":[]},{"type":"Feature","geometry":{"type":"LineString","coordinates":[[-92.536586500003,45.123021300002],[-74.1723667,40.735656999999]]},"properties":[]},{"type":"Feature","geometry":{"type":"LineString","coordinates":[[-84.503716399998,38.040583699998],[-74.1723667,40.735656999999]]},"properties":[]},{"type":"Feature","geometry":{"type":"LineString","coordinates":[[-74.1723667,40.735656999999],[-74.1723667,40.735656999999]]},"properties":[]},{"type":"Feature","geometry":{"type":"LineString","coordinates":[[-119.6981901,34.420830499998],[-74.1723667,40.735656999999]]},"properties":[]},{"type":"Feature","geometry":{"type":"LineString","coordinates":[[-71.109733499997,42.373615800001],[-108.5419872,46.442267399999]]},"properties":[]},{"type":"Feature","geometry":{"type":"LineString","coordinates":[[-108.5419872,46.442267399999],[-108.5419872,46.442267399999]]},"properties":[]},{"type":"Feature","geometry":{"type":"LineString","coordinates":[[-71.109733499997,42.373615800001],[-117.0392607,32.724249399998]]},"properties":[]},{"type":"Feature","geometry":{"type":"LineString","coordinates":[[-117.0392607,32.724249399998],[-71.103651100004,42.365560999997]]},"properties":[]}],"properties":{"description":"Global Network ","tags":"","title":"Global Network"}}