{"supplychain":{"category":18,"created":1336418141,"enable_comments":true,"flags":0,"id":2889,"modified":1336418898,"other_perms":1,"passcode":null,"user_featured":false,"usergroup_id":null,"usergroup_perms":0,"user_id":2016,"owner":{"id":2016,"name":"kgdeely","avatar":"http:\/\/free.sourcemap.com\/assets\/images\/default-user.png","banner_url":null,"display_name":null},"taxonomy":[{"description":"Miscellaneous\n","id":18,"left":33,"name":"miscellaneous","right":34,"title":"Miscellaneous"}],"attributes":{"description":"Global Network ","tags":"","title":"Global Network"},"stops":[{"local_stop_id":268,"id":268,"geometry":"POINT(-7915222.233995 5215896.978609)","attributes":{"address":"Central Square, Cambridge","placename":"Central Square Florist, 653 Massachusetts avenue, Mid-Cambridge, Massachusetts 02139, USA","title":"Neighbors"}},{"local_stop_id":267,"id":267,"geometry":"POINT(-13028750.903945 3858759.621192)","attributes":{"address":"Main St. & Massachusetts Ave.","placename":"Massachusetts Ave & Main St, Lemon Grove, CA 91945, USA","title":"Lemonade Stand"}},{"local_stop_id":266,"id":266,"geometry":"POINT(-12082838.744794 5851508.367143)","attributes":{"address":"123 Main St.","placename":"123 Main St, Roundup, Mt 59072, USA","title":"Family"}},{"local_stop_id":265,"id":265,"geometry":"POINT(-12082838.744794 5851508.367143)","attributes":{"address":"123 Main St.","placename":"123 Main St, Roundup, Mt 59072, USA","title":"Refrigerator"}},{"local_stop_id":264,"id":264,"geometry":"POINT(-7915899.323665 5217110.62274)","attributes":{"address":"Cambridge, MA","placename":"Cambridge, MA, USA","title":"Lemonade"}},{"local_stop_id":263,"id":263,"geometry":"POINT(-13324741.570808 4085450.229371)","attributes":{"address":"Santa Barbara, CA","placename":"Santa Barbara, CA, USA","title":"Tier 1"}},{"local_stop_id":262,"id":262,"geometry":"POINT(-8256830.091976 4973428.973147)","attributes":{"address":"Newark, NJ","placename":"Newark, NJ, USA","title":"Tier 1"}},{"local_stop_id":261,"id":261,"geometry":"POINT(-9406910.679787 4585160.515981)","attributes":{"address":"Lexington , KY","placename":"Lexington, KY, USA","title":"Tier 1"}},{"local_stop_id":260,"id":260,"geometry":"POINT(-10301125.688928 5640909.508711)","attributes":{"address":"New Richmond, WI","placename":"New Richmond, WI 54017, USA","title":"Tier 1"}},{"local_stop_id":259,"id":259,"geometry":"POINT(-8386984.840611 4930348.038503)","attributes":{"address":"Quakertown, PA","placename":"Quakertown, PA 18951, USA","title":"Tier 1"}},{"local_stop_id":258,"id":258,"geometry":"POINT(-10441115.65929 5669748.297157)","attributes":{"address":"Monticello, MN","placename":"Monticello, MN, USA","title":"Tier 1"}},{"local_stop_id":257,"id":257,"geometry":"POINT(-9776209.63959 5248977.50546)","attributes":{"address":"Kenosha, WI","placename":"Kenosha, WI, USA","title":"Tier 1"}},{"local_stop_id":256,"id":256,"geometry":"POINT(-7889341.977462 5295974.901968)","attributes":{"address":"Seabrook, NH","placename":"Seabrook, NH, USA","title":"Tier 1"}},{"local_stop_id":255,"id":255,"geometry":"POINT(-10435819.322821 5674669.632962)","attributes":{"address":"Big Lake, MN","placename":"Big Lake, MN, USA","title":"Tier 1"}},{"local_stop_id":254,"id":254,"geometry":"POINT(-9435651.902893 5055671.335784)","attributes":{"address":"Hicksville, OH","placename":"Hicksville, OH 43526, USA","title":"Tier 1"}},{"local_stop_id":253,"id":253,"geometry":"POINT(-9516515.43854 5035566.494647)","attributes":{"address":"Columbia City, IN","placename":"Columbia City, IN 46725, USA","title":"Tier 1"}},{"local_stop_id":252,"id":252,"geometry":"POINT(-8083598.50753 5191625.669123)","attributes":{"address":"Holyoke, MA","placename":"Holyoke, MA, USA","title":"Tier 1"}},{"local_stop_id":251,"id":251,"geometry":"POINT(-9790930.217358 5360764.796183)","attributes":{"address":"Grafton, WI","placename":"Grafton, WI, USA","title":"Tier 1"}},{"local_stop_id":250,"id":250,"geometry":"POINT(-9776209.63959 5248977.50546)","attributes":{"address":"Kenosha, WI","placename":"Kenosha, WI, USA","title":"Tier 1"}},{"local_stop_id":249,"id":249,"geometry":"POINT(-9054677.509993 5111101.86812)","attributes":{"address":"Mentor, OH","placename":"Mentor, OH, USA","title":"Tier 1"}},{"local_stop_id":248,"id":248,"geometry":"POINT(-9089865.489713 3546320.837278)","attributes":{"address":"Jacksonville, FL","placename":"Jacksonville, FL, USA","title":"Tier 1"}},{"local_stop_id":247,"id":247,"geometry":"POINT(-9367185.785164 3954831.992944)","attributes":{"address":"McDonough, GA","placename":"McDonough, GA, USA","title":"Tier 1"}},{"local_stop_id":246,"id":246,"geometry":"POINT(-8260540.86041 5014814.649809)","attributes":{"address":"Franklin Lakes, NJ","placename":"Franklin Lakes, NJ, USA","title":"Tier 1"}},{"local_stop_id":245,"id":245,"geometry":"POINT(-13579705.706507 4515806.554068)","attributes":{"address":"Fremont, CA","placename":"Fremont, CA, USA","title":"Tier 1"}},{"local_stop_id":244,"id":244,"geometry":"POINT(-8403528.764847 4954755.690598)","attributes":{"address":"Allentown, PA","placename":"Allentown, PA, USA","title":"Tier 1"}},{"local_stop_id":243,"id":243,"geometry":"POINT(-8369111.338642 4909487.037037)","attributes":{"address":"New Britain, PA","placename":"New Britain, PA, USA","title":"Tier 1"}},{"local_stop_id":242,"id":242,"geometry":"POINT(-8391658.678488 4880671.761603)","attributes":{"address":"King of Prussia, PA","placename":"King of Prussia, PA, USA","title":"Tier 1"}},{"local_stop_id":241,"id":241,"geometry":"POINT(-10040951.745401 4668382.843839)","attributes":{"address":"St. Louis, MO","placename":"St Louis, MO, USA","title":"Tier 1"}},{"local_stop_id":240,"id":240,"geometry":"POINT(-10362726.700263 5614235.897653)","attributes":{"address":"St. Paul, MN","placename":"St Paul, MN, USA","title":"Tier 1"}},{"local_stop_id":239,"id":239,"geometry":"POINT(-8212610.194238 5023383.691241)","attributes":{"address":"Valhalla, NY","placename":"Valhalla, NY, USA","title":"Tier 1"}},{"local_stop_id":238,"id":238,"geometry":"POINT(-7908322.162149 5180556.146188)","attributes":{"address":"Avon, MA","placename":"Avon, MA, USA","title":"Tier 1"}},{"local_stop_id":237,"id":237,"geometry":"POINT(-10362726.700263 5614235.897653)","attributes":{"address":"St. Paul, MN","placename":"St Paul, MN, USA","title":"Tier 1"}},{"local_stop_id":236,"id":236,"geometry":"POINT(-9778837.714656 5215606.518435)","attributes":{"address":"Waukegan, IL","placename":"Waukegan, IL, USA","title":"Tier 1"}},{"local_stop_id":235,"id":235,"geometry":"POINT(-7929911.976264 5217543.002604)","attributes":{"address":"Waltham, MA","placename":"Waltham, MA, USA","title":"Tier 1"}},{"local_stop_id":234,"id":234,"geometry":"POINT(-8780699.860552 5294703.832597)","attributes":{"address":"Buffalo, NY","placename":"Buffalo, NY, USA","title":"Tier 1"}},{"local_stop_id":233,"id":233,"geometry":"POINT(-7905729.753848 5173485.582699)","attributes":{"address":"Brockton, MA","placename":"Brockton, MA, USA","title":"Tier 1"}},{"local_stop_id":232,"id":232,"geometry":"POINT(-11669835.897621 4826701.608898)","attributes":{"address":"Aurora, CO","placename":"Aurora, CO, USA","title":"Tier 1"}},{"local_stop_id":231,"id":231,"geometry":"POINT(-7949640.35038 5134650.220192)","attributes":{"address":"Providence, RI","placename":"Providence, RI, USA","title":"Tier 1"}},{"local_stop_id":230,"id":230,"geometry":"POINT(-9023100.333804 3412074.15093)","attributes":{"address":"Ormand Beach, FL","placename":"Ormond Beach, FL, USA","title":"Tier 1"}},{"local_stop_id":229,"id":229,"geometry":"POINT(-8836483.415486 4912725.757761)","attributes":{"address":"Latrobe, PA","placename":"Latrobe, PA 15650, USA","title":"Tier 1"}},{"local_stop_id":228,"id":228,"geometry":"POINT(-11668660.797945 4697904.39345)","attributes":{"address":"Colorado Springs, CO","placename":"Colorado Springs, CO, USA","title":"Tier 1"}},{"local_stop_id":227,"id":227,"geometry":"POINT(-13162826.792588 4035817.961317)","attributes":{"address":"Los Angeles, CA","placename":"Los Angeles, CA, USA","title":"Tier 1"}},{"local_stop_id":226,"id":226,"geometry":"POINT(-13170093.450649 4013819.819125)","attributes":{"address":"Gardena, CA","placename":"Gardena, CA, USA","title":"Tier 1"}},{"local_stop_id":225,"id":225,"geometry":"POINT(-9628670.849654 4071602.179529)","attributes":{"address":"Arab, AL","placename":"Arab, AL 35016, USA","title":"Tier 1"}},{"local_stop_id":224,"id":224,"geometry":"POINT(-8884814.275227 4260504.943811)","attributes":{"address":"Asheboro, NC","placename":"Asheboro, NC, USA","title":"Tier 1"}},{"local_stop_id":223,"id":223,"geometry":"POINT(-7905729.753848 5173485.582699)","attributes":{"address":"Brockton, MA","placename":"Brockton, MA, USA","title":"Tier 1"}},{"local_stop_id":222,"id":222,"geometry":"POINT(-8382284.375113 4906689.747291)","attributes":{"address":"Hatfield, PA","placename":"Hatfield, PA 19440, USA","title":"Tier 1"}},{"local_stop_id":221,"id":221,"geometry":"POINT(-7905729.753848 5173485.582699)","attributes":{"address":"Brockton, MA","placename":"Brockton, MA, USA","title":"Tier 1"}},{"local_stop_id":220,"id":220,"geometry":"POINT(-8238307.241153 4970299.628631)","attributes":{"address":"New York, NY","placename":"New York, NY, USA","title":"Tier 1"}},{"local_stop_id":219,"id":219,"geometry":"POINT(-11718663.531722 4868120.185076)","attributes":{"address":"Boulder, CO","placename":"Boulder, CO, USA","title":"Tier 1"}},{"local_stop_id":218,"id":218,"geometry":"POINT(-13112845.376493 3986442.410633)","attributes":{"address":"Irvine, CA","placename":"Irvine, CA, USA","title":"Tier 1"}},{"local_stop_id":217,"id":217,"geometry":"POINT(-8143463.068393 5323361.944778)","attributes":{"address":"Arlington, VT","placename":"Arlington, VT, USA","title":"Tier 1"}},{"local_stop_id":216,"id":216,"geometry":"POINT(-8780699.860552 5294703.832597)","attributes":{"address":"Buffalo, NY","placename":"Buffalo, NY, USA","title":"Tier 1"}},{"local_stop_id":215,"id":215,"geometry":"POINT(-9792010.929238 5185920.482475)","attributes":{"address":"Buffalo Grove, IL","placename":"Buffalo Grove, IL, USA","title":"Tier 1"}},{"local_stop_id":214,"id":214,"geometry":"POINT(-9372166.809175 4830974.812874)","attributes":{"address":"Dayton, OH","placename":"Dayton, OH, USA","title":"Tier 1"}},{"local_stop_id":213,"id":213,"geometry":"POINT(-9785703.878584 5317895.079942)","attributes":{"address":"Milwaukee, WI","placename":"Milwaukee, WI, USA","title":"Tier 1"}},{"local_stop_id":212,"id":212,"geometry":"POINT(-8016858.665673 5155987.584423)","attributes":{"address":"Woodstock, CT","placename":"Woodstock, CT, USA","title":"Tier 1"}},{"local_stop_id":211,"id":211,"geometry":"POINT(-11668660.797945 4697904.39345)","attributes":{"address":"Colorado Springs, CO","placename":"Colorado Springs, CO, USA","title":"Tier 1"}},{"local_stop_id":210,"id":210,"geometry":"POINT(-13041885.98047 3857579.348242)","attributes":{"address":"San Diego, CA","placename":"San Diego, CA, USA","title":"Tier 1"}},{"local_stop_id":209,"id":209,"geometry":"POINT(-7956043.069005 5392664.96219)","attributes":{"address":"Laconia, NH","placename":"Laconia, NH, USA","title":"Tier 1"}},{"local_stop_id":208,"id":208,"geometry":"POINT(-7950994.62991 5190985.714725)","attributes":{"address":"Holliston, MA","placename":"Holliston, MA, USA","title":"Tier 1"}},{"local_stop_id":207,"id":207,"geometry":"POINT(-13670446.486989 5698528.135315)","attributes":{"address":"Beaverton, OR","placename":"Beaverton, OR, USA","title":"Tier 1"}},{"local_stop_id":206,"id":206,"geometry":"POINT(-8148049.798768 5039896.482929)","attributes":{"address":"Bridgeport, CT","placename":"Bridgeport, CT, USA","title":"Tier 1"}},{"local_stop_id":205,"id":205,"geometry":"POINT(-7888693.251998 5351898.156298)","attributes":{"address":"Somersworth, NH","placename":"Somersworth, NH, USA","title":"Tier 1"}},{"local_stop_id":204,"id":204,"geometry":"POINT(-9019420.52332 3402505.482715)","attributes":{"address":"Daytona Beach, FL","placename":"Daytona Beach, FL, USA","title":"Tier 1"}},{"local_stop_id":203,"id":203,"geometry":"POINT(-9317992.388613 5281246.337976)","attributes":{"address":"Fenton, MI","placename":"Fenton, MI, USA","title":"Tier 1"}},{"local_stop_id":202,"id":202,"geometry":"POINT(-13198509.609709 4081265.694955)","attributes":{"address":"Valencia, CA","placename":"Valencia, Santa Clarita, CA, USA","title":"Tier 1"}},{"local_stop_id":201,"id":201,"geometry":"POINT(-8283454.753075 4950480.772854)","attributes":{"address":"South Plainfield, NJ","placename":"South Plainfield, NJ, USA","title":"Tier 1"}},{"local_stop_id":200,"id":200,"geometry":"POINT(-11718663.531722 4868120.185076)","attributes":{"address":"Boulder, CO","placename":"Boulder, CO, USA","title":"Tier 1"}},{"local_stop_id":199,"id":199,"geometry":"POINT(-7956043.069005 5392664.96219)","attributes":{"address":"Laconia, NH","placename":"Laconia, NH, USA","title":"Tier 1"}},{"local_stop_id":198,"id":198,"geometry":"POINT(-9265577.940331 5264531.37059)","attributes":{"address":"Auburn Hills, MI","placename":"Auburn Hills, MI, USA","title":"Tier 1"}},{"local_stop_id":197,"id":197,"geometry":"POINT(-9536527.74415 5306396.511954)","attributes":{"address":"Grand Rapids, MI","placename":"Grand Rapids, MI, USA","title":"Tier 1"}},{"local_stop_id":196,"id":196,"geometry":"POINT(-8148877.692953 4986659.521888)","attributes":{"address":"Hauppauge, NY","placename":"Hauppauge, NY, USA","title":"Tier 1"}},{"local_stop_id":195,"id":195,"geometry":"POINT(-8062259.763395 5348364.206622)","attributes":{"address":"Charlestown, NH","placename":"Charlestown, NH, USA","title":"Tier 1"}},{"local_stop_id":194,"id":194,"geometry":"POINT(-13337611.50657 4797823.402283)","attributes":{"address":"Reno, NV","placename":"Reno, NV, USA","title":"Tier 1"}},{"local_stop_id":193,"id":193,"geometry":"POINT(-9109907.339516 5058841.099162)","attributes":{"address":"Strongsville, OH","placename":"Strongsville, OH, USA","title":"Tier 1"}},{"local_stop_id":192,"id":192,"geometry":"POINT(-10844396.363075 5165420.406867)","attributes":{"address":"Norfolk, NE","placename":"Norfolk, NE 68701, USA","title":"Tier 1"}},{"local_stop_id":191,"id":191,"geometry":"POINT(-12974648.173134 6152993.5795)","attributes":{"address":"Sandpoint, ID","placename":"Sandpoint, ID, USA","title":"Tier 1"}},{"local_stop_id":190,"id":190,"geometry":"POINT(-13135613.80798 3983278.912076)","attributes":{"address":"Huntington Beach, CA","placename":"Huntington Beach, CA, USA","title":"Tier 1"}},{"local_stop_id":189,"id":189,"geometry":"POINT(-13478805.174586 4676755.502495)","attributes":{"address":"El Dorado Hills, CA","placename":"El Dorado Hills, CA, USA","title":"Tier 1"}},{"local_stop_id":188,"id":188,"geometry":"POINT(-9516515.43854 5035566.494647)","attributes":{"address":"Columbia City, IN","placename":"Columbia City, IN 46725, USA","title":"Tier 1"}},{"local_stop_id":187,"id":187,"geometry":"POINT(-8873992.684888 4851432.203169)","attributes":{"address":"Uniontown, PA","placename":"Uniontown, PA 15401, USA","title":"Tier 1"}},{"local_stop_id":186,"id":186,"geometry":"POINT(-13184950.43932 4059406.530816)","attributes":{"address":"Panorama City, CA","placename":"Panorama City, Los Angeles, CA, USA","title":"Tier 1"}},{"local_stop_id":185,"id":185,"geometry":"POINT(-10301125.688928 5640909.508711)","attributes":{"address":"New Richmond, WI","placename":"New Richmond, WI 54017, USA","title":"Tier 1"}},{"local_stop_id":184,"id":184,"geometry":"POINT(-10024206.611186 4184220.871795)","attributes":{"address":"Memphis, TN","placename":"Memphis, TN, USA","title":"Tier 1"}},{"local_stop_id":183,"id":183,"geometry":"POINT(-9556777.405179 5061434.188984)","attributes":{"address":"Leesburg, IN","placename":"Leesburg, IN, USA","title":"Tier 1"}},{"local_stop_id":182,"id":182,"geometry":"POINT(-8735983.84524 4583566.581258)","attributes":{"address":"Charlottesville, VA","placename":"Charlottesville, VA, USA","title":"Tier 1"}},{"local_stop_id":181,"id":181,"geometry":"POINT(-8011269.904033 5064737.029363)","attributes":{"address":"Mystic, CT","placename":"Mystic, Stonington, CT, USA","title":"Tier 1"}},{"local_stop_id":180,"id":180,"geometry":"POINT(-9601306.815628 5113668.861323)","attributes":{"address":"South Bend, IN","placename":"South Bend, IN, USA","title":"Tier 1"}},{"local_stop_id":179,"id":179,"geometry":"POINT(-9109907.339516 5058841.099162)","attributes":{"address":"Strongsville, OH","placename":"Strongsville, OH, USA","title":"Tier 1"}},{"local_stop_id":178,"id":178,"geometry":"POINT(-13137036.704843 4017694.209379)","attributes":{"address":"La Mirada, CA","placename":"La Mirada, CA, USA","title":"Tier 1"}},{"local_stop_id":177,"id":177,"geometry":"POINT(-9480675.749993 4994746.552675)","attributes":{"address":"Ossian, IN","placename":"Ossian, IN 46777, USA","title":"Tier 1"}},{"local_stop_id":176,"id":176,"geometry":"POINT(-9497714.478233 5046415.346313)","attributes":{"address":"Churubusco, IN","placename":"Churubusco, IN 46723, USA","title":"Tier 1"}},{"local_stop_id":175,"id":175,"geometry":"POINT(-10375091.946849 5335376.482852)","attributes":{"address":"Mason City, IA","placename":"Mason City, IA 50401, USA","title":"Tier 1"}},{"local_stop_id":174,"id":174,"geometry":"POINT(-8280362.553656 4974204.259222)","attributes":{"address":"Chatham, NJ","placename":"Chatham, NJ, USA","title":"Tier 1"}},{"local_stop_id":173,"id":173,"geometry":"POINT(-9721844.372892 5083819.641856)","attributes":{"address":"Merrillville, IN","placename":"Merrillville, IN, USA","title":"Tier 1"}},{"local_stop_id":172,"id":172,"geometry":"POINT(-7883275.276721 5178471.602131)","attributes":{"address":"Hanover, MA","placename":"Hanover, MA, USA","title":"Tier 1"}},{"local_stop_id":171,"id":171,"geometry":"POINT(-8289560.493562 4944686.022685)","attributes":{"address":"Piscataway, NJ","placename":"Piscataway Township, NJ, USA","title":"Tier 1"}},{"local_stop_id":170,"id":170,"geometry":"POINT(-9886723.344249 4247708.311414)","attributes":{"address":"Jackson, TN","placename":"Jackson, TN, USA","title":"Tier 1"}},{"local_stop_id":169,"id":169,"geometry":"POINT(-9389277.728105 5860079.722384)","attributes":{"address":"Sault Sainte Marie, MI","placename":"Sault Ste. Marie, MI, USA","title":"Tier 1"}},{"local_stop_id":168,"id":168,"geometry":"POINT(-9527526.70616 5204776.37574)","attributes":{"address":"Kalamazoo, MI","placename":"Kalamazoo, MI, USA","title":"Tier 1"}},{"local_stop_id":167,"id":167,"geometry":"POINT(-13431766.967904 4202372.764364)","attributes":{"address":"San Luis Obispo, CA","placename":"San Luis Obispo, CA, USA","title":"Tier 1"}},{"local_stop_id":166,"id":166,"geometry":"POINT(-8374861.847501 5327342.945367)","attributes":{"address":"Utica, NY","placename":"Utica, NY, USA","title":"Tier 1"}},{"local_stop_id":165,"id":165,"geometry":"POINT(-9105356.632128 3016683.347007)","attributes":{"address":"Naples, FL","placename":"Naples, FL, USA","title":"Tier 1"}},{"local_stop_id":164,"id":164,"geometry":"POINT(-10382398.212384 5618898.147063)","attributes":{"address":"Minneapolis, MN","placename":"Minneapolis, MN, USA","title":"Tier 1"}},{"local_stop_id":163,"id":163,"geometry":"POINT(-13138768.624613 4038019.822069)","attributes":{"address":"El Monte, CA","placename":"El Monte, CA, USA","title":"Tier 1"}},{"local_stop_id":162,"id":162,"geometry":"POINT(-8912026.580787 3095431.442755)","attributes":{"address":"Riviera Beach, FL","placename":"Riviera Beach, FL, USA","title":"Tier 1"}},{"local_stop_id":161,"id":161,"geometry":"POINT(-10092733.965766 5236258.080489)","attributes":{"address":"Dubuque, IA","placename":"Dubuque, IA, USA","title":"Tier 1"}},{"local_stop_id":160,"id":160,"geometry":"POINT(-9265577.940331 5264531.37059)","attributes":{"address":"Auburn Hills, MI","placename":"Auburn Hills, MI, USA","title":"Tier 1"}},{"local_stop_id":159,"id":159,"geometry":"POINT(-9544219.742853 4618711.72123)","attributes":{"address":"Jeffersonville, IN","placename":"Jeffersonville, IN, USA","title":"Tier 1"}},{"local_stop_id":158,"id":158,"geometry":"POINT(-10419709.043662 5588418.846167)","attributes":{"address":"Chaska, MN","placename":"Chaska, MN, USA","title":"Tier 1"}},{"local_stop_id":157,"id":157,"geometry":"POINT(-8932745.264225 4314370.61297)","attributes":{"address":"Winston Salem, NC","placename":"Winston-Salem, NC, USA","title":"Tier 1"}},{"local_stop_id":156,"id":156,"geometry":"POINT(-8933983.660165 5165691.006911)","attributes":{"address":"Fairview, PA","placename":"Fairview, PA, USA","title":"Tier 1"}},{"local_stop_id":155,"id":155,"geometry":"POINT(-8100997.643753 5103316.204466)","attributes":{"address":"Berlin, CT","placename":"Berlin, CT, USA","title":"Tier 1"}},{"local_stop_id":154,"id":154,"geometry":"POINT(-9488746.869485 5066459.93619)","attributes":{"address":"Avilla, IN","placename":"Avilla, IN 46710, USA","title":"Tier 1"}},{"local_stop_id":153,"id":153,"geometry":"POINT(-7954310.737353 5311308.188372)","attributes":{"address":"Manchester, NH","placename":"Manchester, NH, USA","title":"Tier 1"}},{"local_stop_id":152,"id":152,"geometry":"POINT(-7896359.580426 5106641.05625)","attributes":{"address":"New Bedford, MA","placename":"New Bedford, MA, USA","title":"Tier 1"}},{"local_stop_id":151,"id":151,"geometry":"POINT(-9557117.463959 5047525.047991)","attributes":{"address":"Warsaw, IN","placename":"Warsaw, IN, USA","title":"Tier 1"}},{"local_stop_id":150,"id":150,"geometry":"POINT(-9591072.880881 4832360.382466)","attributes":{"address":"Indianapolis, IN","placename":"Indianapolis, IN, USA","title":"Tier 1"}},{"local_stop_id":149,"id":149,"geometry":"POINT(-12449161.767253 5136782.611561)","attributes":{"address":"Smithfield, UT","placename":"Smithfield, UT, USA","title":"Tier 1"}},{"local_stop_id":148,"id":148,"geometry":"POINT(-9540697.260206 5041934.299202)","attributes":{"address":"Pierceton, IN","placename":"Pierceton, IN 46562, USA","title":"Tier 1"}},{"local_stop_id":147,"id":147,"geometry":"POINT(-8271705.626475 4995208.523081)","attributes":{"address":"Fairfield, NJ","placename":"Fairfield, NJ, USA","title":"Tier 1"}},{"local_stop_id":146,"id":146,"geometry":"POINT(-9372166.809175 4830974.812874)","attributes":{"address":"Dayton, OH","placename":"Dayton, OH, USA","title":"Tier 1"}},{"local_stop_id":145,"id":145,"geometry":"POINT(-9557117.463959 5047525.047991)","attributes":{"address":"Warsaw, IN","placename":"Warsaw, IN, USA","title":"Tier 1"}},{"local_stop_id":144,"id":144,"geometry":"POINT(-8929097.458096 4901821.975332)","attributes":{"address":"Houston, PA","placename":"Houston, PA, USA","title":"Tier 1"}},{"local_stop_id":143,"id":143,"geometry":"POINT(-9372970.970045 4850059.051865)","attributes":{"address":"Vandalia, OH","placename":"Vandalia, OH, USA","title":"Tier 1"}},{"local_stop_id":142,"id":142,"geometry":"POINT(-9516515.43854 5035566.494647)","attributes":{"address":"Columbia City, IN","placename":"Columbia City, IN 46725, USA","title":"Tier 1"}},{"local_stop_id":141,"id":141,"geometry":"POINT(-9591072.880881 4832360.382466)","attributes":{"address":"Indianapolis, IN","placename":"Indianapolis, IN, USA","title":"Tier 1"}},{"local_stop_id":140,"id":140,"geometry":"POINT(-8038132.287905 5179594.541702)","attributes":{"address":"Brimfield, MA","placename":"Brimfield, MA, USA","title":"Tier 1"}},{"local_stop_id":139,"id":139,"geometry":"POINT(-9536527.74415 5306396.511954)","attributes":{"address":"Grand Rapids, MI","placename":"Grand Rapids, MI, USA","title":"Tier 1"}},{"local_stop_id":138,"id":138,"geometry":"POINT(-7956043.069005 5392664.96219)","attributes":{"address":"Laconia, NH","placename":"Laconia, NH, USA","title":"Tier 1"}},{"local_stop_id":137,"id":137,"geometry":"POINT(-8765732.955015 5276658.659752)","attributes":{"address":"Orchard Park, NY","placename":"Orchard Park, NY 14127, USA","title":"Tier 1"}},{"local_stop_id":136,"id":136,"geometry":"POINT(-13096558.600282 4041902.763857)","attributes":{"address":"Upland, CA","placename":"Upland, CA, USA","title":"Tier 1"}},{"local_stop_id":135,"id":135,"geometry":"POINT(-7947847.071307 5173485.252717)","attributes":{"address":"Franklin, MA","placename":"Franklin, MA, USA","title":"Tier 1"}},{"local_stop_id":134,"id":134,"geometry":"POINT(-8780699.860552 5294703.832597)","attributes":{"address":"Buffalo, NY","placename":"Buffalo, NY, USA","title":"Tier 1"}},{"local_stop_id":133,"id":133,"geometry":"POINT(-10397513.529067 5640339.634847)","attributes":{"address":"Osseo, MN","placename":"Osseo, MN, USA","title":"Tier 1"}},{"local_stop_id":132,"id":132,"geometry":"POINT(-12455654.420894 4977120.440969)","attributes":{"address":"Salt Lake City, UT","placename":"Salt Lake City, UT, USA","title":"Tier 1"}},{"local_stop_id":131,"id":131,"geometry":"POINT(-8026081.953027 5064942.916026)","attributes":{"address":"New London, CT","placename":"New London, CT, USA","title":"Tier 1"}},{"local_stop_id":130,"id":130,"geometry":"POINT(-9338047.919581 5367071.417587)","attributes":{"address":"Bridgeport, MI","placename":"Bridgeport Charter Township, MI, USA","title":"Tier 1"}},{"local_stop_id":129,"id":129,"geometry":"POINT(-9353119.599023 5208747.806118)","attributes":{"address":"Chelsea, MI","placename":"Chelsea, MI 48118, USA","title":"Tier 1"}},{"local_stop_id":128,"id":128,"geometry":"POINT(-13670446.486989 5698528.135315)","attributes":{"address":"Beaverton, OR","placename":"Beaverton, OR, USA","title":"Tier 1"}},{"local_stop_id":127,"id":127,"geometry":"POINT(-9094291.307764 5086298.649398)","attributes":{"address":"Cleveland, OH","placename":"Cleveland, OH, USA","title":"Tier 1"}},{"local_stop_id":126,"id":126,"geometry":"POINT(-7956043.069005 5392664.96219)","attributes":{"address":"Laconia, NH","placename":"Laconia, NH, USA","title":"Tier 1"}},{"local_stop_id":125,"id":125,"geometry":"POINT(88816.589688 6715857.869881)","attributes":{"address":"Shoeburyness, United Kingdom","placename":"Shoeburyness, Southend-on-Sea SS3, UK","title":"Tier 1"}},{"local_stop_id":124,"id":124,"geometry":"POINT(-353894.679986 6706926.02086)","attributes":{"address":"Cardiff, United Kingdom","placename":"Cardiff, UK","title":"Tier 1"}},{"local_stop_id":123,"id":123,"geometry":"POINT(-353894.679986 6706926.02086)","attributes":{"address":"Cardiff, United Kingdom","placename":"Cardiff, UK","title":"Tier 1"}},{"local_stop_id":122,"id":122,"geometry":"POINT(-180090.445816 7357646.413223)","attributes":{"address":"Newcastle, United Kingdom","placename":"Newcastle Upon Tyne, Tyne and Wear, UK","title":"Tier 1"}},{"local_stop_id":121,"id":121,"geometry":"POINT(-295488.482376 6813972.442788)","attributes":{"address":"Herefordshire, United Kingdom","placename":"Herefordshire, UK","title":"Tier 1"}},{"local_stop_id":120,"id":120,"geometry":"POINT(-276910.461614 7122682.479534)","attributes":{"address":"Blackburn, United Kingdom","placename":"Blackburn, Blackburn with Darwen, UK","title":"Tier 1"}},{"local_stop_id":119,"id":119,"geometry":"POINT(-163649.113623 7053809.999978)","attributes":{"address":"Sheffield, United Kingdom","placename":"Sheffield, South Yorkshire, UK","title":"Tier 1"}},{"local_stop_id":118,"id":118,"geometry":"POINT(-36624.446429 6704341.704723)","attributes":{"address":"Isleworth, United Kingdom","placename":"Isleworth, Greater London, UK","title":"Tier 1"}},{"local_stop_id":117,"id":117,"geometry":"POINT(-171644.624917 6578691.290313)","attributes":{"address":"Lymington, United Kingdom","placename":"Lymington, Hampshire, UK","title":"Tier 1"}},{"local_stop_id":116,"id":116,"geometry":"POINT(92402.847271 6739281.396895)","attributes":{"address":"Southminister, United Kingdom","placename":"Southminster, Essex CM0, UK","title":"Tier 1"}},{"local_stop_id":115,"id":115,"geometry":"POINT(-163753.197347 7172244.005275)","attributes":{"address":"Knaresborough, United Kingdom","placename":"Knaresborough, North Yorkshire, UK","title":"Tier 1"}},{"local_stop_id":114,"id":114,"geometry":"POINT(-163649.113623 7053809.999978)","attributes":{"address":"Sheffield, United Kingdom","placename":"Sheffield, South Yorkshire, UK","title":"Tier 1"}},{"local_stop_id":113,"id":113,"geometry":"POINT(-196277.524291 6779684.167259)","attributes":{"address":"Bourton on the Water, United Kingdom","placename":"Bourton-on-the-Water, Gloucestershire GL54, UK","title":"Tier 1"}},{"local_stop_id":112,"id":112,"geometry":"POINT(-172385.689899 7132610.386514)","attributes":{"address":"Leeds, United Kingdom","placename":"Leeds, West Yorkshire, UK","title":"Tier 1"}},{"local_stop_id":111,"id":111,"geometry":"POINT(-120971.001965 6587222.359987)","attributes":{"address":"Portsmouth, United Kingdom","placename":"Portsmouth, UK","title":"Tier 1"}},{"local_stop_id":110,"id":110,"geometry":"POINT(-231055.736966 6781631.175725)","attributes":{"address":"Cheltenham, United Kingdom","placename":"Cheltenham, Gloucestershire, UK","title":"Tier 1"}},{"local_stop_id":109,"id":109,"geometry":"POINT(-18910.955096 6663716.424369)","attributes":{"address":"Redhill, United Kingdom","placename":"Redhill, Surrey, UK","title":"Tier 1"}},{"local_stop_id":108,"id":108,"geometry":"POINT(-138756.116258 6757062.995717)","attributes":{"address":"Oxfordshire, United Kingdom","placename":"Oxfordshire, UK","title":"Tier 1"}},{"local_stop_id":107,"id":107,"geometry":"POINT(-163649.113623 7053809.999978)","attributes":{"address":"Sheffield, United Kingdom","placename":"Sheffield, South Yorkshire, UK","title":"Tier 1"}},{"local_stop_id":106,"id":106,"geometry":"POINT(13529028.777365 2869604.499385)","attributes":{"address":"Hsin-tien, Taiwan, Province of China","placename":"Sindian District, New Taipei City, Taiwan 231","title":"Tier 1"}},{"local_stop_id":105,"id":105,"geometry":"POINT(812095.722845 5958820.759022)","attributes":{"address":"Worben, Switzerland","placename":"Worben, Switzerland","title":"Tier 1"}},{"local_stop_id":104,"id":104,"geometry":"POINT(1046264.342392 5911265.113775)","attributes":{"address":"Bonaduz, Switzerland","placename":"Bonaduz, Switzerland","title":"Tier 1"}},{"local_stop_id":103,"id":103,"geometry":"POINT(968142.839574 5983877.200664)","attributes":{"address":"Mannedorf, Switzerland","placename":"M\u00e4nnedorf, Switzerland","title":"Tier 1"}},{"local_stop_id":102,"id":102,"geometry":"POINT(834818.257306 5976828.720279)","attributes":{"address":"Bellach, Switzerland","placename":"Bellach, Switzerland","title":"Tier 1"}},{"local_stop_id":101,"id":101,"geometry":"POINT(806373.088386 5964986.187876)","attributes":{"address":"Biel, Switzerland","placename":"Biel\/Bienne, Switzerland","title":"Tier 1"}},{"local_stop_id":100,"id":100,"geometry":"POINT(1043161.589885 6011574.823977)","attributes":{"address":"St. Gallen, Switzerland","placename":"St Gallen, Switzerland","title":"Tier 1"}},{"local_stop_id":99,"id":99,"geometry":"POINT(1533375.891906 8078758.685333)","attributes":{"address":"Timmersdala, Sweden","placename":"Timmersdala, Sweden","title":"Tier 1"}},{"local_stop_id":98,"id":98,"geometry":"POINT(1738963.254456 8054114.931429)","attributes":{"address":"Linkopinq, Sweden","placename":"Link\u00f6ping Municipality, Sweden","title":"Tier 1"}},{"local_stop_id":97,"id":97,"geometry":"POINT(1684657.387838 8035412.493737)","attributes":{"address":"Mjolby, Sweden","placename":"Mjolby, Sweden","title":"Tier 1"}},{"local_stop_id":96,"id":96,"geometry":"POINT(241554.244747 5069728.812432)","attributes":{"address":"Barcelona, Spain","placename":"Barcelona, Spain","title":"Tier 1"}},{"local_stop_id":95,"id":95,"geometry":"POINT(-446810.387283 4907854.68602)","attributes":{"address":"Navalcarnero, Spain","placename":"28600 Navalcarnero, Spain","title":"Tier 1"}},{"local_stop_id":94,"id":94,"geometry":"POINT(11553411.016682 159876.649187)","attributes":{"address":"Woodlands, Singapore","placename":"Woodlands, Singapore","title":"Tier 1"}},{"local_stop_id":93,"id":93,"geometry":"POINT(19217776.704001 -5393309.804003)","attributes":{"address":"Christchurch, New Zealand","placename":"Christchurch, New Zealand","title":"Tier 1"}},{"local_stop_id":92,"id":92,"geometry":"POINT(19442627.459154 -4423856.915987)","attributes":{"address":"Glendene, New Zealand","placename":"Glendene, Auckland, New Zealand","title":"Tier 1"}},{"local_stop_id":91,"id":91,"geometry":"POINT(642200.138636 6606329.800115)","attributes":{"address":"Maastricht Airport, Netherlands","placename":"Maastricht Aachen Airport (MST), Vliegveldweg 90, 6199 AD Maastricht-Airport, The Netherlands","title":"Tier 1"}},{"local_stop_id":90,"id":90,"geometry":"POINT(629714.344173 6783961.31014)","attributes":{"address":"Dodewaard, Netherlands","placename":"6669 Dodewaard, The Netherlands","title":"Tier 1"}},{"local_stop_id":89,"id":89,"geometry":"POINT(651733.539827 6771763.506531)","attributes":{"address":"Nijmegen, Netherlands","placename":"Nijmegen, The Netherlands","title":"Tier 1"}},{"local_stop_id":88,"id":88,"geometry":"POINT(500261.576247 6829165.728105)","attributes":{"address":"Leiden, Netherlands","placename":"Leiden, The Netherlands","title":"Tier 1"}},{"local_stop_id":87,"id":87,"geometry":"POINT(-13026406.882823 3833544.883639)","attributes":{"address":"Tijuana, Mexico","placename":"Tijuana Municipality, Baja California, Mexico","title":"Tier 1"}},{"local_stop_id":86,"id":86,"geometry":"POINT(-11851358.234915 3728068.672293)","attributes":{"address":"Cuidad Juarez, Mexico","placename":"Ciudad Ju\u00e1rez, Chihuahua, Mexico","title":"Tier 1"}},{"local_stop_id":85,"id":85,"geometry":"POINT(-11242759.327978 2928249.814379)","attributes":{"address":"Saltillo, Mexico","placename":"Saltillo, Coahuila, Mexico","title":"Tier 1"}},{"local_stop_id":84,"id":84,"geometry":"POINT(15557299.043061 4258597.893365)","attributes":{"address":"Chiyoda, Japan","placename":"Chiyoda, Tokyo, Japan","title":"Tier 1"}},{"local_stop_id":83,"id":83,"geometry":"POINT(15413849.507828 4246860.815931)","attributes":{"address":"Minami Alps, Japan","placename":"Minami Alps, Yamanashi Prefecture, Japan","title":"Tier 1"}},{"local_stop_id":82,"id":82,"geometry":"POINT(15560339.490049 4264864.723758)","attributes":{"address":"Arakawa-ku, Tokyo 116, Japan","placename":"Arakawa, Tokyo, Japan","title":"Tier 1"}},{"local_stop_id":81,"id":81,"geometry":"POINT(15595835.323822 4262500.342495)","attributes":{"address":"Yachiyo, Japan","placename":"Yachiyo, Chiba Prefecture, Japan","title":"Tier 1"}},{"local_stop_id":80,"id":80,"geometry":"POINT(15508564.538847 4254806.781996)","attributes":{"address":"Hachioji, Japan","placename":"Hachioji, Tokyo, Japan","title":"Tier 1"}},{"local_stop_id":79,"id":79,"geometry":"POINT(3919985.958439 3896110.213059)","attributes":{"address":"Gaton, Israel","placename":"Ga'aton, Israel","title":"Tier 1"}},{"local_stop_id":78,"id":78,"geometry":"POINT(3919972.377461 3732937.038515)","attributes":{"address":"Jerusalem, Israel","placename":"Jerusalem, Israel","title":"Tier 1"}},{"local_stop_id":77,"id":77,"geometry":"POINT(3884466.803234 3786091.814615)","attributes":{"address":"Deganya, Israel","placename":"Deganya, Kfar Saba, Israel","title":"Tier 1"}},{"local_stop_id":76,"id":76,"geometry":"POINT(-731030.910427 6891258.802611)","attributes":{"address":"Enniscorthy, Ireland","placename":"Enniscorthy, Co. Wexford, Ireland","title":"Tier 1"}},{"local_stop_id":75,"id":75,"geometry":"POINT(-765785.957515 7118400.134052)","attributes":{"address":"Kells, Ireland","placename":"Kells, Co. Meath, Ireland","title":"Tier 1"}},{"local_stop_id":74,"id":74,"geometry":"POINT(2267923.975041 6090765.630113)","attributes":{"address":"Eger, Hungary","placename":"Eger, Hungary","title":"Tier 1"}},{"local_stop_id":73,"id":73,"geometry":"POINT(981749.910739 6103915.945858)","attributes":{"address":"Tuttlingen, Germany","placename":"Tuttlingen, Germany","title":"Tier 1"}},{"local_stop_id":72,"id":72,"geometry":"POINT(872979.057424 6106689.75311)","attributes":{"address":"Freiburg, Germany","placename":"Freiburg im Breisgau, Germany","title":"Tier 1"}},{"local_stop_id":71,"id":71,"geometry":"POINT(0 -0)","attributes":{"address":"Binzon, Germany","title":"Tier 1"}},{"local_stop_id":70,"id":70,"geometry":"POINT(1012167.850279 6334814.757528)","attributes":{"address":"Obrigheim, Germany","placename":"Obrigheim, Germany","title":"Tier 1"}},{"local_stop_id":69,"id":69,"geometry":"POINT(971695.58999 6110226.638216)","attributes":{"address":"Seitingen-Oberflacht, Germany","placename":"Seitingen-Oberflacht, Germany","title":"Tier 1"}},{"local_stop_id":68,"id":68,"geometry":"POINT(1024055.079839 6263573.448057)","attributes":{"address":"Geisingen, Germany","placename":"Freiberg am Neckar, Germany","title":"Tier 1"}},{"local_stop_id":67,"id":67,"geometry":"POINT(977005.117819 6107417.264698)","attributes":{"address":"Wurmlingen, Germany","placename":"Wurmlingen, Germany","title":"Tier 1"}},{"local_stop_id":66,"id":66,"geometry":"POINT(981749.910739 6103915.945858)","attributes":{"address":"Tuttlingen, Germany","placename":"Tuttlingen, Germany","title":"Tier 1"}},{"local_stop_id":65,"id":65,"geometry":"POINT(981749.910739 6103915.945858)","attributes":{"address":"Tuttlingen, Germany","placename":"Tuttlingen, Germany","title":"Tier 1"}},{"local_stop_id":64,"id":64,"geometry":"POINT(977005.117819 6107417.264698)","attributes":{"address":"Wurmlingen, Germany","placename":"Wurmlingen, Germany","title":"Tier 1"}},{"local_stop_id":63,"id":63,"geometry":"POINT(985615.201758 6095543.656003)","attributes":{"address":"Emmingen-Liptingen, Germany","placename":"Emmingen-Liptingen, Germany","title":"Tier 1"}},{"local_stop_id":62,"id":62,"geometry":"POINT(981749.910739 6103915.945858)","attributes":{"address":"Tuttlingen, Germany","placename":"Tuttlingen, Germany","title":"Tier 1"}},{"local_stop_id":61,"id":61,"geometry":"POINT(981749.910739 6103915.945858)","attributes":{"address":"Tuttlingen, Germany","placename":"Tuttlingen, Germany","title":"Tier 1"}},{"local_stop_id":60,"id":60,"geometry":"POINT(983871.114768 6467121.361485)","attributes":{"address":"Muhlheim, Germany","placename":"M\u00fchlheim am Main, Germany","title":"Tier 1"}},{"local_stop_id":59,"id":59,"geometry":"POINT(981749.910739 6103915.945858)","attributes":{"address":"Tuttlingen, Germany","placename":"Tuttlingen, Germany","title":"Tier 1"}},{"local_stop_id":58,"id":58,"geometry":"POINT(981749.910739 6103915.945858)","attributes":{"address":"Tuttlingen, Germany","placename":"Tuttlingen, Germany","title":"Tier 1"}},{"local_stop_id":57,"id":57,"geometry":"POINT(981749.910739 6103915.945858)","attributes":{"address":"Tuttlingen, Germany","placename":"Tuttlingen, Germany","title":"Tier 1"}},{"local_stop_id":56,"id":56,"geometry":"POINT(981749.910739 6103915.945858)","attributes":{"address":"Tuttlingen, Germany","placename":"Tuttlingen, Germany","title":"Tier 1"}},{"local_stop_id":55,"id":55,"geometry":"POINT(1022108.714203 6236840.103618)","attributes":{"address":"Stuttgart, Germany","placename":"Stuttgart, Germany","title":"Tier 1"}},{"local_stop_id":54,"id":54,"geometry":"POINT(1113292.846821 7113412.996683)","attributes":{"address":"Norderstedt, Germany","placename":"Norderstedt, Germany","title":"Tier 1"}},{"local_stop_id":53,"id":53,"geometry":"POINT(981749.910739 6103915.945858)","attributes":{"address":"Tuttlingen, Germany","placename":"Tuttlingen, Germany","title":"Tier 1"}},{"local_stop_id":52,"id":52,"geometry":"POINT(981749.910739 6103915.945858)","attributes":{"address":"Tuttlingen, Germany","placename":"Tuttlingen, Germany","title":"Tier 1"}},{"local_stop_id":51,"id":51,"geometry":"POINT(972348.835026 6119311.072167)","attributes":{"address":"Spaichingen, Germany","placename":"Spaichingen, Germany","title":"Tier 1"}},{"local_stop_id":50,"id":50,"geometry":"POINT(983871.114768 6467121.361485)","attributes":{"address":"Muhlheim, Germany","placename":"M\u00fchlheim am Main, Germany","title":"Tier 1"}},{"local_stop_id":49,"id":49,"geometry":"POINT(985615.201758 6095543.656003)","attributes":{"address":"Liptingen, Germany","placename":"Emmingen-Liptingen, Germany","title":"Tier 1"}},{"local_stop_id":48,"id":48,"geometry":"POINT(965651.943516 6113470.484597)","attributes":{"address":"Durchhausen, Germany","placename":"Durchhausen, Germany","title":"Tier 1"}},{"local_stop_id":47,"id":47,"geometry":"POINT(969022.397134 6128139.978946)","attributes":{"address":"Frittlingen, Germany","placename":"Frittlingen, Germany","title":"Tier 1"}},{"local_stop_id":46,"id":46,"geometry":"POINT(981749.910739 6103915.945858)","attributes":{"address":"Tuttlingen, Germany","placename":"Tuttlingen, Germany","title":"Tier 1"}},{"local_stop_id":45,"id":45,"geometry":"POINT(993243.982122 6110165.924858)","attributes":{"address":"Fridingen, Germany","placename":"Fridingen, Germany","title":"Tier 1"}},{"local_stop_id":44,"id":44,"geometry":"POINT(981749.910739 6103915.945858)","attributes":{"address":"Tuttlingen, Germany","placename":"Tuttlingen, Germany","title":"Tier 1"}},{"local_stop_id":43,"id":43,"geometry":"POINT(981749.910739 6103915.945858)","attributes":{"address":"Tuttlingen, Germany","placename":"Tuttlingen, Germany","title":"Tier 1"}},{"local_stop_id":42,"id":42,"geometry":"POINT(981749.910739 6103915.945858)","attributes":{"address":"Tuttlingen, Germany","placename":"Tuttlingen, Germany","title":"Tier 1"}},{"local_stop_id":41,"id":41,"geometry":"POINT(975805.973132 6117971.730106)","attributes":{"address":"Balgheim, Germany","placename":"Balgheim, Germany","title":"Tier 1"}},{"local_stop_id":40,"id":40,"geometry":"POINT(981749.910739 6103915.945858)","attributes":{"address":"Tuttlingen, Germany","placename":"Tuttlingen, Germany","title":"Tier 1"}},{"local_stop_id":39,"id":39,"geometry":"POINT(981749.910739 6103915.945858)","attributes":{"address":"Tuttlingen, Germany","placename":"Tuttlingen, Germany","title":"Tier 1"}},{"local_stop_id":38,"id":38,"geometry":"POINT(969022.397134 6128139.978946)","attributes":{"address":"Frittlingen, Germany","placename":"Frittlingen, Germany","title":"Tier 1"}},{"local_stop_id":37,"id":37,"geometry":"POINT(981749.910739 6103915.945858)","attributes":{"address":"Tuttlingen, Germany","placename":"Tuttlingen, Germany","title":"Tier 1"}},{"local_stop_id":36,"id":36,"geometry":"POINT(981749.910739 6103915.945858)","attributes":{"address":"Tuttlingen, Germany","placename":"Tuttlingen, Germany","title":"Tier 1"}},{"local_stop_id":35,"id":35,"geometry":"POINT(981749.910739 6103915.945858)","attributes":{"address":"Tuttlingen, Germany","placename":"Tuttlingen, Germany","title":"Tier 1"}},{"local_stop_id":34,"id":34,"geometry":"POINT(1240337.117376 6080391.451218)","attributes":{"address":"Weilheim, Germany","placename":"Weilheim in Oberbayern, Germany","title":"Tier 1"}},{"local_stop_id":33,"id":33,"geometry":"POINT(983871.114768 6467121.361485)","attributes":{"address":"Muhlheim, Germany","placename":"M\u00fchlheim am Main, Germany","title":"Tier 1"}},{"local_stop_id":32,"id":32,"geometry":"POINT(998884.908075 6117756.76117)","attributes":{"address":"Irndorf, Germany","placename":"Irndorf, Germany","title":"Tier 1"}},{"local_stop_id":31,"id":31,"geometry":"POINT(981749.910739 6103915.945858)","attributes":{"address":"Tuttlingen, Germany","placename":"Tuttlingen, Germany","title":"Tier 1"}},{"local_stop_id":30,"id":30,"geometry":"POINT(1240337.117376 6080391.451218)","attributes":{"address":"Weilheim, Germany","placename":"Weilheim in Oberbayern, Germany","title":"Tier 1"}},{"local_stop_id":29,"id":29,"geometry":"POINT(795157.861196 6589118.393355)","attributes":{"address":"Troisdorf, Germany","placename":"Troisdorf, Germany","title":"Tier 1"}},{"local_stop_id":28,"id":28,"geometry":"POINT(981749.910739 6103915.945858)","attributes":{"address":"Tuttlingen, Germany","placename":"Tuttlingen, Germany","title":"Tier 1"}},{"local_stop_id":27,"id":27,"geometry":"POINT(1048599.14626 6226335.053263)","attributes":{"address":"Plochingen, Germany","placename":"Plochingen, Germany","title":"Tier 1"}},{"local_stop_id":26,"id":26,"geometry":"POINT(990950.800612 6804949.748663)","attributes":{"address":"Lemgo, Germany","placename":"Lemgo, Germany","title":"Tier 1"}},{"local_stop_id":25,"id":25,"geometry":"POINT(950479.419747 6117280.00079)","attributes":{"address":"Villingen-Schwenningen, Germany","placename":"Villingen-Schwenningen, Germany","title":"Tier 1"}},{"local_stop_id":24,"id":24,"geometry":"POINT(1034368.073689 6490558.893179)","attributes":{"address":"Wachtersbach, Germany","placename":"W\u00e4chtersbach, Germany","title":"Tier 1"}},{"local_stop_id":23,"id":23,"geometry":"POINT(181815.563964 6519108.173787)","attributes":{"address":"Rang Du Fliers, France","placename":"Rang-du-Fliers, France","title":"Tier 1"}},{"local_stop_id":22,"id":22,"geometry":"POINT(579273.34556 5809104.436934)","attributes":{"address":"Peronnas, France","placename":"P\u00e9ronnas, France","title":"Tier 1"}},{"local_stop_id":21,"id":21,"geometry":"POINT(162162.775782 5415172.002281)","attributes":{"address":"Launaguet, France","placename":"Launaguet, France","title":"Tier 1"}},{"local_stop_id":20,"id":20,"geometry":"POINT(170291.436319 5393083.72501)","attributes":{"address":"Labege, France","placename":"Lab\u00e8ge, France","title":"Tier 1"}},{"local_stop_id":19,"id":19,"geometry":"POINT(572099.349844 6125799.354347)","attributes":{"address":"Chaumont, France","placename":"Chaumont, France","title":"Tier 1"}},{"local_stop_id":18,"id":18,"geometry":"POINT(165218.829763 5412544.211926)","attributes":{"address":"L'Union, France","placename":"L'Union, France","title":"Tier 1"}},{"local_stop_id":17,"id":17,"geometry":"POINT(2776703.87457 8436920.09195)","attributes":{"address":"Helsinki, Finland","placename":"Helsinki, Finland","title":"Tier 1"}},{"local_stop_id":16,"id":16,"geometry":"POINT(2763163.494911 8463575.000357)","attributes":{"address":"Vantaa, Finland","placename":"Vantaa, Finland","title":"Tier 1"}},{"local_stop_id":15,"id":15,"geometry":"POINT(2755513.307809 8276690.570548)","attributes":{"address":"Tallinn, Estonia","placename":"Tallinn, Estonia","title":"Tier 1"}},{"local_stop_id":14,"id":14,"geometry":"POINT(-7715309.894558 2090963.954719)","attributes":{"address":"San Pedro de Macoris, Dominican Republic","placename":"San Pedro de Macor\u00eds, Dominican Republic","title":"Tier 1"}},{"local_stop_id":13,"id":13,"geometry":"POINT(1393141.942616 7505881.449261)","attributes":{"address":"Soeborg, Denmark","placename":"2860 S\u00f8borg, Denmark","title":"Tier 1"}},{"local_stop_id":12,"id":12,"geometry":"POINT(1393141.942616 7505881.449261)","attributes":{"address":"Soeborg, Denmark","placename":"2860 S\u00f8borg, Denmark","title":"Tier 1"}},{"local_stop_id":11,"id":11,"geometry":"POINT(1331884.941903 7479450.173321)","attributes":{"address":"Lejre, Denmark","placename":"4320 Lejre, Denmark","title":"Tier 1"}},{"local_stop_id":10,"id":10,"geometry":"POINT(1377110.15483 7521286.680803)","attributes":{"address":"Farum, Denmark","placename":"3520 Farum Municipality, Denmark","title":"Tier 1"}},{"local_stop_id":9,"id":9,"geometry":"POINT(-9314554.820473 1108411.577125)","attributes":{"address":"Coyol, Costa Rica","placename":"Coyol, Turrialba, Costa Rica","title":"Tier 1"}},{"local_stop_id":8,"id":8,"geometry":"POINT(13522390.874053 3662706.345758)","attributes":{"address":"Shanghai, China","placename":"Shanghai, China","title":"Tier 1"}},{"local_stop_id":7,"id":7,"geometry":"POINT(12674944.088433 2584646.016438)","attributes":{"address":"Baoan District, 518126 Shenzhen, China","placename":"Bao'an District, Shenzhen, Guangdong, China, 518126","title":"Tier 1"}},{"local_stop_id":6,"id":6,"geometry":"POINT(12696863.786726 2576856.913489)","attributes":{"address":"Shenzhen, China","placename":"Shenzhen, Guangdong, China","title":"Tier 1"}},{"local_stop_id":5,"id":5,"geometry":"POINT(358990.797219 6658673.336952)","attributes":{"address":"Brugge, Belgium","placename":"Brugge, Belgium","title":"Tier 1"}},{"local_stop_id":4,"id":4,"geometry":"POINT(16158963.925709 -4568347.459755)","attributes":{"address":"Mulgrave, Australia","placename":"Mulgrave VIC 3170, Australia","title":"Tier 1"}},{"local_stop_id":3,"id":3,"geometry":"POINT(-8256830.091976 4973428.973147)","attributes":{"address":"Newark, NJ","placename":"Newark, NJ, USA","title":"Tier 0"}},{"local_stop_id":2,"id":2,"geometry":"POINT(-13324741.570808 4085450.229371)","attributes":{"address":"Santa Barbara, CA","placename":"Santa Barbara, CA, USA","title":"Tier 0"}},{"local_stop_id":1,"id":1,"geometry":"POINT(-9406910.679787 4585160.515981)","attributes":{"address":"Lexington, KY","placename":"Lexington, KY, USA","title":"Tier 0"}}],"hops":[{"from_stop_id":4,"to_stop_id":3,"geometry":"MULTILINESTRING((16158963.925709 -4568347.459755,-8256830.091976 4973428.973147))","attributes":{}},{"from_stop_id":5,"to_stop_id":3,"geometry":"MULTILINESTRING((358990.797219 6658673.336952,-8256830.091976 4973428.973147))","attributes":{}},{"from_stop_id":6,"to_stop_id":3,"geometry":"MULTILINESTRING((12696863.786726 2576856.913489,-8256830.091976 4973428.973147))","attributes":{}},{"from_stop_id":7,"to_stop_id":3,"geometry":"MULTILINESTRING((12674944.088433 2584646.016438,-8256830.091976 4973428.973147))","attributes":{}},{"from_stop_id":8,"to_stop_id":3,"geometry":"MULTILINESTRING((13522390.874053 3662706.345758,-8256830.091976 4973428.973147))","attributes":{}},{"from_stop_id":9,"to_stop_id":3,"geometry":"MULTILINESTRING((-9314554.820473 1108411.577125,-8256830.091976 4973428.973147))","attributes":{}},{"from_stop_id":10,"to_stop_id":3,"geometry":"MULTILINESTRING((1377110.15483 7521286.680803,-8256830.091976 4973428.973147))","attributes":{}},{"from_stop_id":11,"to_stop_id":3,"geometry":"MULTILINESTRING((1331884.941903 7479450.173321,-8256830.091976 4973428.973147))","attributes":{}},{"from_stop_id":12,"to_stop_id":3,"geometry":"MULTILINESTRING((1393141.942616 7505881.449261,-8256830.091976 4973428.973147))","attributes":{}},{"from_stop_id":13,"to_stop_id":3,"geometry":"MULTILINESTRING((1393141.942616 7505881.449261,-8256830.091976 4973428.973147))","attributes":{}},{"from_stop_id":14,"to_stop_id":3,"geometry":"MULTILINESTRING((-7715309.894558 2090963.954719,-8256830.091976 4973428.973147))","attributes":{}},{"from_stop_id":15,"to_stop_id":3,"geometry":"MULTILINESTRING((2755513.307809 8276690.570548,-8256830.091976 4973428.973147))","attributes":{}},{"from_stop_id":16,"to_stop_id":3,"geometry":"MULTILINESTRING((2763163.494911 8463575.000357,-8256830.091976 4973428.973147))","attributes":{}},{"from_stop_id":17,"to_stop_id":3,"geometry":"MULTILINESTRING((2776703.87457 8436920.09195,-8256830.091976 4973428.973147))","attributes":{}},{"from_stop_id":18,"to_stop_id":3,"geometry":"MULTILINESTRING((165218.829763 5412544.211926,-8256830.091976 4973428.973147))","attributes":{}},{"from_stop_id":19,"to_stop_id":3,"geometry":"MULTILINESTRING((572099.349844 6125799.354347,-8256830.091976 4973428.973147))","attributes":{}},{"from_stop_id":20,"to_stop_id":3,"geometry":"MULTILINESTRING((170291.436319 5393083.72501,-8256830.091976 4973428.973147))","attributes":{}},{"from_stop_id":21,"to_stop_id":3,"geometry":"MULTILINESTRING((162162.775782 5415172.002281,-8256830.091976 4973428.973147))","attributes":{}},{"from_stop_id":22,"to_stop_id":3,"geometry":"MULTILINESTRING((579273.34556 5809104.436934,-8256830.091976 4973428.973147))","attributes":{}},{"from_stop_id":23,"to_stop_id":3,"geometry":"MULTILINESTRING((181815.563964 6519108.173787,-8256830.091976 4973428.973147))","attributes":{}},{"from_stop_id":24,"to_stop_id":3,"geometry":"MULTILINESTRING((1034368.073689 6490558.893179,-8256830.091976 4973428.973147))","attributes":{}},{"from_stop_id":25,"to_stop_id":3,"geometry":"MULTILINESTRING((950479.419747 6117280.00079,-8256830.091976 4973428.973147))","attributes":{}},{"from_stop_id":26,"to_stop_id":3,"geometry":"MULTILINESTRING((990950.800612 6804949.748663,-8256830.091976 4973428.973147))","attributes":{}},{"from_stop_id":27,"to_stop_id":3,"geometry":"MULTILINESTRING((1048599.14626 6226335.053263,-8256830.091976 4973428.973147))","attributes":{}},{"from_stop_id":28,"to_stop_id":3,"geometry":"MULTILINESTRING((981749.910739 6103915.945858,-8256830.091976 4973428.973147))","attributes":{}},{"from_stop_id":29,"to_stop_id":3,"geometry":"MULTILINESTRING((795157.861196 6589118.393355,-8256830.091976 4973428.973147))","attributes":{}},{"from_stop_id":30,"to_stop_id":3,"geometry":"MULTILINESTRING((1240337.117376 6080391.451218,-8256830.091976 4973428.973147))","attributes":{}},{"from_stop_id":31,"to_stop_id":3,"geometry":"MULTILINESTRING((981749.910739 6103915.945858,-8256830.091976 4973428.973147))","attributes":{}},{"from_stop_id":32,"to_stop_id":3,"geometry":"MULTILINESTRING((998884.908075 6117756.76117,-8256830.091976 4973428.973147))","attributes":{}},{"from_stop_id":33,"to_stop_id":3,"geometry":"MULTILINESTRING((983871.114768 6467121.361485,-8256830.091976 4973428.973147))","attributes":{}},{"from_stop_id":34,"to_stop_id":3,"geometry":"MULTILINESTRING((1240337.117376 6080391.451218,-8256830.091976 4973428.973147))","attributes":{}},{"from_stop_id":35,"to_stop_id":3,"geometry":"MULTILINESTRING((981749.910739 6103915.945858,-8256830.091976 4973428.973147))","attributes":{}},{"from_stop_id":36,"to_stop_id":3,"geometry":"MULTILINESTRING((981749.910739 6103915.945858,-8256830.091976 4973428.973147))","attributes":{}},{"from_stop_id":37,"to_stop_id":3,"geometry":"MULTILINESTRING((981749.910739 6103915.945858,-8256830.091976 4973428.973147))","attributes":{}},{"from_stop_id":38,"to_stop_id":3,"geometry":"MULTILINESTRING((969022.397134 6128139.978946,-8256830.091976 4973428.973147))","attributes":{}},{"from_stop_id":39,"to_stop_id":3,"geometry":"MULTILINESTRING((981749.910739 6103915.945858,-8256830.091976 4973428.973147))","attributes":{}},{"from_stop_id":40,"to_stop_id":3,"geometry":"MULTILINESTRING((981749.910739 6103915.945858,-8256830.091976 4973428.973147))","attributes":{}},{"from_stop_id":41,"to_stop_id":3,"geometry":"MULTILINESTRING((975805.973132 6117971.730106,-8256830.091976 4973428.973147))","attributes":{}},{"from_stop_id":42,"to_stop_id":3,"geometry":"MULTILINESTRING((981749.910739 6103915.945858,-8256830.091976 4973428.973147))","attributes":{}},{"from_stop_id":43,"to_stop_id":3,"geometry":"MULTILINESTRING((981749.910739 6103915.945858,-8256830.091976 4973428.973147))","attributes":{}},{"from_stop_id":44,"to_stop_id":3,"geometry":"MULTILINESTRING((981749.910739 6103915.945858,-8256830.091976 4973428.973147))","attributes":{}},{"from_stop_id":45,"to_stop_id":3,"geometry":"MULTILINESTRING((993243.982122 6110165.924858,-8256830.091976 4973428.973147))","attributes":{}},{"from_stop_id":46,"to_stop_id":3,"geometry":"MULTILINESTRING((981749.910739 6103915.945858,-8256830.091976 4973428.973147))","attributes":{}},{"from_stop_id":47,"to_stop_id":3,"geometry":"MULTILINESTRING((969022.397134 6128139.978946,-8256830.091976 4973428.973147))","attributes":{}},{"from_stop_id":48,"to_stop_id":3,"geometry":"MULTILINESTRING((965651.943516 6113470.484597,-8256830.091976 4973428.973147))","attributes":{}},{"from_stop_id":49,"to_stop_id":3,"geometry":"MULTILINESTRING((985615.201758 6095543.656003,-8256830.091976 4973428.973147))","attributes":{}},{"from_stop_id":50,"to_stop_id":3,"geometry":"MULTILINESTRING((983871.114768 6467121.361485,-8256830.091976 4973428.973147))","attributes":{}},{"from_stop_id":51,"to_stop_id":3,"geometry":"MULTILINESTRING((972348.835026 6119311.072167,-8256830.091976 4973428.973147))","attributes":{}},{"from_stop_id":52,"to_stop_id":3,"geometry":"MULTILINESTRING((981749.910739 6103915.945858,-8256830.091976 4973428.973147))","attributes":{}},{"from_stop_id":53,"to_stop_id":3,"geometry":"MULTILINESTRING((981749.910739 6103915.945858,-8256830.091976 4973428.973147))","attributes":{}},{"from_stop_id":54,"to_stop_id":3,"geometry":"MULTILINESTRING((1113292.846821 7113412.996683,-8256830.091976 4973428.973147))","attributes":{}},{"from_stop_id":55,"to_stop_id":3,"geometry":"MULTILINESTRING((1022108.714203 6236840.103618,-8256830.091976 4973428.973147))","attributes":{}},{"from_stop_id":56,"to_stop_id":3,"geometry":"MULTILINESTRING((981749.910739 6103915.945858,-8256830.091976 4973428.973147))","attributes":{}},{"from_stop_id":57,"to_stop_id":3,"geometry":"MULTILINESTRING((981749.910739 6103915.945858,-8256830.091976 4973428.973147))","attributes":{}},{"from_stop_id":58,"to_stop_id":3,"geometry":"MULTILINESTRING((981749.910739 6103915.945858,-8256830.091976 4973428.973147))","attributes":{}},{"from_stop_id":59,"to_stop_id":3,"geometry":"MULTILINESTRING((981749.910739 6103915.945858,-8256830.091976 4973428.973147))","attributes":{}},{"from_stop_id":60,"to_stop_id":3,"geometry":"MULTILINESTRING((983871.114768 6467121.361485,-8256830.091976 4973428.973147))","attributes":{}},{"from_stop_id":61,"to_stop_id":3,"geometry":"MULTILINESTRING((981749.910739 6103915.945858,-8256830.091976 4973428.973147))","attributes":{}},{"from_stop_id":62,"to_stop_id":3,"geometry":"MULTILINESTRING((981749.910739 6103915.945858,-8256830.091976 4973428.973147))","attributes":{}},{"from_stop_id":63,"to_stop_id":3,"geometry":"MULTILINESTRING((985615.201758 6095543.656003,-8256830.091976 4973428.973147))","attributes":{}},{"from_stop_id":64,"to_stop_id":3,"geometry":"MULTILINESTRING((977005.117819 6107417.264698,-8256830.091976 4973428.973147))","attributes":{}},{"from_stop_id":65,"to_stop_id":3,"geometry":"MULTILINESTRING((981749.910739 6103915.945858,-8256830.091976 4973428.973147))","attributes":{}},{"from_stop_id":66,"to_stop_id":3,"geometry":"MULTILINESTRING((981749.910739 6103915.945858,-8256830.091976 4973428.973147))","attributes":{}},{"from_stop_id":67,"to_stop_id":3,"geometry":"MULTILINESTRING((977005.117819 6107417.264698,-8256830.091976 4973428.973147))","attributes":{}},{"from_stop_id":68,"to_stop_id":3,"geometry":"MULTILINESTRING((1024055.079839 6263573.448057,-8256830.091976 4973428.973147))","attributes":{}},{"from_stop_id":69,"to_stop_id":3,"geometry":"MULTILINESTRING((971695.58999 6110226.638216,-8256830.091976 4973428.973147))","attributes":{}},{"from_stop_id":70,"to_stop_id":3,"geometry":"MULTILINESTRING((1012167.850279 6334814.757528,-8256830.091976 4973428.973147))","attributes":{}},{"from_stop_id":71,"to_stop_id":3,"geometry":"MULTILINESTRING((0 0,-8256830.091976 4973428.973147))","attributes":{}},{"from_stop_id":72,"to_stop_id":3,"geometry":"MULTILINESTRING((872979.057424 6106689.75311,-8256830.091976 4973428.973147))","attributes":{}},{"from_stop_id":73,"to_stop_id":3,"geometry":"MULTILINESTRING((981749.910739 6103915.945858,-8256830.091976 4973428.973147))","attributes":{}},{"from_stop_id":74,"to_stop_id":3,"geometry":"MULTILINESTRING((2267923.975041 6090765.630113,-8256830.091976 4973428.973147))","attributes":{}},{"from_stop_id":75,"to_stop_id":3,"geometry":"MULTILINESTRING((-765785.957515 7118400.134052,-8256830.091976 4973428.973147))","attributes":{}},{"from_stop_id":76,"to_stop_id":3,"geometry":"MULTILINESTRING((-731030.910427 6891258.802611,-8256830.091976 4973428.973147))","attributes":{}},{"from_stop_id":77,"to_stop_id":3,"geometry":"MULTILINESTRING((3884466.803234 3786091.814615,-8256830.091976 4973428.973147))","attributes":{}},{"from_stop_id":78,"to_stop_id":3,"geometry":"MULTILINESTRING((3919972.377461 3732937.038515,-8256830.091976 4973428.973147))","attributes":{}},{"from_stop_id":79,"to_stop_id":3,"geometry":"MULTILINESTRING((3919985.958439 3896110.213059,-8256830.091976 4973428.973147))","attributes":{}},{"from_stop_id":80,"to_stop_id":3,"geometry":"MULTILINESTRING((15508564.538847 4254806.781996,-8256830.091976 4973428.973147))","attributes":{}},{"from_stop_id":81,"to_stop_id":3,"geometry":"MULTILINESTRING((15595835.323822 4262500.342495,-8256830.091976 4973428.973147))","attributes":{}},{"from_stop_id":82,"to_stop_id":3,"geometry":"MULTILINESTRING((15560339.490049 4264864.723758,-8256830.091976 4973428.973147))","attributes":{}},{"from_stop_id":83,"to_stop_id":3,"geometry":"MULTILINESTRING((15413849.507828 4246860.815931,-8256830.091976 4973428.973147))","attributes":{}},{"from_stop_id":84,"to_stop_id":3,"geometry":"MULTILINESTRING((15557299.043061 4258597.893365,-8256830.091976 4973428.973147))","attributes":{}},{"from_stop_id":85,"to_stop_id":3,"geometry":"MULTILINESTRING((-11242759.327978 2928249.814379,-8256830.091976 4973428.973147))","attributes":{}},{"from_stop_id":86,"to_stop_id":3,"geometry":"MULTILINESTRING((-11851358.234915 3728068.672293,-8256830.091976 4973428.973147))","attributes":{}},{"from_stop_id":87,"to_stop_id":3,"geometry":"MULTILINESTRING((-13026406.882823 3833544.883639,-8256830.091976 4973428.973147))","attributes":{}},{"from_stop_id":88,"to_stop_id":3,"geometry":"MULTILINESTRING((500261.576247 6829165.728105,-8256830.091976 4973428.973147))","attributes":{}},{"from_stop_id":89,"to_stop_id":3,"geometry":"MULTILINESTRING((651733.539827 6771763.506531,-8256830.091976 4973428.973147))","attributes":{}},{"from_stop_id":90,"to_stop_id":3,"geometry":"MULTILINESTRING((629714.344173 6783961.31014,-8256830.091976 4973428.973147))","attributes":{}},{"from_stop_id":91,"to_stop_id":3,"geometry":"MULTILINESTRING((642200.138636 6606329.800115,-8256830.091976 4973428.973147))","attributes":{}},{"from_stop_id":92,"to_stop_id":3,"geometry":"MULTILINESTRING((19442627.459154 -4423856.915987,-8256830.091976 4973428.973147))","attributes":{}},{"from_stop_id":93,"to_stop_id":3,"geometry":"MULTILINESTRING((19217776.704001 -5393309.804003,-8256830.091976 4973428.973147))","attributes":{}},{"from_stop_id":94,"to_stop_id":3,"geometry":"MULTILINESTRING((11553411.016682 159876.649187,-8256830.091976 4973428.973147))","attributes":{}},{"from_stop_id":95,"to_stop_id":3,"geometry":"MULTILINESTRING((-446810.387283 4907854.68602,-8256830.091976 4973428.973147))","attributes":{}},{"from_stop_id":96,"to_stop_id":3,"geometry":"MULTILINESTRING((241554.244747 5069728.812432,-8256830.091976 4973428.973147))","attributes":{}},{"from_stop_id":97,"to_stop_id":3,"geometry":"MULTILINESTRING((1684657.387838 8035412.493737,-8256830.091976 4973428.973147))","attributes":{}},{"from_stop_id":98,"to_stop_id":3,"geometry":"MULTILINESTRING((1738963.254456 8054114.931429,-8256830.091976 4973428.973147))","attributes":{}},{"from_stop_id":99,"to_stop_id":3,"geometry":"MULTILINESTRING((1533375.891906 8078758.685333,-8256830.091976 4973428.973147))","attributes":{}},{"from_stop_id":100,"to_stop_id":3,"geometry":"MULTILINESTRING((1043161.589885 6011574.823977,-8256830.091976 4973428.973147))","attributes":{}},{"from_stop_id":101,"to_stop_id":3,"geometry":"MULTILINESTRING((806373.088386 5964986.187876,-8256830.091976 4973428.973147))","attributes":{}},{"from_stop_id":102,"to_stop_id":3,"geometry":"MULTILINESTRING((834818.257306 5976828.720279,-8256830.091976 4973428.973147))","attributes":{}},{"from_stop_id":103,"to_stop_id":3,"geometry":"MULTILINESTRING((968142.839574 5983877.200664,-8256830.091976 4973428.973147))","attributes":{}},{"from_stop_id":104,"to_stop_id":3,"geometry":"MULTILINESTRING((1046264.342392 5911265.113775,-8256830.091976 4973428.973147))","attributes":{}},{"from_stop_id":105,"to_stop_id":3,"geometry":"MULTILINESTRING((812095.722845 5958820.759022,-8256830.091976 4973428.973147))","attributes":{}},{"from_stop_id":106,"to_stop_id":3,"geometry":"MULTILINESTRING((13529028.777365 2869604.499385,-8256830.091976 4973428.973147))","attributes":{}},{"from_stop_id":107,"to_stop_id":3,"geometry":"MULTILINESTRING((-163649.113623 7053809.999978,-8256830.091976 4973428.973147))","attributes":{}},{"from_stop_id":108,"to_stop_id":3,"geometry":"MULTILINESTRING((-138756.116258 6757062.995717,-8256830.091976 4973428.973147))","attributes":{}},{"from_stop_id":109,"to_stop_id":3,"geometry":"MULTILINESTRING((-18910.955096 6663716.424369,-8256830.091976 4973428.973147))","attributes":{}},{"from_stop_id":110,"to_stop_id":3,"geometry":"MULTILINESTRING((-231055.736966 6781631.175725,-8256830.091976 4973428.973147))","attributes":{}},{"from_stop_id":111,"to_stop_id":3,"geometry":"MULTILINESTRING((-120971.001965 6587222.359987,-8256830.091976 4973428.973147))","attributes":{}},{"from_stop_id":112,"to_stop_id":3,"geometry":"MULTILINESTRING((-172385.689899 7132610.386514,-8256830.091976 4973428.973147))","attributes":{}},{"from_stop_id":113,"to_stop_id":3,"geometry":"MULTILINESTRING((-196277.524291 6779684.167259,-8256830.091976 4973428.973147))","attributes":{}},{"from_stop_id":114,"to_stop_id":3,"geometry":"MULTILINESTRING((-163649.113623 7053809.999978,-8256830.091976 4973428.973147))","attributes":{}},{"from_stop_id":115,"to_stop_id":3,"geometry":"MULTILINESTRING((-163753.197347 7172244.005275,-8256830.091976 4973428.973147))","attributes":{}},{"from_stop_id":116,"to_stop_id":3,"geometry":"MULTILINESTRING((92402.847271 6739281.396895,-8256830.091976 4973428.973147))","attributes":{}},{"from_stop_id":117,"to_stop_id":3,"geometry":"MULTILINESTRING((-171644.624917 6578691.290313,-8256830.091976 4973428.973147))","attributes":{}},{"from_stop_id":118,"to_stop_id":3,"geometry":"MULTILINESTRING((-36624.446429 6704341.704723,-8256830.091976 4973428.973147))","attributes":{}},{"from_stop_id":119,"to_stop_id":3,"geometry":"MULTILINESTRING((-163649.113623 7053809.999978,-8256830.091976 4973428.973147))","attributes":{}},{"from_stop_id":120,"to_stop_id":3,"geometry":"MULTILINESTRING((-276910.461614 7122682.479534,-8256830.091976 4973428.973147))","attributes":{}},{"from_stop_id":121,"to_stop_id":3,"geometry":"MULTILINESTRING((-295488.482376 6813972.442788,-8256830.091976 4973428.973147))","attributes":{}},{"from_stop_id":122,"to_stop_id":3,"geometry":"MULTILINESTRING((-180090.445816 7357646.413223,-8256830.091976 4973428.973147))","attributes":{}},{"from_stop_id":123,"to_stop_id":3,"geometry":"MULTILINESTRING((-353894.679986 6706926.02086,-8256830.091976 4973428.973147))","attributes":{}},{"from_stop_id":124,"to_stop_id":3,"geometry":"MULTILINESTRING((-353894.679986 6706926.02086,-8256830.091976 4973428.973147))","attributes":{}},{"from_stop_id":125,"to_stop_id":3,"geometry":"MULTILINESTRING((88816.589688 6715857.869881,-8256830.091976 4973428.973147))","attributes":{}},{"from_stop_id":126,"to_stop_id":3,"geometry":"MULTILINESTRING((-7956043.069005 5392664.96219,-8256830.091976 4973428.973147))","attributes":{}},{"from_stop_id":127,"to_stop_id":3,"geometry":"MULTILINESTRING((-9094291.307764 5086298.649398,-8256830.091976 4973428.973147))","attributes":{}},{"from_stop_id":128,"to_stop_id":3,"geometry":"MULTILINESTRING((-13670446.486989 5698528.135315,-8256830.091976 4973428.973147))","attributes":{}},{"from_stop_id":129,"to_stop_id":3,"geometry":"MULTILINESTRING((-9353119.599023 5208747.806118,-8256830.091976 4973428.973147))","attributes":{}},{"from_stop_id":130,"to_stop_id":3,"geometry":"MULTILINESTRING((-9338047.919581 5367071.417587,-8256830.091976 4973428.973147))","attributes":{}},{"from_stop_id":131,"to_stop_id":3,"geometry":"MULTILINESTRING((-8026081.953027 5064942.916026,-8256830.091976 4973428.973147))","attributes":{}},{"from_stop_id":132,"to_stop_id":3,"geometry":"MULTILINESTRING((-12455654.420894 4977120.440969,-8256830.091976 4973428.973147))","attributes":{}},{"from_stop_id":133,"to_stop_id":3,"geometry":"MULTILINESTRING((-10397513.529067 5640339.634847,-8256830.091976 4973428.973147))","attributes":{}},{"from_stop_id":134,"to_stop_id":3,"geometry":"MULTILINESTRING((-8780699.860552 5294703.832597,-8256830.091976 4973428.973147))","attributes":{}},{"from_stop_id":135,"to_stop_id":3,"geometry":"MULTILINESTRING((-7947847.071307 5173485.252717,-8256830.091976 4973428.973147))","attributes":{}},{"from_stop_id":136,"to_stop_id":3,"geometry":"MULTILINESTRING((-13096558.600282 4041902.763857,-8256830.091976 4973428.973147))","attributes":{}},{"from_stop_id":137,"to_stop_id":3,"geometry":"MULTILINESTRING((-8765732.955015 5276658.659752,-8256830.091976 4973428.973147))","attributes":{}},{"from_stop_id":138,"to_stop_id":3,"geometry":"MULTILINESTRING((-7956043.069005 5392664.96219,-8256830.091976 4973428.973147))","attributes":{}},{"from_stop_id":139,"to_stop_id":3,"geometry":"MULTILINESTRING((-9536527.74415 5306396.511954,-8256830.091976 4973428.973147))","attributes":{}},{"from_stop_id":140,"to_stop_id":3,"geometry":"MULTILINESTRING((-8038132.287905 5179594.541702,-8256830.091976 4973428.973147))","attributes":{}},{"from_stop_id":141,"to_stop_id":3,"geometry":"MULTILINESTRING((-9591072.880881 4832360.382466,-8256830.091976 4973428.973147))","attributes":{}},{"from_stop_id":142,"to_stop_id":3,"geometry":"MULTILINESTRING((-9516515.43854 5035566.494647,-8256830.091976 4973428.973147))","attributes":{}},{"from_stop_id":143,"to_stop_id":3,"geometry":"MULTILINESTRING((-9372970.970045 4850059.051865,-8256830.091976 4973428.973147))","attributes":{}},{"from_stop_id":144,"to_stop_id":3,"geometry":"MULTILINESTRING((-8929097.458096 4901821.975332,-8256830.091976 4973428.973147))","attributes":{}},{"from_stop_id":145,"to_stop_id":3,"geometry":"MULTILINESTRING((-9557117.463959 5047525.047991,-8256830.091976 4973428.973147))","attributes":{}},{"from_stop_id":146,"to_stop_id":3,"geometry":"MULTILINESTRING((-9372166.809175 4830974.812874,-8256830.091976 4973428.973147))","attributes":{}},{"from_stop_id":147,"to_stop_id":3,"geometry":"MULTILINESTRING((-8271705.626475 4995208.523081,-8256830.091976 4973428.973147))","attributes":{}},{"from_stop_id":148,"to_stop_id":3,"geometry":"MULTILINESTRING((-9540697.260206 5041934.299202,-8256830.091976 4973428.973147))","attributes":{}},{"from_stop_id":149,"to_stop_id":3,"geometry":"MULTILINESTRING((-12449161.767253 5136782.611561,-8256830.091976 4973428.973147))","attributes":{}},{"from_stop_id":150,"to_stop_id":3,"geometry":"MULTILINESTRING((-9591072.880881 4832360.382466,-8256830.091976 4973428.973147))","attributes":{}},{"from_stop_id":151,"to_stop_id":3,"geometry":"MULTILINESTRING((-9557117.463959 5047525.047991,-8256830.091976 4973428.973147))","attributes":{}},{"from_stop_id":152,"to_stop_id":3,"geometry":"MULTILINESTRING((-7896359.580426 5106641.05625,-8256830.091976 4973428.973147))","attributes":{}},{"from_stop_id":153,"to_stop_id":3,"geometry":"MULTILINESTRING((-7954310.737353 5311308.188372,-8256830.091976 4973428.973147))","attributes":{}},{"from_stop_id":154,"to_stop_id":3,"geometry":"MULTILINESTRING((-9488746.869485 5066459.93619,-8256830.091976 4973428.973147))","attributes":{}},{"from_stop_id":155,"to_stop_id":3,"geometry":"MULTILINESTRING((-8100997.643753 5103316.204466,-8256830.091976 4973428.973147))","attributes":{}},{"from_stop_id":156,"to_stop_id":3,"geometry":"MULTILINESTRING((-8933983.660165 5165691.006911,-8256830.091976 4973428.973147))","attributes":{}},{"from_stop_id":157,"to_stop_id":3,"geometry":"MULTILINESTRING((-8932745.264225 4314370.61297,-8256830.091976 4973428.973147))","attributes":{}},{"from_stop_id":158,"to_stop_id":3,"geometry":"MULTILINESTRING((-10419709.043662 5588418.846167,-8256830.091976 4973428.973147))","attributes":{}},{"from_stop_id":159,"to_stop_id":3,"geometry":"MULTILINESTRING((-9544219.742853 4618711.72123,-8256830.091976 4973428.973147))","attributes":{}},{"from_stop_id":160,"to_stop_id":3,"geometry":"MULTILINESTRING((-9265577.940331 5264531.37059,-8256830.091976 4973428.973147))","attributes":{}},{"from_stop_id":161,"to_stop_id":3,"geometry":"MULTILINESTRING((-10092733.965766 5236258.080489,-8256830.091976 4973428.973147))","attributes":{}},{"from_stop_id":162,"to_stop_id":3,"geometry":"MULTILINESTRING((-8912026.580787 3095431.442755,-8256830.091976 4973428.973147))","attributes":{}},{"from_stop_id":163,"to_stop_id":3,"geometry":"MULTILINESTRING((-13138768.624613 4038019.822069,-8256830.091976 4973428.973147))","attributes":{}},{"from_stop_id":164,"to_stop_id":3,"geometry":"MULTILINESTRING((-10382398.212384 5618898.147063,-8256830.091976 4973428.973147))","attributes":{}},{"from_stop_id":165,"to_stop_id":3,"geometry":"MULTILINESTRING((-9105356.632128 3016683.347007,-8256830.091976 4973428.973147))","attributes":{}},{"from_stop_id":166,"to_stop_id":3,"geometry":"MULTILINESTRING((-8374861.847501 5327342.945367,-8256830.091976 4973428.973147))","attributes":{}},{"from_stop_id":167,"to_stop_id":3,"geometry":"MULTILINESTRING((-13431766.967904 4202372.764364,-8256830.091976 4973428.973147))","attributes":{}},{"from_stop_id":168,"to_stop_id":3,"geometry":"MULTILINESTRING((-9527526.70616 5204776.37574,-8256830.091976 4973428.973147))","attributes":{}},{"from_stop_id":169,"to_stop_id":3,"geometry":"MULTILINESTRING((-9389277.728105 5860079.722384,-8256830.091976 4973428.973147))","attributes":{}},{"from_stop_id":170,"to_stop_id":3,"geometry":"MULTILINESTRING((-9886723.344249 4247708.311414,-8256830.091976 4973428.973147))","attributes":{}},{"from_stop_id":171,"to_stop_id":3,"geometry":"MULTILINESTRING((-8289560.493562 4944686.022685,-8256830.091976 4973428.973147))","attributes":{}},{"from_stop_id":172,"to_stop_id":3,"geometry":"MULTILINESTRING((-7883275.276721 5178471.602131,-8256830.091976 4973428.973147))","attributes":{}},{"from_stop_id":173,"to_stop_id":3,"geometry":"MULTILINESTRING((-9721844.372892 5083819.641856,-8256830.091976 4973428.973147))","attributes":{}},{"from_stop_id":174,"to_stop_id":3,"geometry":"MULTILINESTRING((-8280362.553656 4974204.259222,-8256830.091976 4973428.973147))","attributes":{}},{"from_stop_id":175,"to_stop_id":3,"geometry":"MULTILINESTRING((-10375091.946849 5335376.482852,-8256830.091976 4973428.973147))","attributes":{}},{"from_stop_id":176,"to_stop_id":3,"geometry":"MULTILINESTRING((-9497714.478233 5046415.346313,-8256830.091976 4973428.973147))","attributes":{}},{"from_stop_id":177,"to_stop_id":3,"geometry":"MULTILINESTRING((-9480675.749993 4994746.552675,-8256830.091976 4973428.973147))","attributes":{}},{"from_stop_id":178,"to_stop_id":3,"geometry":"MULTILINESTRING((-13137036.704843 4017694.209379,-8256830.091976 4973428.973147))","attributes":{}},{"from_stop_id":179,"to_stop_id":3,"geometry":"MULTILINESTRING((-9109907.339516 5058841.099162,-8256830.091976 4973428.973147))","attributes":{}},{"from_stop_id":180,"to_stop_id":3,"geometry":"MULTILINESTRING((-9601306.815628 5113668.861323,-8256830.091976 4973428.973147))","attributes":{}},{"from_stop_id":181,"to_stop_id":3,"geometry":"MULTILINESTRING((-8011269.904033 5064737.029363,-8256830.091976 4973428.973147))","attributes":{}},{"from_stop_id":182,"to_stop_id":3,"geometry":"MULTILINESTRING((-8735983.84524 4583566.581258,-8256830.091976 4973428.973147))","attributes":{}},{"from_stop_id":183,"to_stop_id":3,"geometry":"MULTILINESTRING((-9556777.405179 5061434.188984,-8256830.091976 4973428.973147))","attributes":{}},{"from_stop_id":184,"to_stop_id":3,"geometry":"MULTILINESTRING((-10024206.611186 4184220.871795,-8256830.091976 4973428.973147))","attributes":{}},{"from_stop_id":185,"to_stop_id":3,"geometry":"MULTILINESTRING((-10301125.688928 5640909.508711,-8256830.091976 4973428.973147))","attributes":{}},{"from_stop_id":186,"to_stop_id":3,"geometry":"MULTILINESTRING((-13184950.43932 4059406.530816,-8256830.091976 4973428.973147))","attributes":{}},{"from_stop_id":187,"to_stop_id":3,"geometry":"MULTILINESTRING((-8873992.684888 4851432.203169,-8256830.091976 4973428.973147))","attributes":{}},{"from_stop_id":188,"to_stop_id":3,"geometry":"MULTILINESTRING((-9516515.43854 5035566.494647,-8256830.091976 4973428.973147))","attributes":{}},{"from_stop_id":189,"to_stop_id":3,"geometry":"MULTILINESTRING((-13478805.174586 4676755.502495,-8256830.091976 4973428.973147))","attributes":{}},{"from_stop_id":190,"to_stop_id":3,"geometry":"MULTILINESTRING((-13135613.80798 3983278.912076,-8256830.091976 4973428.973147))","attributes":{}},{"from_stop_id":191,"to_stop_id":3,"geometry":"MULTILINESTRING((-12974648.173134 6152993.5795,-8256830.091976 4973428.973147))","attributes":{}},{"from_stop_id":192,"to_stop_id":3,"geometry":"MULTILINESTRING((-10844396.363075 5165420.406867,-8256830.091976 4973428.973147))","attributes":{}},{"from_stop_id":193,"to_stop_id":3,"geometry":"MULTILINESTRING((-9109907.339516 5058841.099162,-8256830.091976 4973428.973147))","attributes":{}},{"from_stop_id":194,"to_stop_id":3,"geometry":"MULTILINESTRING((-13337611.50657 4797823.402283,-8256830.091976 4973428.973147))","attributes":{}},{"from_stop_id":195,"to_stop_id":3,"geometry":"MULTILINESTRING((-8062259.763395 5348364.206622,-8256830.091976 4973428.973147))","attributes":{}},{"from_stop_id":196,"to_stop_id":3,"geometry":"MULTILINESTRING((-8148877.692953 4986659.521888,-8256830.091976 4973428.973147))","attributes":{}},{"from_stop_id":197,"to_stop_id":3,"geometry":"MULTILINESTRING((-9536527.74415 5306396.511954,-8256830.091976 4973428.973147))","attributes":{}},{"from_stop_id":198,"to_stop_id":3,"geometry":"MULTILINESTRING((-9265577.940331 5264531.37059,-8256830.091976 4973428.973147))","attributes":{}},{"from_stop_id":199,"to_stop_id":3,"geometry":"MULTILINESTRING((-7956043.069005 5392664.96219,-8256830.091976 4973428.973147))","attributes":{}},{"from_stop_id":200,"to_stop_id":3,"geometry":"MULTILINESTRING((-11718663.531722 4868120.185076,-8256830.091976 4973428.973147))","attributes":{}},{"from_stop_id":201,"to_stop_id":3,"geometry":"MULTILINESTRING((-8283454.753075 4950480.772854,-8256830.091976 4973428.973147))","attributes":{}},{"from_stop_id":202,"to_stop_id":3,"geometry":"MULTILINESTRING((-13198509.609709 4081265.694955,-8256830.091976 4973428.973147))","attributes":{}},{"from_stop_id":203,"to_stop_id":3,"geometry":"MULTILINESTRING((-9317992.388613 5281246.337976,-8256830.091976 4973428.973147))","attributes":{}},{"from_stop_id":204,"to_stop_id":3,"geometry":"MULTILINESTRING((-9019420.52332 3402505.482715,-8256830.091976 4973428.973147))","attributes":{}},{"from_stop_id":205,"to_stop_id":3,"geometry":"MULTILINESTRING((-7888693.251998 5351898.156298,-8256830.091976 4973428.973147))","attributes":{}},{"from_stop_id":206,"to_stop_id":3,"geometry":"MULTILINESTRING((-8148049.798768 5039896.482929,-8256830.091976 4973428.973147))","attributes":{}},{"from_stop_id":207,"to_stop_id":3,"geometry":"MULTILINESTRING((-13670446.486989 5698528.135315,-8256830.091976 4973428.973147))","attributes":{}},{"from_stop_id":208,"to_stop_id":3,"geometry":"MULTILINESTRING((-7950994.62991 5190985.714725,-8256830.091976 4973428.973147))","attributes":{}},{"from_stop_id":209,"to_stop_id":3,"geometry":"MULTILINESTRING((-7956043.069005 5392664.96219,-8256830.091976 4973428.973147))","attributes":{}},{"from_stop_id":210,"to_stop_id":3,"geometry":"MULTILINESTRING((-13041885.98047 3857579.348242,-8256830.091976 4973428.973147))","attributes":{}},{"from_stop_id":211,"to_stop_id":3,"geometry":"MULTILINESTRING((-11668660.797945 4697904.39345,-8256830.091976 4973428.973147))","attributes":{}},{"from_stop_id":212,"to_stop_id":3,"geometry":"MULTILINESTRING((-8016858.665673 5155987.584423,-8256830.091976 4973428.973147))","attributes":{}},{"from_stop_id":213,"to_stop_id":3,"geometry":"MULTILINESTRING((-9785703.878584 5317895.079942,-8256830.091976 4973428.973147))","attributes":{}},{"from_stop_id":214,"to_stop_id":3,"geometry":"MULTILINESTRING((-9372166.809175 4830974.812874,-8256830.091976 4973428.973147))","attributes":{}},{"from_stop_id":215,"to_stop_id":3,"geometry":"MULTILINESTRING((-9792010.929238 5185920.482475,-8256830.091976 4973428.973147))","attributes":{}},{"from_stop_id":216,"to_stop_id":3,"geometry":"MULTILINESTRING((-8780699.860552 5294703.832597,-8256830.091976 4973428.973147))","attributes":{}},{"from_stop_id":217,"to_stop_id":3,"geometry":"MULTILINESTRING((-8143463.068393 5323361.944778,-8256830.091976 4973428.973147))","attributes":{}},{"from_stop_id":218,"to_stop_id":3,"geometry":"MULTILINESTRING((-13112845.376493 3986442.410633,-8256830.091976 4973428.973147))","attributes":{}},{"from_stop_id":219,"to_stop_id":3,"geometry":"MULTILINESTRING((-11718663.531722 4868120.185076,-8256830.091976 4973428.973147))","attributes":{}},{"from_stop_id":220,"to_stop_id":3,"geometry":"MULTILINESTRING((-8238307.241153 4970299.628631,-8256830.091976 4973428.973147))","attributes":{}},{"from_stop_id":221,"to_stop_id":3,"geometry":"MULTILINESTRING((-7905729.753848 5173485.582699,-8256830.091976 4973428.973147))","attributes":{}},{"from_stop_id":222,"to_stop_id":3,"geometry":"MULTILINESTRING((-8382284.375113 4906689.747291,-8256830.091976 4973428.973147))","attributes":{}},{"from_stop_id":223,"to_stop_id":3,"geometry":"MULTILINESTRING((-7905729.753848 5173485.582699,-8256830.091976 4973428.973147))","attributes":{}},{"from_stop_id":224,"to_stop_id":3,"geometry":"MULTILINESTRING((-8884814.275227 4260504.943811,-8256830.091976 4973428.973147))","attributes":{}},{"from_stop_id":225,"to_stop_id":3,"geometry":"MULTILINESTRING((-9628670.849654 4071602.179529,-8256830.091976 4973428.973147))","attributes":{}},{"from_stop_id":226,"to_stop_id":3,"geometry":"MULTILINESTRING((-13170093.450649 4013819.819125,-8256830.091976 4973428.973147))","attributes":{}},{"from_stop_id":227,"to_stop_id":3,"geometry":"MULTILINESTRING((-13162826.792588 4035817.961317,-8256830.091976 4973428.973147))","attributes":{}},{"from_stop_id":228,"to_stop_id":3,"geometry":"MULTILINESTRING((-11668660.797945 4697904.39345,-8256830.091976 4973428.973147))","attributes":{}},{"from_stop_id":229,"to_stop_id":3,"geometry":"MULTILINESTRING((-8836483.415486 4912725.757761,-8256830.091976 4973428.973147))","attributes":{}},{"from_stop_id":230,"to_stop_id":3,"geometry":"MULTILINESTRING((-9023100.333804 3412074.15093,-8256830.091976 4973428.973147))","attributes":{}},{"from_stop_id":231,"to_stop_id":3,"geometry":"MULTILINESTRING((-7949640.35038 5134650.220192,-8256830.091976 4973428.973147))","attributes":{}},{"from_stop_id":232,"to_stop_id":3,"geometry":"MULTILINESTRING((-11669835.897621 4826701.608898,-8256830.091976 4973428.973147))","attributes":{}},{"from_stop_id":233,"to_stop_id":3,"geometry":"MULTILINESTRING((-7905729.753848 5173485.582699,-8256830.091976 4973428.973147))","attributes":{}},{"from_stop_id":234,"to_stop_id":3,"geometry":"MULTILINESTRING((-8780699.860552 5294703.832597,-8256830.091976 4973428.973147))","attributes":{}},{"from_stop_id":235,"to_stop_id":3,"geometry":"MULTILINESTRING((-7929911.976264 5217543.002604,-8256830.091976 4973428.973147))","attributes":{}},{"from_stop_id":236,"to_stop_id":3,"geometry":"MULTILINESTRING((-9778837.714656 5215606.518435,-8256830.091976 4973428.973147))","attributes":{}},{"from_stop_id":237,"to_stop_id":3,"geometry":"MULTILINESTRING((-10362726.700263 5614235.897653,-8256830.091976 4973428.973147))","attributes":{}},{"from_stop_id":238,"to_stop_id":3,"geometry":"MULTILINESTRING((-7908322.162149 5180556.146188,-8256830.091976 4973428.973147))","attributes":{}},{"from_stop_id":239,"to_stop_id":3,"geometry":"MULTILINESTRING((-8212610.194238 5023383.691241,-8256830.091976 4973428.973147))","attributes":{}},{"from_stop_id":240,"to_stop_id":3,"geometry":"MULTILINESTRING((-10362726.700263 5614235.897653,-8256830.091976 4973428.973147))","attributes":{}},{"from_stop_id":241,"to_stop_id":3,"geometry":"MULTILINESTRING((-10040951.745401 4668382.843839,-8256830.091976 4973428.973147))","attributes":{}},{"from_stop_id":242,"to_stop_id":3,"geometry":"MULTILINESTRING((-8391658.678488 4880671.761603,-8256830.091976 4973428.973147))","attributes":{}},{"from_stop_id":243,"to_stop_id":3,"geometry":"MULTILINESTRING((-8369111.338642 4909487.037037,-8256830.091976 4973428.973147))","attributes":{}},{"from_stop_id":244,"to_stop_id":3,"geometry":"MULTILINESTRING((-8403528.764847 4954755.690598,-8256830.091976 4973428.973147))","attributes":{}},{"from_stop_id":245,"to_stop_id":3,"geometry":"MULTILINESTRING((-13579705.706507 4515806.554068,-8256830.091976 4973428.973147))","attributes":{}},{"from_stop_id":246,"to_stop_id":3,"geometry":"MULTILINESTRING((-8260540.86041 5014814.649809,-8256830.091976 4973428.973147))","attributes":{}},{"from_stop_id":247,"to_stop_id":3,"geometry":"MULTILINESTRING((-9367185.785164 3954831.992944,-8256830.091976 4973428.973147))","attributes":{}},{"from_stop_id":248,"to_stop_id":3,"geometry":"MULTILINESTRING((-9089865.489713 3546320.837278,-8256830.091976 4973428.973147))","attributes":{}},{"from_stop_id":249,"to_stop_id":3,"geometry":"MULTILINESTRING((-9054677.509993 5111101.86812,-8256830.091976 4973428.973147))","attributes":{}},{"from_stop_id":250,"to_stop_id":3,"geometry":"MULTILINESTRING((-9776209.63959 5248977.50546,-8256830.091976 4973428.973147))","attributes":{}},{"from_stop_id":251,"to_stop_id":3,"geometry":"MULTILINESTRING((-9790930.217358 5360764.796183,-8256830.091976 4973428.973147))","attributes":{}},{"from_stop_id":252,"to_stop_id":3,"geometry":"MULTILINESTRING((-8083598.50753 5191625.669123,-8256830.091976 4973428.973147))","attributes":{}},{"from_stop_id":253,"to_stop_id":3,"geometry":"MULTILINESTRING((-9516515.43854 5035566.494647,-8256830.091976 4973428.973147))","attributes":{}},{"from_stop_id":254,"to_stop_id":3,"geometry":"MULTILINESTRING((-9435651.902893 5055671.335784,-8256830.091976 4973428.973147))","attributes":{}},{"from_stop_id":255,"to_stop_id":3,"geometry":"MULTILINESTRING((-10435819.322821 5674669.632962,-8256830.091976 4973428.973147))","attributes":{}},{"from_stop_id":256,"to_stop_id":3,"geometry":"MULTILINESTRING((-7889341.977462 5295974.901968,-8256830.091976 4973428.973147))","attributes":{}},{"from_stop_id":257,"to_stop_id":3,"geometry":"MULTILINESTRING((-9776209.63959 5248977.50546,-8256830.091976 4973428.973147))","attributes":{}},{"from_stop_id":258,"to_stop_id":3,"geometry":"MULTILINESTRING((-10441115.65929 5669748.297157,-8256830.091976 4973428.973147))","attributes":{}},{"from_stop_id":259,"to_stop_id":3,"geometry":"MULTILINESTRING((-8386984.840611 4930348.038503,-8256830.091976 4973428.973147))","attributes":{}},{"from_stop_id":260,"to_stop_id":3,"geometry":"MULTILINESTRING((-10301125.688928 5640909.508711,-8256830.091976 4973428.973147))","attributes":{}},{"from_stop_id":261,"to_stop_id":3,"geometry":"MULTILINESTRING((-9406910.679787 4585160.515981,-8256830.091976 4973428.973147))","attributes":{}},{"from_stop_id":262,"to_stop_id":3,"geometry":"MULTILINESTRING((-8256830.091976 4973428.973147,-8256830.091976 4973428.973147))","attributes":{}},{"from_stop_id":263,"to_stop_id":3,"geometry":"MULTILINESTRING((-13324741.570808 4085450.229371,-8256830.091976 4973428.973147))","attributes":{}},{"from_stop_id":264,"to_stop_id":265,"geometry":"MULTILINESTRING((-7915899.323665 5217110.62274,-12082838.744794 5851508.367143))","attributes":{}},{"from_stop_id":265,"to_stop_id":266,"geometry":"MULTILINESTRING((-12082838.744794 5851508.367143,-12082838.744794 5851508.367143))","attributes":{}},{"from_stop_id":264,"to_stop_id":267,"geometry":"MULTILINESTRING((-7915899.323665 5217110.62274,-13028750.903945 3858759.621192))","attributes":{}},{"from_stop_id":267,"to_stop_id":268,"geometry":"MULTILINESTRING((-13028750.903945 3858759.621192,-7915222.233995 5215896.978609))","attributes":{}}]},"editable":false}