{"type":"FeatureCollection","features":[{"type":"Feature","geometry":{"type":"Point","coordinates":[-116.128998,33.616001]},"properties":{"url:moreinfo":"http:\/\/foodtree.com\/sources\/1160","urltitle:moreinfo":"Please visit Flying Disc Ranch on Foodtree","address":"59200 Filmore Street, Thermal, CA, USA","title":"Flying Disc Ranch"}},{"type":"Feature","geometry":{"type":"Point","coordinates":[-121.599998,36.900799]},"properties":{"url:moreinfo":"http:\/\/foodtree.com\/sources\/1583","urltitle:moreinfo":"Please visit Happy Boy Farms on Foodtree","address":"250 Old Chittenden Road, Watsonville, CA, USA","title":"Happy Boy Farms"}},{"type":"Feature","geometry":{"type":"Point","coordinates":[-121.796997,36.858501]},"properties":{"url:moreinfo":"http:\/\/foodtree.com\/sources\/1211","urltitle:moreinfo":"Please visit Far West Fungi on Foodtree","address":"1186 Trafton Road, Moss Landing, CA, USA","title":"Far West Fungi"}},{"type":"Feature","geometry":{"type":"Point","coordinates":[-122.281998,37.821602]},"properties":{"url:moreinfo":"http:\/\/foodtree.com\/sources\/1143","urltitle:moreinfo":"Please visit Hodo Soy Beanery on Foodtree","address":"2923 Adeline Street, Oakland, CA, USA","title":"Hodo Soy Beanery"}},{"type":"Feature","geometry":{"type":"Point","coordinates":[-121.421997,36.940201]},"properties":{"url:moreinfo":"http:\/\/foodtree.com\/sources\/1167","urltitle:moreinfo":"Please visit Heirloom Organic Gardens on Foodtree","address":"743 Shore Road, Hollister, CA, USA","title":"Heirloom Organic Gardens"}},{"type":"Feature","geometry":{"type":"Point","coordinates":[-122.137001,37.463699]},"properties":{"url:moreinfo":"http:\/\/foodtree.com\/sources\/1166","urltitle:moreinfo":"Please visit Happy Quail Farms on Foodtree","address":"804 Green Street, East Palo Alto, CA, USA","title":"Happy Quail Farms"}},{"type":"Feature","geometry":{"type":"Point","coordinates":[-121.690002,36.849201]},"properties":{"url:moreinfo":"http:\/\/foodtree.com\/sources\/1239","urltitle:moreinfo":"Please visit Garden Variety Cheese on Foodtree","address":"1481 San Miguel Canyon Road, Royal Oaks, CA, USA","title":"Garden Variety Cheese"}},{"type":"Feature","geometry":{"type":"Point","coordinates":[-122.160004,37.445702]},"properties":{"url:moreinfo":"http:\/\/foodtree.com\/sources\/1338","urltitle:moreinfo":"Please visit Palo Alto Downtown Farmers Market on Foodtree","address":"Hamilton Ave & Gilman St, Palo Alto, CA, USA","title":"Palo Alto Downtown Farmers Market"}}],"properties":{"title":"Palo Alto Downtown Farmers Market"}}