{"type":"FeatureCollection","features":[{"type":"Feature","geometry":{"type":"Point","coordinates":[-95.712890999999,37.090240000003]},"properties":{"size":"100","description":"60ft Bus Sold (Unit)","address":"United States of America","placename":"United States","title":"USA: 199, 100%"}},{"type":"Feature","geometry":{"type":"Point","coordinates":[-73.452912400001,44.699487300001]},"properties":{"size":"100","description":"","address":"Plattsburgh, USA","placename":"Plattsburgh, NY, USA","title":"Plattsburgh: 60ft Bus Sold - 199"}},{"type":"Feature","geometry":{"type":"Point","coordinates":[-106.346771,56.130366000001]},"properties":{"size":"100","description":"40ft Bus Sold (Unit)","address":"Canada","placename":"Canada","title":"Canada: 532, 100%"}},{"type":"Feature","geometry":{"type":"Point","coordinates":[-73.887787999997,45.572764900001]},"properties":{"size":"100","description":"Outbound (Unit)","address":"St. Eustache, Canada","placename":"St-Eustache, QC J7P, Canada","title":"St. Eustache: 40ft Bus Sold - 532"}},{"type":"Feature","geometry":{"type":"Point","coordinates":[-95.712890999999,37.090240000003]},"properties":{"size":"79","description":"Complete Bus Sold (Unit)","address":"United States of America","placename":"United States","title":"USA: 419, 79%"}},{"type":"Feature","geometry":{"type":"Point","coordinates":[-106.346771,56.130366000001]},"properties":{"size":"21","description":"Complete Bus Sold (Unit)","address":"Canada","placename":"Canada","title":"Canada: 114, 21%"}},{"type":"Feature","geometry":{"type":"Point","coordinates":[-82.691542899999,42.435650400001]},"properties":{"size":"100","description":"Outbound (Unit)","address":"St. Claire, Canada","placename":"Lake St Clair","title":"Prevost Bus: Complete Bus Sold - 533 Unit"}},{"type":"Feature","geometry":{"type":"Point","coordinates":[22.937506000003,-30.559481999999]},"properties":{"size":"1","description":"Complete Bus Sold (Unit)","address":"South Africa","placename":"South Africa","title":"South Africa: 1.1%"}},{"type":"Feature","geometry":{"type":"Point","coordinates":[78.962879999997,20.593684000004]},"properties":{"size":"98","description":"Complete Bus Sold (Unit)","address":"India","placename":"India","title":"India: 651, 98.3%"}},{"type":"Feature","geometry":{"type":"Point","coordinates":[14.550071999996,47.516230999997]},"properties":{"size":"1","description":"Complete Bus Sold (Unit)","address":"Austria","placename":"Austria","title":"Austria: 4, 0.6%"}},{"type":"Feature","geometry":{"type":"Point","coordinates":[77.594562700002,12.971598699996]},"properties":{"size":"100","description":"","address":"Bangalore, India","placename":"Bengaluru, Karnataka, India","title":"Bangalore: Complete Bus - 662 Unit"}},{"type":"Feature","geometry":{"type":"Point","coordinates":[9.5374989999968,33.886917000001]},"properties":{"size":"3","description":"Chassis as CKD (Unit)","address":"Tunisia","placename":"Tunisia","title":"Tunisia: 108, 2.99%"}},{"type":"Feature","geometry":{"type":"Point","coordinates":[100.992541,15.870032]},"properties":{"size":"3","description":"Chassis as CKD (Unit)","address":"Thailand","placename":"Thailand","title":"Thailand (CKD): 120, 3.32%"}},{"type":"Feature","geometry":{"type":"Point","coordinates":[22.937506000003,-30.559481999999]},"properties":{"size":"1","description":"Chassis as CKD (Unit)","address":"South Africa","placename":"South Africa","title":"South Africa (CKD): 27, 0.75%"}},{"type":"Feature","geometry":{"type":"Point","coordinates":[19.145136,51.919437999998]},"properties":{"size":"23","description":"Chassis as CKD (Unit)","address":"Poland","placename":"Poland","title":"Poland: 849, 23.47%"}},{"type":"Feature","geometry":{"type":"Point","coordinates":[-7.0926199999983,31.791702]},"properties":{"size":"7","description":"Chassis as CKD (Unit)","address":"Morocco","placename":"Morocco","title":"Morocco (CKD): 246, 6.8%"}},{"type":"Feature","geometry":{"type":"Point","coordinates":[-102.552784,23.634501000001]},"properties":{"size":"20","description":"Chassis as CKD (Unit)","address":"Mexico","placename":"Mexico","title":"Mexico: 717, 19.82%"}},{"type":"Feature","geometry":{"type":"Point","coordinates":[53.688046000001,32.427908000001]},"properties":{"size":"22","description":"Chassis as CKD (Unit)","address":"Iran","placename":"Iran","title":"Iran: 800, 22.11%"}},{"type":"Feature","geometry":{"type":"Point","coordinates":[78.962879999997,20.593684000004]},"properties":{"size":"20","description":"Chassis as CKD (Unit)","address":"India","placename":"India","title":"India: 714, 19.73%"}},{"type":"Feature","geometry":{"type":"Point","coordinates":[104.195397,35.861660000001]},"properties":{"size":"1","description":"Chassis as CKD (Unit)","address":"China","placename":"China","title":"China: 37, 1.02%"}},{"type":"Feature","geometry":{"type":"Point","coordinates":[12.939818999999,57.721034999998]},"properties":{"size":"100","description":"Outbound (Unit)","address":"Boras, Sweden","placename":"Bor\u00e5s, Sweden","title":"Boras: CKD Kits - 3618 Unit"}},{"type":"Feature","geometry":{"type":"Point","coordinates":[-3.4359729999961,55.378051000001]},"properties":{"size":"21","description":"Chassis Sold (Unit)","address":"United Kingdom","placename":"United Kingdom","title":"UK: 828, 20.55%"}},{"type":"Feature","geometry":{"type":"Point","coordinates":[100.992541,15.870032]},"properties":{"size":"0","description":"Chassis Sold (Unit)","address":"Thailand","placename":"Thailand","title":"Thailand: 1, 0.02%"}},{"type":"Feature","geometry":{"type":"Point","coordinates":[120.960515,23.697810000004]},"properties":{"size":"1","description":"Chassis Sold (Unit)","address":"Taiwan","placename":"Taiwan","title":"Taiwan: 25, 0.62%"}},{"type":"Feature","geometry":{"type":"Point","coordinates":[18.643501000001,60.128160999999]},"properties":{"size":"7","description":"Chassis Sold (Unit)","address":"Sweden","placename":"Sweden","title":"Sweden: 272, 6.75%"}},{"type":"Feature","geometry":{"type":"Point","coordinates":[-3.7492200000004,40.463667000002]},"properties":{"size":"11","description":"Chassis Sold (Unit)","address":"Spain","placename":"Spain","title":"Spain: 440, 10.92%"}},{"type":"Feature","geometry":{"type":"Point","coordinates":[22.937506000003,-30.559481999999]},"properties":{"size":"0","description":"Chassis Sold (Unit)","address":"South Africa","placename":"South Africa","title":"South Africa: 8, 0.2%"}},{"type":"Feature","geometry":{"type":"Point","coordinates":[103.819836,1.3520830000039]},"properties":{"size":"6","description":"Chassis Sold (Unit)","address":"Singapore","placename":"Singapore","title":"Singapore: 233, 5.78%"}},{"type":"Feature","geometry":{"type":"Point","coordinates":[-8.2244540000027,39.399871999999]},"properties":{"size":"6","description":"Chassis Sold (Unit)","address":"Portugal","placename":"Portugal","title":"Portugal: 256, 6.35%"}},{"type":"Feature","geometry":{"type":"Point","coordinates":[8.4689460000024,60.472024]},"properties":{"size":"1","description":"Chassis Sold (Unit)","address":"Norway","placename":"Norway","title":"Norway: 23, 0.57%"}},{"type":"Feature","geometry":{"type":"Point","coordinates":[174.885971,-40.900556999999]},"properties":{"size":"0","description":"Chassis Sold (Unit)","address":"New Zealand","placename":"New Zealand","title":"New Zealand: 3, 0.07%"}},{"type":"Feature","geometry":{"type":"Point","coordinates":[5.2912660000021,52.132633000001]},"properties":{"size":"0","description":"Chassis Sold (Unit)","address":"Netherlands","placename":"The Netherlands","title":"Netherlands: 1, 0.02%"}},{"type":"Feature","geometry":{"type":"Point","coordinates":[-7.0926199999983,31.791702]},"properties":{"size":"0","description":"Chassis Sold (Unit)","address":"Morocco","placename":"Morocco","title":"Morocco: 2, 0.05%"}},{"type":"Feature","geometry":{"type":"Point","coordinates":[34.851612000002,31.046051]},"properties":{"size":"4","description":"Chassis Sold (Unit)","address":"Israel","placename":"Israel","title":"Israel: 170, 4.22%"}},{"type":"Feature","geometry":{"type":"Point","coordinates":[114.109497,22.396428000004]},"properties":{"size":"0","description":"Chassis Sold (Unit)","address":"Hong Kong","placename":"Hong Kong","title":"Hong Kong: 2, 0.05%"}},{"type":"Feature","geometry":{"type":"Point","coordinates":[25.748150999997,61.924109999999]},"properties":{"size":"4","description":"Chassis Sold (Unit)","address":"Finland","placename":"Finland","title":"Finland: 147, 3.65%"}},{"type":"Feature","geometry":{"type":"Point","coordinates":[30.802498000002,26.820553000001]},"properties":{"size":"1","description":"Chassis Sold (Unit)","address":"Egypt","placename":"Egypt","title":"Egypt: 28, 0.69%"}},{"type":"Feature","geometry":{"type":"Point","coordinates":[-74.297332999997,4.5708679999982]},"properties":{"size":"23","description":"Chassis Sold (Unit)","address":"Colombia","placename":"Colombia","title":"Colombia: 945, 23.45%"}},{"type":"Feature","geometry":{"type":"Point","coordinates":[-51.925279999999,-14.235004]},"properties":{"size":"0","description":"Chassis Sold (Unit)","address":"Brazil","placename":"Brazil","title":"Brazil: 7, 0.17%"}},{"type":"Feature","geometry":{"type":"Point","coordinates":[4.4699360000043,50.503887000001]},"properties":{"size":"4","description":"Chassis Sold (Unit)","address":"Belgium","placename":"Belgium","title":"Belgium: 143, 3.55%"}},{"type":"Feature","geometry":{"type":"Point","coordinates":[133.775136,-25.274397999999]},"properties":{"size":"12","description":"Chassis Sold (Unit)","address":"Australia","placename":"Australia","title":"Australia: 495, 12.29%"}},{"type":"Feature","geometry":{"type":"Point","coordinates":[12.939818999999,57.721034999998]},"properties":{"size":"100","description":"Outbound (Unit)","address":"Boras, Sweden","placename":"Bor\u00e5s, Sweden","title":"Boras: Complete Bus - 4029 Unit"}},{"type":"Feature","geometry":{"type":"Point","coordinates":[-55.765835000003,-32.522779000001]},"properties":{"size":"1","description":"Complete Bus Sold (Unit)","address":"Uruguay","placename":"Uruguay","title":"Uruguay: 32, 1.2%"}},{"type":"Feature","geometry":{"type":"Point","coordinates":[22.937506000003,-30.559481999999]},"properties":{"size":"1","description":"Complete Bus Sold (Unit)","address":"South Africa","placename":"South Africa","title":"South Africa: 28, 1.1%"}},{"type":"Feature","geometry":{"type":"Point","coordinates":[-75.015152,-9.1899670000004]},"properties":{"size":"1","description":"Complete Bus Sold (Unit)","address":"Peru","placename":"Peru","title":"Peru: 38, 1.4%"}},{"type":"Feature","geometry":{"type":"Point","coordinates":[-102.552784,23.634501000001]},"properties":{"size":"2","description":"Complete Bus Sold (Unit)","address":"Mexico","placename":"Mexico","title":"Mexico: 63, 2.4%"}},{"type":"Feature","geometry":{"type":"Point","coordinates":[-90.230759000004,15.783470999998]},"properties":{"size":"0","description":"Complete Bus Sold (Unit)","address":"Guatemala","placename":"Guatemala","title":"Guatemala: 2, 0.1%"}},{"type":"Feature","geometry":{"type":"Point","coordinates":[-78.183406000002,-1.8312390000011]},"properties":{"size":"3","description":"Complete Bus Sold (Unit)","address":"Equador","placename":"Ecuador","title":"Equador: 80, 3%"}},{"type":"Feature","geometry":{"type":"Point","coordinates":[30.802498000002,26.820553000001]},"properties":{"size":"0","description":"Complete Bus Sold (Unit)","address":"Egypt","placename":"Egypt","title":"Egypt: 2, 0.1%"}},{"type":"Feature","geometry":{"type":"Point","coordinates":[-83.753427999999,9.7489169999974]},"properties":{"size":"0","description":"Complete Bus Sold (Unit)","address":"Costa Rica","placename":"Costa Rica","title":"Costa Rica: 2, 0.1%"}},{"type":"Feature","geometry":{"type":"Point","coordinates":[-74.297332999997,4.5708679999982]},"properties":{"size":"6","description":"Complete Bus Sold (Unit)","address":"Colombia","placename":"Colombia","title":"Colombia: 161, 6.1%"}},{"type":"Feature","geometry":{"type":"Point","coordinates":[-71.542969,-35.675146999998]},"properties":{"size":"4","description":"Complete Bus Sold (Unit)","address":"Chile","placename":"Chile","title":"Chile: 100, 3.8%"}},{"type":"Feature","geometry":{"type":"Point","coordinates":[-51.925279999999,-14.235004]},"properties":{"size":"77","description":"Complete Bus Sold (Unit)","address":"Brazil","placename":"Brazil","title":"Brazil: 2030, 77.4%"}},{"type":"Feature","geometry":{"type":"Point","coordinates":[-63.616672000003,-38.416096999997]},"properties":{"size":"3","description":"Complete Bus Sold (Unit)","address":"Argentina","placename":"Argentina","title":"Argentina: 85, 3.2%"}},{"type":"Feature","geometry":{"type":"Point","coordinates":[-49.273251500001,-25.428356300003]},"properties":{"size":"100","description":"Outbound (Unit)","address":"Curitiba, Brazil","placename":"Curitiba - Paran\u00e1, Brazil","title":"Curitiba: Complete Bus - 2623 Unit"}},{"type":"Feature","geometry":{"type":"Point","coordinates":[-95.712890999999,37.090240000003]},"properties":{"size":"50","description":"Complete Bus Sold (Unit)","address":"United States of America","placename":"United States","title":"USA: 50, 6.3%"}},{"type":"Feature","geometry":{"type":"Point","coordinates":[-102.552784,23.634501000001]},"properties":{"size":"749","description":"Complete Bus Sold (Unit)","address":"Mexico","placename":"Mexico","title":"Mexico: 749, 93.7%"}},{"type":"Feature","geometry":{"type":"Point","coordinates":[-99.133208000003,19.4326077]},"properties":{"size":"100","description":"Outbound (Unit)","address":"Mexico City, Mexico","placename":"Mexico City, Distrito Federal, Mexico","title":"Mexico City: Complete Bus - 799 Unit"}},{"type":"Feature","geometry":{"type":"Point","coordinates":[18.643501000001,60.128160999999]},"properties":{"size":"62","description":"Complete Bus Sold (Unit)","address":"Sweden","placename":"Sweden","title":"Sweden: 157, 62%"}},{"type":"Feature","geometry":{"type":"Point","coordinates":[8.4689460000024,60.472024]},"properties":{"size":"26","description":"Complete Bus Sold (Unit)","address":"Norway","placename":"Norway","title":"Norway: 67, 26%"}},{"type":"Feature","geometry":{"type":"Point","coordinates":[9.5017849999985,56.263920000001]},"properties":{"size":"12","description":"Complete Bus Sold (Unit)","address":"Denmark","placename":"Denmark","title":"Denmark: 29, 12%"}},{"type":"Feature","geometry":{"type":"Point","coordinates":[12.930107000004,59.132661]},"properties":{"size":"100","description":"Outbound (Unit)","address":"Saffle, Sweden","placename":"S\u00e4ffle, Sweden","title":"Saffle: 253 Unit"}},{"type":"Feature","geometry":{"type":"Point","coordinates":[25.013606999999,58.595272000001]},"properties":{"size":"0","description":"Complete Bus Sold (Unit)","address":"Estonia","placename":"Estonia","title":"Estonia: 1, 0.11%"}},{"type":"Feature","geometry":{"type":"Point","coordinates":[24.966760000001,45.943161000003]},"properties":{"size":"0","description":"Complete Bus Sold (Unit)","address":"Romania","placename":"Romania","title":"Romania: 1, 0.11%"}},{"type":"Feature","geometry":{"type":"Point","coordinates":[19.503303999996,47.162493999998]},"properties":{"size":"0","description":"Complete Bus Sold (Unit)","address":"Hungary","placename":"Hungary","title":"Hungary: 2, 0.22%"}},{"type":"Feature","geometry":{"type":"Point","coordinates":[15.200000000002,45.100000000003]},"properties":{"size":"0","description":"Complete Bus Sold (Unit)","address":"Croatia","placename":"Croatia","title":"Croatia: 3, 0.32%"}},{"type":"Feature","geometry":{"type":"Point","coordinates":[24.603189000003,56.879635000001]},"properties":{"size":"1","description":"Complete Bus Sold (Unit)","address":"Latvia","placename":"Latvia","title":"Latvia: 5, 0.54%"}},{"type":"Feature","geometry":{"type":"Point","coordinates":[19.145136,51.919437999998]},"properties":{"size":"1","description":"Complete Bus Sold (Unit)","address":"Poland","placename":"Poland","title":"Poland: 6, 0.65%"}},{"type":"Feature","geometry":{"type":"Point","coordinates":[15.472962000003,49.817492]},"properties":{"size":"1","description":"Complete Bus Sold (Unit)","address":"Czech Republic","placename":"Czech Republic","title":"Czech Republic: 8, 0.86%"}},{"type":"Feature","geometry":{"type":"Point","coordinates":[4.4699360000043,50.503887000001]},"properties":{"size":"1","description":"Complete Bus Sold (Unit)","address":"Belgium","placename":"Belgium","title":"Belgium: 10, 1.08%"}},{"type":"Feature","geometry":{"type":"Point","coordinates":[-3.7492200000004,40.463667000002]},"properties":{"size":"1","description":"Complete Bus Sold (Unit)","address":"Spain","placename":"Spain","title":"Spain: 12, 1.3%"}},{"type":"Feature","geometry":{"type":"Point","coordinates":[25.748150999997,61.924109999999]},"properties":{"size":"2","description":"Complete Bus Sold (Unit)","address":"Finland","placename":"Finland","title":"Finland: 20, 2.16%"}},{"type":"Feature","geometry":{"type":"Point","coordinates":[-3.4359729999961,55.378051000001]},"properties":{"size":"3","description":"Complete Bus Sold (Unit)","address":"United Kingdom","placename":"United Kingdom","title":"United Kingdom: 25, 2.7%"}},{"type":"Feature","geometry":{"type":"Point","coordinates":[-102.552784,23.634501000001]},"properties":{"size":"3","description":"Complete Bus Sold (Unit)","address":"Mexico","placename":"Mexico","title":"Mexico: 28, 3.03%"}},{"type":"Feature","geometry":{"type":"Point","coordinates":[9.5017849999985,56.263920000001]},"properties":{"size":"3","description":"Complete Bus Sold (Unit)","address":"Denmark","placename":"Denmark","title":"Denmark: 30, 3.24%"}},{"type":"Feature","geometry":{"type":"Point","coordinates":[2.2137489999989,46.227638]},"properties":{"size":"4","description":"Complete Bus Sold (Unit)","address":"France","placename":"France","title":"France: 34, 3.68%"}},{"type":"Feature","geometry":{"type":"Point","coordinates":[5.2912660000021,52.132633000001]},"properties":{"size":"4","description":"Complete Bus Sold (Unit)","address":"Netherlands","placename":"The Netherlands","title":"Netherlands: 34, 3.68%"}},{"type":"Feature","geometry":{"type":"Point","coordinates":[12.567380000004,41.871939999999]},"properties":{"size":"4","description":"Complete Bus Sold (Unit)","address":"Italy","placename":"Italy","title":"Italy: 38, 4.11%"}},{"type":"Feature","geometry":{"type":"Point","coordinates":[14.550071999996,47.516230999997]},"properties":{"size":"5","description":"Complete Bus Sold (Unit)","address":"Austria","placename":"Austria","title":"Austria: 47, 5.08%"}},{"type":"Feature","geometry":{"type":"Point","coordinates":[8.2275120000041,46.818187999999]},"properties":{"size":"5","description":"Complete Bus Sold (Unit)","address":"Switzerland","placename":"Switzerland","title":"Switzerland: 49, 5.3%"}},{"type":"Feature","geometry":{"type":"Point","coordinates":[10.451526000003,51.165690999999]},"properties":{"size":"10","description":"Complete Bus Sold (Unit)","address":"Germany","placename":"Germany","title":"Germany: 89, 9.62%"}},{"type":"Feature","geometry":{"type":"Point","coordinates":[18.643501000001,60.128160999999]},"properties":{"size":"12","description":"Complete Bus Sold (Unit)","address":"Sweden","placename":"Sweden","title":"Sweden: 111, 12%"}},{"type":"Feature","geometry":{"type":"Point","coordinates":[8.4689460000024,60.472024]},"properties":{"size":"40","description":"Complete Bus Sold (Unit)","address":"Norway","placename":"Norway","title":"Norway: 372, 40.22%"}},{"type":"Feature","geometry":{"type":"Point","coordinates":[17.0385376,51.107885199999]},"properties":{"description":"Outbound (Unit): 925","address":"Wroclaw, Poland","placename":"Wroc\u0142aw, Poland","title":"Complete Bus"}},{"type":"Feature","geometry":{"type":"Point","coordinates":[15.2551187,54.525961399999]},"properties":{"size":"6","description":"Material Price (TSEK)","address":"Europe","placename":"Europe","title":"EU: 586TSEK, 6%"}},{"type":"Feature","geometry":{"type":"Point","coordinates":[-95.712890999999,37.090240000003]},"properties":{"size":"63","description":"Material Price (TSEK)","address":"United States of America","placename":"United States","title":"USA: 6149TSEK, 63%"}},{"type":"Feature","geometry":{"type":"Point","coordinates":[-106.346771,56.130366000001]},"properties":{"size":"31","description":"Material Price (TSEK)","address":"Canada","placename":"Canada","title":"Canada: 3026TSEK, 31%"}},{"type":"Feature","geometry":{"type":"Point","coordinates":[-73.452912400001,44.699487300001]},"properties":{"size":"100","description":"Inbound (MSEK)","address":"Plattsburgh, USA","placename":"Plattsburgh, NY, USA","title":"Plattsburgh: Material Price - 9.8MSEK"}},{"type":"Feature","geometry":{"type":"Point","coordinates":[15.2551187,54.525961399999]},"properties":{"size":"6","description":"Material Price (TSEK)","address":"Europe","placename":"Europe","title":"EU: 204TSEK, 6%"}},{"type":"Feature","geometry":{"type":"Point","coordinates":[-95.712890999999,37.090240000003]},"properties":{"size":"39","description":"Material Price (TSEK)","address":"United States of America","placename":"United States","title":"USA: 1325TSEK, 39%"}},{"type":"Feature","geometry":{"type":"Point","coordinates":[-106.346771,56.130366000001]},"properties":{"size":"55","description":"Material Price (TSEK)","address":"Canada","placename":"Canada","title":"Canada: 1868TSEK, 55%"}},{"type":"Feature","geometry":{"type":"Point","coordinates":[-73.887787999997,45.572764900001]},"properties":{"size":"100","description":"Inbound (MSEK)","address":"St. Eustache, Canada","placename":"St-Eustache, QC J7P, Canada","title":"St. Eustache: Material Price - 3.4MSEK"}},{"type":"Feature","geometry":{"type":"Point","coordinates":[-95.712890999999,37.090240000003]},"properties":{"size":"27","description":"Material Price (TSEK)","address":"United States of America","placename":"United States","title":"USA: 151028TSEK, 26.63%"}},{"type":"Feature","geometry":{"type":"Point","coordinates":[-3.4359729999961,55.378051000001]},"properties":{"size":"0","description":"Material Price (TSEK)","address":"United Kingdom","placename":"United Kingdom","title":"UK: 1802TSEK, 0.32%"}},{"type":"Feature","geometry":{"type":"Point","coordinates":[120.960515,23.697810000004]},"properties":{"size":"0","description":"Material Price (TSEK)","address":"Taiwan","placename":"Taiwan","title":"Taiwan: 1190TSEK, 0.21%"}},{"type":"Feature","geometry":{"type":"Point","coordinates":[8.2275120000041,46.818187999999]},"properties":{"size":"0","description":"Material Price (TSEK)","address":"Switzerland","placename":"Switzerland","title":"Switzerland: 237TSEK, 0.04%"}},{"type":"Feature","geometry":{"type":"Point","coordinates":[18.643501000001,60.128160999999]},"properties":{"size":"0","description":"Material Price (TSEK)","address":"Sweden","placename":"Sweden","title":"Sweden: 942TSEK, 0.17%"}},{"type":"Feature","geometry":{"type":"Point","coordinates":[-3.7492200000004,40.463667000002]},"properties":{"size":"2","description":"Material Price (TSEK)","address":"Spain","placename":"Spain","title":"Spain: 9681TSEK, 1.71%"}},{"type":"Feature","geometry":{"type":"Point","coordinates":[19.145136,51.919437999998]},"properties":{"size":"0","description":"Material Price (TSEK)","address":"Poland","placename":"Poland","title":"Poland: 12TSEK, 0%"}},{"type":"Feature","geometry":{"type":"Point","coordinates":[5.2912660000021,52.132633000001]},"properties":{"size":"0","description":"Material Price (TSEK)","address":"Netherlands","placename":"The Netherlands","title":"Netherlands: 1795TSEK, 0.32%"}},{"type":"Feature","geometry":{"type":"Point","coordinates":[-102.552784,23.634501000001]},"properties":{"size":"2","description":"Material Price (TSEK)","address":"Mexico","placename":"Mexico","title":"Mexico: 12825TSEK, 2.26%"}},{"type":"Feature","geometry":{"type":"Point","coordinates":[12.567380000004,41.871939999999]},"properties":{"size":"1","description":"Material Price (TSEK)","address":"Italy","placename":"Italy","title":"Italy: 3143TSEK, 0.55%"}},{"type":"Feature","geometry":{"type":"Point","coordinates":[19.503303999996,47.162493999998]},"properties":{"size":"0","description":"Material Price (TSEK)","address":"Hungary","placename":"Hungary","title":"Hungary: 845TSEK, 0.15%"}},{"type":"Feature","geometry":{"type":"Point","coordinates":[10.451526000003,51.165690999999]},"properties":{"size":"4","description":"Material Price (TSEK)","address":"Germany","placename":"Germany","title":"Germany: 23914TSEK, 4.22%"}},{"type":"Feature","geometry":{"type":"Point","coordinates":[2.2137489999989,46.227638]},"properties":{"size":"1","description":"Material Price (TSEK)","address":"France","placename":"France","title":"France: 3462TSEK, 0.61%"}},{"type":"Feature","geometry":{"type":"Point","coordinates":[25.748150999997,61.924109999999]},"properties":{"size":"0","description":"Material Price (TSEK)","address":"Finland","placename":"Finland","title":"Finland: 1058TSEK, 0.19%"}},{"type":"Feature","geometry":{"type":"Point","coordinates":[15.472962000003,49.817492]},"properties":{"size":"0","description":"Material Price (TSEK)","address":"Czech Republic","placename":"Czech Republic","title":"Czech Rep.: 1TSEK, 0%"}},{"type":"Feature","geometry":{"type":"Point","coordinates":[104.195397,35.861660000001]},"properties":{"size":"0","description":"Material Price (TSEK)","address":"China","placename":"China","title":"China: 224TSEK, 0.04%"}},{"type":"Feature","geometry":{"type":"Point","coordinates":[-106.346771,56.130366000001]},"properties":{"size":"62","description":"Material Price (TSEK)","address":"Canada","placename":"Canada","title":"Canada: 354081TSEK, 62.43%"}},{"type":"Feature","geometry":{"type":"Point","coordinates":[-51.925279999999,-14.235004]},"properties":{"size":"0","description":"Material Price (TSEK)","address":"Brazil","placename":"Brazil","title":"Brazil: 642TSEK, 0.11%"}},{"type":"Feature","geometry":{"type":"Point","coordinates":[4.4699360000043,50.503887000001]},"properties":{"size":"0","description":"Material Price (TSEK)","address":"Belgium","placename":"Belgium","title":"Belgium: 256TSEK, 0.05%"}},{"type":"Feature","geometry":{"type":"Point","coordinates":[-82.691542899999,42.435650400001]},"properties":{"size":"100","description":"Inbound (MEK)","address":"St. Claire, Canada","placename":"Lake St Clair","title":"Prevost Bus: Material Price - 567MSEK"}},{"type":"Feature","geometry":{"type":"Point","coordinates":[-3.4359729999961,55.378051000001]},"properties":{"size":"0","description":"Material Price (TSEK)","address":"United Kingdom","placename":"United Kingdom","title":"United Kingdom: 2TSEK, 0%"}},{"type":"Feature","geometry":{"type":"Point","coordinates":[18.643501000001,60.128160999999]},"properties":{"size":"0","description":"Material Price (TSEK)","address":"Sweden","placename":"Sweden","title":"Sweden: 298TSEK, 0.1%"}},{"type":"Feature","geometry":{"type":"Point","coordinates":[78.962879999997,20.593684000004]},"properties":{"size":"96","description":"Material Price (TSEK)","address":"India","placename":"India","title":"India: 203764TSEK, 96.1%"}},{"type":"Feature","geometry":{"type":"Point","coordinates":[25.748150999997,61.924109999999]},"properties":{"size":"0","description":"Material Price (TSEK)","address":"Finland","placename":"Finland","title":"Finland: 929TSEK, 0.4%"}},{"type":"Feature","geometry":{"type":"Point","coordinates":[104.195397,35.861660000001]},"properties":{"size":"3","description":"Material Price (TSEK)","address":"China","placename":"China","title":"China: 6897TSEK, 3.3%"}},{"type":"Feature","geometry":{"type":"Point","coordinates":[4.4699360000043,50.503887000001]},"properties":{"size":"0","description":"Material Price (TSEK)","address":"Belgium","placename":"Belgium","title":"Belgium: 216TSEK, 0.1%"}},{"type":"Feature","geometry":{"type":"Point","coordinates":[77.594562700002,12.971598699996]},"properties":{"size":"100","description":"Inbound (MEK)","address":"Bangalore, India","placename":"Bengaluru, Karnataka, India","title":"Bangalore: Material Price - 212 (MSEK)"}},{"type":"Feature","geometry":{"type":"Point","coordinates":[-95.712890999999,37.090240000003]},"properties":{"size":"0.15","description":"Material Price (TSEK)","address":"United States of America","placename":"United States","title":"USA: 5371TSEK, 0.15%"}},{"type":"Feature","geometry":{"type":"Point","coordinates":[-3.4359729999961,55.378051000001]},"properties":{"size":"1.49","description":"Material Price (TSEK)","address":"United Kingdom","placename":"United Kingdom","title":"UK: 54613TSEK, 1.49%"}},{"type":"Feature","geometry":{"type":"Point","coordinates":[35.243321999997,38.963745000001]},"properties":{"size":"2.17","description":"Material Price (TSEK)","address":"Turkey","placename":"Turkey","title":"Turkey: 79382TSEK, 2.17%"}},{"type":"Feature","geometry":{"type":"Point","coordinates":[9.5374989999968,33.886917000001]},"properties":{"size":"0.19","description":"Material Price (TSEK)","address":"Tunisia","placename":"Tunisia","title":"Tunisia: 7075TSEK, 0.19%"}},{"type":"Feature","geometry":{"type":"Point","coordinates":[120.960515,23.697810000004]},"properties":{"size":"0.05","description":"Material Price (TSEK)","address":"Taiwan","placename":"Taiwan","title":"Taiwan: 1677TSEK, 0.05%"}},{"type":"Feature","geometry":{"type":"Point","coordinates":[8.2275120000041,46.818187999999]},"properties":{"size":"0.04","description":"Material Price (TSEK)","address":"Switzerland","placename":"Switzerland","title":"Switzerland: 1532TSEK, 0.04%"}},{"type":"Feature","geometry":{"type":"Point","coordinates":[18.643501000001,60.128160999999]},"properties":{"size":"52.48","description":"Material Price (TSEK)","address":"Sweden","placename":"Sweden","title":"Sweden: 1922238TSEK, 52.48%"}},{"type":"Feature","geometry":{"type":"Point","coordinates":[-3.7492200000004,40.463667000002]},"properties":{"size":"0.61","description":"Material Price (TSEK)","address":"Spain","placename":"Spain","title":"Spain: 22306TSEK, 0.61%"}},{"type":"Feature","geometry":{"type":"Point","coordinates":[22.937506000003,-30.559481999999]},"properties":{"size":"1.5","description":"Material Price (TSEK)","address":"South Africa","placename":"South Africa","title":"South Africa: 54966TSEK, 1.5%"}},{"type":"Feature","geometry":{"type":"Point","coordinates":[14.995462999997,46.151240999997]},"properties":{"size":"0.31","description":"Material Price (TSEK)","address":"Slovenia","placename":"Slovenia","title":"Slovenia: 11317TSEK, 0.31%"}},{"type":"Feature","geometry":{"type":"Point","coordinates":[103.819836,1.3520830000039]},"properties":{"size":"0","description":"Material Price (TSEK)","address":"Singapore","placename":"Singapore","title":"Singapore: 26TSEK, 0%"}},{"type":"Feature","geometry":{"type":"Point","coordinates":[105.318756,61.52401]},"properties":{"size":"0.26","description":"Material Price (TSEK)","address":"Russia","placename":"Russia","title":"Russia: 9658TSEK, 0.26%"}},{"type":"Feature","geometry":{"type":"Point","coordinates":[24.966760000001,45.943161000003]},"properties":{"size":"0.08","description":"Material Price (TSEK)","address":"Romania","placename":"Romania","title":"Romania: 2828TSEK, 0.08%"}},{"type":"Feature","geometry":{"type":"Point","coordinates":[-8.2244540000027,39.399871999999]},"properties":{"size":"0","description":"Material Price (TSEK)","address":"Portugal","placename":"Portugal","title":"Portugal: 138TSEK, 0%"}},{"type":"Feature","geometry":{"type":"Point","coordinates":[19.145136,51.919437999998]},"properties":{"size":"0.28","description":"Material Price (TSEK)","address":"Poland","placename":"Poland","title":"Poland: 10140TSEK, 0.28%"}},{"type":"Feature","geometry":{"type":"Point","coordinates":[8.4689460000024,60.472024]},"properties":{"size":"0.46","description":"Material Price (TSEK)","address":"Norway","placename":"Norway","title":"Norway: 16830TSEK, 0.46%"}},{"type":"Feature","geometry":{"type":"Point","coordinates":[5.2912660000021,52.132633000001]},"properties":{"size":"0.36","description":"Material Price (TSEK)","address":"Netherlands","placename":"The Netherlands","title":"Netherlands: 13218TSEK, 0.36%"}},{"type":"Feature","geometry":{"type":"Point","coordinates":[-102.552784,23.634501000001]},"properties":{"size":"0","description":"Material Price (TSEK)","address":"Mexico","placename":"Mexico","title":"Mexico: 76TSEK, 0%"}},{"type":"Feature","geometry":{"type":"Point","coordinates":[101.975766,4.2104840000023]},"properties":{"size":"0.22","description":"Material Price (TSEK)","address":"Malaysia","placename":"Malaysia","title":"Malaysia: 8039TSEK, 0.22%"}},{"type":"Feature","geometry":{"type":"Point","coordinates":[23.881274999999,55.169437999999]},"properties":{"size":"8.02","description":"Material Price (TSEK)","address":"Lithuania","placename":"Lithuania","title":"Lithuania: 293630TSEK, 8.02%"}},{"type":"Feature","geometry":{"type":"Point","coordinates":[24.603189000003,56.879635000001]},"properties":{"size":"0.22","description":"Material Price (TSEK)","address":"Latvia","placename":"Latvia","title":"Latvia: 8096TSEK, 0.22%"}},{"type":"Feature","geometry":{"type":"Point","coordinates":[127.766922,35.907756999999]},"properties":{"size":"0.02","description":"Material Price (TSEK)","address":"South Korea","placename":"South Korea","title":"South Korea: 735TSEK, 0.02%"}},{"type":"Feature","geometry":{"type":"Point","coordinates":[138.252924,36.204824000001]},"properties":{"size":"0","description":"Material Price (TSEK)","address":"Japan","placename":"Japan","title":"Japan: 41TSEK, 0%"}},{"type":"Feature","geometry":{"type":"Point","coordinates":[12.567380000004,41.871939999999]},"properties":{"size":"2.2","description":"Material Price (TSEK)","address":"Italy","placename":"Italy","title":"Italy: 80629TSEK, 2.2%"}},{"type":"Feature","geometry":{"type":"Point","coordinates":[78.962879999997,20.593684000004]},"properties":{"size":"0.27","description":"Material Price (TSEK)","address":"India","placename":"India","title":"India: 9904TSEK, 0.27%"}},{"type":"Feature","geometry":{"type":"Point","coordinates":[19.503303999996,47.162493999998]},"properties":{"size":"0.33","description":"Material Price (TSEK)","address":"Hungary","placename":"Hungary","title":"Hungary: 12205TSEK, 0.33%"}},{"type":"Feature","geometry":{"type":"Point","coordinates":[10.451526000003,51.165690999999]},"properties":{"size":"14.86","description":"Material Price (TSEK)","address":"Germany","placename":"Germany","title":"Germany: 544251TSEK, 14.86%"}},{"type":"Feature","geometry":{"type":"Point","coordinates":[2.2137489999989,46.227638]},"properties":{"size":"3.14","description":"Material Price (TSEK)","address":"France","placename":"France","title":"France: 115078TSEK, 3.14%"}},{"type":"Feature","geometry":{"type":"Point","coordinates":[25.748150999997,61.924109999999]},"properties":{"size":"1.14","description":"Material Price (TSEK)","address":"Finland","placename":"Finland","title":"Finland: 41933TSEK, 1.14%"}},{"type":"Feature","geometry":{"type":"Point","coordinates":[25.013606999999,58.595272000001]},"properties":{"size":"1.04","description":"Material Price (TSEK)","address":"Estonia","placename":"Estonia","title":"Estonia: 38201TSEK, 1.04%"}},{"type":"Feature","geometry":{"type":"Point","coordinates":[9.5017849999985,56.263920000001]},"properties":{"size":"0.13","description":"Material Price (TSEK)","address":"Denmark","placename":"Denmark","title":"Denmark: 4907TSEK, 0.13%"}},{"type":"Feature","geometry":{"type":"Point","coordinates":[15.472962000003,49.817492]},"properties":{"size":"0.45","description":"Material Price (TSEK)","address":"Czech Republic","placename":"Czech Republic","title":"Czech Rep.: 16379TSEK, 0.45%"}},{"type":"Feature","geometry":{"type":"Point","coordinates":[104.195397,35.861660000001]},"properties":{"size":"0.46","description":"Material Price (TSEK)","address":"China","placename":"China","title":"China: 16787TSEK, 0.46%"}},{"type":"Feature","geometry":{"type":"Point","coordinates":[-51.925279999999,-14.235004]},"properties":{"size":"0.88","description":"Material Price (TSEK)","address":"Brazil","placename":"Brazil","title":"Brazil: 32067TSEK, 0.88%"}},{"type":"Feature","geometry":{"type":"Point","coordinates":[4.4699360000043,50.503887000001]},"properties":{"size":"5.59","description":"Material Price (TSEK)","address":"Belgium","placename":"Belgium","title":"Belgium: 204771TSEK, 5.59%"}},{"type":"Feature","geometry":{"type":"Point","coordinates":[14.550071999996,47.516230999997]},"properties":{"size":"0.22","description":"Material Price (TSEK)","address":"Austria","placename":"Austria","title":"Austria: 7931TSEK, 0.22%"}},{"type":"Feature","geometry":{"type":"Point","coordinates":[133.775136,-25.274397999999]},"properties":{"size":"0.38","description":"Material Price (TSEK)","address":"Australia","placename":"Australia","title":"Australia: 13839TSEK, 0.38%"}},{"type":"Feature","geometry":{"type":"Point","coordinates":[12.939818999999,57.721034999998]},"properties":{"size":"100","description":"Inbound (MEK)","address":"Boras, Sweden","placename":"Bor\u00e5s, Sweden","title":"Boras: Material Purchasing Price - 3663 (MSEK)"}},{"type":"Feature","geometry":{"type":"Point","coordinates":[-95.712890999999,37.090240000003]},"properties":{"size":"0","description":"Material Price (TSEK)","address":"United States of America","placename":"United States","title":"United States of America: 3648TSEK, 0.3%"}},{"type":"Feature","geometry":{"type":"Point","coordinates":[-3.4359729999961,55.378051000001]},"properties":{"size":"3","description":"Material Price (TSEK)","address":"United Kingdom","placename":"United Kingdom","title":"United Kingdom: 34856TSEK, 2.8%"}},{"type":"Feature","geometry":{"type":"Point","coordinates":[35.243321999997,38.963745000001]},"properties":{"size":"0","description":"Material Price (TSEK)","address":"Turkey","placename":"Turkey","title":"Turkey: 2743TSEK, 0.2%"}},{"type":"Feature","geometry":{"type":"Point","coordinates":[100.992541,15.870032]},"properties":{"size":"0","description":"Material Price (TSEK)","address":"Thailand","placename":"Thailand","title":"Thailand: 164TSEK, 0%"}},{"type":"Feature","geometry":{"type":"Point","coordinates":[120.960515,23.697810000004]},"properties":{"size":"0","description":"Material Price (TSEK)","address":"Taiwan","placename":"Taiwan","title":"Taiwan: 653TSEK, 0.1%"}},{"type":"Feature","geometry":{"type":"Point","coordinates":[8.2275120000041,46.818187999999]},"properties":{"size":"0","description":"Material Price (TSEK)","address":"Switzerland","placename":"Switzerland","title":"Switzerland: 34TSEK, 0%"}},{"type":"Feature","geometry":{"type":"Point","coordinates":[18.643501000001,60.128160999999]},"properties":{"size":"8","description":"Material Price (TSEK)","address":"Sweden","placename":"Sweden","title":"Sweden: 96029TSEK, 7.9%"}},{"type":"Feature","geometry":{"type":"Point","coordinates":[-3.7492200000004,40.463667000002]},"properties":{"size":"1","description":"Material Price (TSEK)","address":"Spain","placename":"Spain","title":"Spain: 8903TSEK, 0.7%"}},{"type":"Feature","geometry":{"type":"Point","coordinates":[22.937506000003,-30.559481999999]},"properties":{"size":"0","description":"Material Price (TSEK)","address":"South Africa","placename":"South Africa","title":"South Africa: 449TSEK, 0%"}},{"type":"Feature","geometry":{"type":"Point","coordinates":[14.995462999997,46.151240999997]},"properties":{"size":"0","description":"Material Price (TSEK)","address":"Slovenia","placename":"Slovenia","title":"Slovenia: 253TSEK, 0%"}},{"type":"Feature","geometry":{"type":"Point","coordinates":[19.699023999996,48.669026]},"properties":{"size":"0","description":"Material Price (TSEK)","address":"Slovakia","placename":"Slovakia","title":"Slovakia: 538TSEK, 0%"}},{"type":"Feature","geometry":{"type":"Point","coordinates":[24.966760000001,45.943161000003]},"properties":{"size":"0","description":"Material Price (TSEK)","address":"Romania","placename":"Romania","title":"Romania: 377TSEK, 0%"}},{"type":"Feature","geometry":{"type":"Point","coordinates":[-8.2244540000027,39.399871999999]},"properties":{"size":"0","description":"Material Price (TSEK)","address":"Portugal","placename":"Portugal","title":"Portugal: 4360TSEK, 0.4%"}},{"type":"Feature","geometry":{"type":"Point","coordinates":[19.145136,51.919437999998]},"properties":{"size":"1","description":"Material Price (TSEK)","address":"Poland","placename":"Poland","title":"Poland: 9972TSEK, 0.8%"}},{"type":"Feature","geometry":{"type":"Point","coordinates":[8.4689460000024,60.472024]},"properties":{"size":"1","description":"Material Price (TSEK)","address":"Norway","placename":"Norway","title":"Norway: 13648TSEK, 1.1%"}},{"type":"Feature","geometry":{"type":"Point","coordinates":[5.2912660000021,52.132633000001]},"properties":{"size":"1","description":"Material Price (TSEK)","address":"Netherlands","placename":"The Netherlands","title":"Netherlands: 8546TSEK, 0.7%"}},{"type":"Feature","geometry":{"type":"Point","coordinates":[7.4246158000028,43.738417600001]},"properties":{"size":"0","description":"Material Price (TSEK)","address":"Monaco","placename":"Monaco","title":"Monaco: 562TSEK, 0%"}},{"type":"Feature","geometry":{"type":"Point","coordinates":[-102.552784,23.634501000001]},"properties":{"size":"0","description":"Material Price (TSEK)","address":"Mexico","placename":"Mexico","title":"Mexico: 656TSEK, 0.1%"}},{"type":"Feature","geometry":{"type":"Point","coordinates":[6.129582999999,49.815273000002]},"properties":{"size":"0","description":"Material Price (TSEK)","address":"Luxembourg","placename":"Luxembourg","title":"Luxembourg: 3TSEK, 0%"}},{"type":"Feature","geometry":{"type":"Point","coordinates":[23.881274999999,55.169437999999]},"properties":{"size":"0","description":"Material Price (TSEK)","address":"Lithuania","placename":"Lithuania","title":"Lithuania: 147TSEK, 0%"}},{"type":"Feature","geometry":{"type":"Point","coordinates":[24.603189000003,56.879635000001]},"properties":{"size":"0","description":"Material Price (TSEK)","address":"Latvia","placename":"Latvia","title":"Latvia: 45TSEK, 0%"}},{"type":"Feature","geometry":{"type":"Point","coordinates":[127.766922,35.907756999999]},"properties":{"size":"0","description":"Material Price (TSEK)","address":"South Korea","placename":"South Korea","title":"South Korea: 398TSEK, 0%"}},{"type":"Feature","geometry":{"type":"Point","coordinates":[12.567380000004,41.871939999999]},"properties":{"size":"1","description":"Material Price (TSEK)","address":"Italy","placename":"Italy","title":"Italy: 8090TSEK, 0.7%"}},{"type":"Feature","geometry":{"type":"Point","coordinates":[78.962879999997,20.593684000004]},"properties":{"size":"1","description":"Material Price (TSEK)","address":"India","placename":"India","title":"India: 6203TSEK, 0.5%"}},{"type":"Feature","geometry":{"type":"Point","coordinates":[19.503303999996,47.162493999998]},"properties":{"size":"0","description":"Material Price (TSEK)","address":"Hungary","placename":"Hungary","title":"Hungary: 4904TSEK, 0.4%"}},{"type":"Feature","geometry":{"type":"Point","coordinates":[10.451526000003,51.165690999999]},"properties":{"size":"7","description":"Material Price (TSEK)","address":"Germany","placename":"Germany","title":"Germany: 89046TSEK, 7.3%"}},{"type":"Feature","geometry":{"type":"Point","coordinates":[2.2137489999989,46.227638]},"properties":{"size":"8","description":"Material Price (TSEK)","address":"France","placename":"France","title":"France: 94167TSEK, 7.7%"}},{"type":"Feature","geometry":{"type":"Point","coordinates":[25.748150999997,61.924109999999]},"properties":{"size":"0","description":"Material Price (TSEK)","address":"Finland","placename":"Finland","title":"Finland: 1156TSEK, 0.1%"}},{"type":"Feature","geometry":{"type":"Point","coordinates":[25.013606999999,58.595272000001]},"properties":{"size":"0","description":"Material Price (TSEK)","address":"Estonia","placename":"Estonia","title":"Estonia: 3264TSEK, 0.3%"}},{"type":"Feature","geometry":{"type":"Point","coordinates":[9.5017849999985,56.263920000001]},"properties":{"size":"0","description":"Material Price (TSEK)","address":"Denmark","placename":"Denmark","title":"Denmark: 1127TSEK, 0.1%"}},{"type":"Feature","geometry":{"type":"Point","coordinates":[15.472962000003,49.817492]},"properties":{"size":"0","description":"Material Price (TSEK)","address":"Czech Republic","placename":"Czech Republic","title":"Czech Republic: 4229TSEK, 0.3%"}},{"type":"Feature","geometry":{"type":"Point","coordinates":[104.195397,35.861660000001]},"properties":{"size":"0","description":"Material Price (TSEK)","address":"China","placename":"China","title":"China: 587TSEK, 0%"}},{"type":"Feature","geometry":{"type":"Point","coordinates":[-106.346771,56.130366000001]},"properties":{"size":"0","description":"Material Price (TSEK)","address":"Canada","placename":"Canada","title":"Canada: 143TSEK, 0%"}},{"type":"Feature","geometry":{"type":"Point","coordinates":[-51.925279999999,-14.235004]},"properties":{"size":"65","description":"Material Price (TSEK)","address":"Brazil","placename":"Brazil","title":"Brazil: 797195TSEK, 65.2%"}},{"type":"Feature","geometry":{"type":"Point","coordinates":[4.4699360000043,50.503887000001]},"properties":{"size":"1","description":"Material Price (TSEK)","address":"Belgium","placename":"Belgium","title":"Belgium: 16978TSEK, 1.4%"}},{"type":"Feature","geometry":{"type":"Point","coordinates":[14.550071999996,47.516230999997]},"properties":{"size":"0","description":"Material Price (TSEK)","address":"Austria","placename":"Austria","title":"Austria: 1570TSEK, 0.1%"}},{"type":"Feature","geometry":{"type":"Point","coordinates":[-63.616672000003,-38.416096999997]},"properties":{"size":"1","description":"Material Price (TSEK)","address":"Argentina","placename":"Argentina","title":"Argentina: 7603TSEK, 0.6%"}},{"type":"Feature","geometry":{"type":"Point","coordinates":[-49.273251500001,-25.428356300003]},"properties":{"size":"100","description":"Inbound (MEK)","address":"Curitiba, Brazil","placename":"Curitiba - Paran\u00e1, Brazil","title":"Curitiba: Material Price - 1223 (MSEK)"}},{"type":"Feature","geometry":{"type":"Point","coordinates":[-95.712890999999,37.090240000003]},"properties":{"size":"2","description":"Material Price (TSEK)","address":"United States of America","placename":"United States","title":"USA: 14910TSEK, 1.7%"}},{"type":"Feature","geometry":{"type":"Point","coordinates":[-3.4359729999961,55.378051000001]},"properties":{"size":"2","description":"Material Price (TSEK)","address":"United Kingdom","placename":"United Kingdom","title":"UK: 19494TSEK, 2.2%"}},{"type":"Feature","geometry":{"type":"Point","coordinates":[35.243321999997,38.963745000001]},"properties":{"size":"1","description":"Material Price (TSEK)","address":"Turkey","placename":"Turkey","title":"Turkey: 12423TSEK, 1.4%"}},{"type":"Feature","geometry":{"type":"Point","coordinates":[18.643501000001,60.128160999999]},"properties":{"size":"42","description":"Material Price (TSEK)","address":"Sweden","placename":"Sweden","title":"Sweden: 364541TSEK, 41.8%"}},{"type":"Feature","geometry":{"type":"Point","coordinates":[-3.7492200000004,40.463667000002]},"properties":{"size":"0","description":"Material Price (TSEK)","address":"Spain","placename":"Spain","title":"Spain: 4073TSEK, 0.5%"}},{"type":"Feature","geometry":{"type":"Point","coordinates":[19.145136,51.919437999998]},"properties":{"size":"1","description":"Material Price (TSEK)","address":"Poland","placename":"Poland","title":"Poland: 5622TSEK, 0.6%"}},{"type":"Feature","geometry":{"type":"Point","coordinates":[8.4689460000024,60.472024]},"properties":{"size":"0","description":"Material Price (TSEK)","address":"Norway","placename":"Norway","title":"Norway: 136TSEK, 0%"}},{"type":"Feature","geometry":{"type":"Point","coordinates":[-102.552784,23.634501000001]},"properties":{"size":"44","description":"Material Price (TSEK)","address":"Mexico","placename":"Mexico","title":"Mexico: 383621TSEK, 44%"}},{"type":"Feature","geometry":{"type":"Point","coordinates":[101.975766,4.2104840000023]},"properties":{"size":"0","description":"Material Price (TSEK)","address":"Malaysia","placename":"Malaysia","title":"Malaysia: 116TSEK, 0%"}},{"type":"Feature","geometry":{"type":"Point","coordinates":[12.567380000004,41.871939999999]},"properties":{"size":"0","description":"Material Price (TSEK)","address":"Italy","placename":"Italy","title":"Italy: 3873TSEK, 0.4%"}},{"type":"Feature","geometry":{"type":"Point","coordinates":[10.451526000003,51.165690999999]},"properties":{"size":"2","description":"Material Price (TSEK)","address":"Germany","placename":"Germany","title":"Germany: 17016TSEK, 2%"}},{"type":"Feature","geometry":{"type":"Point","coordinates":[2.2137489999989,46.227638]},"properties":{"size":"0","description":"Material Price (TSEK)","address":"France","placename":"France","title":"France: 579TSEK, 0.1%"}},{"type":"Feature","geometry":{"type":"Point","coordinates":[25.748150999997,61.924109999999]},"properties":{"size":"2","description":"Material Price (TSEK)","address":"Finland","placename":"Finland","title":"Finland: 18635TSEK, 2.1%"}},{"type":"Feature","geometry":{"type":"Point","coordinates":[25.013606999999,58.595272000001]},"properties":{"size":"0","description":"Material Price (TSEK)","address":"Estonia","placename":"Estonia","title":"Estonia: 268TSEK, 0%"}},{"type":"Feature","geometry":{"type":"Point","coordinates":[9.5017849999985,56.263920000001]},"properties":{"size":"0","description":"Material Price (TSEK)","address":"Denmark","placename":"Denmark","title":"Denmark: 9TSEK, 0%"}},{"type":"Feature","geometry":{"type":"Point","coordinates":[104.195397,35.861660000001]},"properties":{"size":"0","description":"Material Price (TSEK)","address":"China","placename":"China","title":"China: 201TSEK, 0%"}},{"type":"Feature","geometry":{"type":"Point","coordinates":[-106.346771,56.130366000001]},"properties":{"size":"0","description":"Material Price (TSEK)","address":"Canada","placename":"Canada","title":"Canada: 93TSEK, 0%"}},{"type":"Feature","geometry":{"type":"Point","coordinates":[-51.925279999999,-14.235004]},"properties":{"size":"3","description":"Material Price (TSEK)","address":"Brazil","placename":"Brazil","title":"Brazil: 26025TSEK, 3%"}},{"type":"Feature","geometry":{"type":"Point","coordinates":[4.4699360000043,50.503887000001]},"properties":{"size":"0","description":"Material Price (TSEK)","address":"Belgium","placename":"Belgium","title":"Belgium: 82TSEK, 0%"}},{"type":"Feature","geometry":{"type":"Point","coordinates":[-63.616672000003,-38.416096999997]},"properties":{"size":"0","description":"Material Price (TSEK)","address":"Argentina","placename":"Argentina","title":"Argentina: 31TSEK, 0%"}},{"type":"Feature","geometry":{"type":"Point","coordinates":[-99.133208000003,19.4326077]},"properties":{"size":"100","description":"Inbound (MEK)","address":"Mexico City, Mexico","placename":"Mexico City, Distrito Federal, Mexico","title":"Mexico CIty: Material Price - 872 (MSEK)"}},{"type":"Feature","geometry":{"type":"Point","coordinates":[18.643501000001,60.128160999999]},"properties":{"size":"30","description":"Material Price (TSEK)","address":"Sweden","placename":"Sweden","title":"Sweden: 20700 TSEK, 30%"}},{"type":"Feature","geometry":{"type":"Point","coordinates":[19.145136,51.919437999998]},"properties":{"size":"60","description":"Material Price (TSEK)","address":"Poland","placename":"Poland","title":"Poland: 41400TSEK, 60%"}},{"type":"Feature","geometry":{"type":"Point","coordinates":[10.451526000003,51.165690999999]},"properties":{"size":"10","description":"Material Price (TSEK)","address":"Germany","placename":"Germany","title":"Germany: 6900TSEK, 10%"}},{"type":"Feature","geometry":{"type":"Point","coordinates":[12.930107000004,59.132661]},"properties":{"size":"100","description":"Inbound (MSEK)","address":"Saffle, Sweden","placename":"S\u00e4ffle, Sweden","title":"Saffle: 69 MSEK"}},{"type":"Feature","geometry":{"type":"Point","coordinates":[23.881274999999,55.169437999999]},"properties":{"size":"0","description":"Material Price (TSEK)","address":"Lithuania","placename":"Lithuania","title":"Lithuania: 3.9, 0\uff05"}},{"type":"Feature","geometry":{"type":"Point","coordinates":[24.966760000001,45.943161000003]},"properties":{"size":"0","description":"Material Price (TSEK)","address":"Romania","placename":"Romania","title":"Romania: 21, 0\uff05"}},{"type":"Feature","geometry":{"type":"Point","coordinates":[-95.712890999999,37.090240000003]},"properties":{"size":"0","description":"Material Price (TSEK)","address":"United States of America","placename":"United States","title":"United States of America: 75.5, 0.01\uff05"}},{"type":"Feature","geometry":{"type":"Point","coordinates":[-8.2244540000027,39.399871999999]},"properties":{"size":"0","description":"Material Price (TSEK)","address":"Portugal","placename":"Portugal","title":"Portugal: 127.6, 0.01\uff05"}},{"type":"Feature","geometry":{"type":"Point","coordinates":[101.975766,4.2104840000023]},"properties":{"size":"0","description":"Material Price (TSEK)","address":"Malaysia","placename":"Malaysia","title":"Malaysia: 161.8, 0.02\uff05"}},{"type":"Feature","geometry":{"type":"Point","coordinates":[78.962879999997,20.593684000004]},"properties":{"size":"0","description":"Material Price (TSEK)","address":"India","placename":"India","title":"India: 242.2, 0.03\uff05"}},{"type":"Feature","geometry":{"type":"Point","coordinates":[15.472962000003,49.817492]},"properties":{"size":"0","description":"Material Price (TSEK)","address":"Czech Republic","placename":"Czech Republic","title":"Czech Republic: 313.2, 0.03\uff05"}},{"type":"Feature","geometry":{"type":"Point","coordinates":[25.013606999999,58.595272000001]},"properties":{"size":"0","description":"Material Price (TSEK)","address":"Estonia","placename":"Estonia","title":"Estonia: 429.5, 0.05\uff05"}},{"type":"Feature","geometry":{"type":"Point","coordinates":[6.129582999999,49.815273000002]},"properties":{"size":"0","description":"Material Price (TSEK)","address":"Luxembourg","placename":"Luxembourg","title":"Luxembourg: 874.8, 0.09\uff05"}},{"type":"Feature","geometry":{"type":"Point","coordinates":[104.195397,35.861660000001]},"properties":{"size":"0","description":"Material Price (TSEK)","address":"China","placename":"China","title":"China: 935.2, 0.1\uff05"}},{"type":"Feature","geometry":{"type":"Point","coordinates":[14.550071999996,47.516230999997]},"properties":{"size":"0","description":"Material Price (TSEK)","address":"Austria","placename":"Austria","title":"Austria: 1290.4, 0.14\uff05"}},{"type":"Feature","geometry":{"type":"Point","coordinates":[-3.4359729999961,55.378051000001]},"properties":{"size":"0","description":"Material Price (TSEK)","address":"Great Britain","placename":"United Kingdom","title":"Great Britain: 2262.1, 0.24\uff05"}},{"type":"Feature","geometry":{"type":"Point","coordinates":[-3.7492200000004,40.463667000002]},"properties":{"size":"0","description":"Material Price (TSEK)","address":"Spain","placename":"Spain","title":"Spain: 2535.6, 0.27\uff05"}},{"type":"Feature","geometry":{"type":"Point","coordinates":[8.2275120000041,46.818187999999]},"properties":{"size":"0","description":"Material Price (TSEK)","address":"Switzerland","placename":"Switzerland","title":"Switzerland: 3564.3, 0.38\uff05"}},{"type":"Feature","geometry":{"type":"Point","coordinates":[19.503303999996,47.162493999998]},"properties":{"size":"0","description":"Material Price (TSEK)","address":"Hungary","placename":"Hungary","title":"Hungary: 3879.1, 0.42\uff05"}},{"type":"Feature","geometry":{"type":"Point","coordinates":[5.2912660000021,52.132633000001]},"properties":{"size":"0","description":"Material Price (TSEK)","address":"Netherlands","placename":"The Netherlands","title":"Netherlands: 3922.7, 0.42\uff05"}},{"type":"Feature","geometry":{"type":"Point","coordinates":[9.5017849999985,56.263920000001]},"properties":{"size":"0","description":"Material Price (TSEK)","address":"Denmark","placename":"Denmark","title":"Denmark: 4122.6, 0.44\uff05"}},{"type":"Feature","geometry":{"type":"Point","coordinates":[35.243321999997,38.963745000001]},"properties":{"size":"1","description":"Material Price (TSEK)","address":"Turkey","placename":"Turkey","title":"Turkey: 4618.5, 0.5\uff05"}},{"type":"Feature","geometry":{"type":"Point","coordinates":[4.4699360000043,50.503887000001]},"properties":{"size":"1","description":"Material Price (TSEK)","address":"Belgium","placename":"Belgium","title":"Belgium: 11809.3, 1.27\uff05"}},{"type":"Feature","geometry":{"type":"Point","coordinates":[8.4689460000024,60.472024]},"properties":{"size":"1","description":"Material Price (TSEK)","address":"Norway","placename":"Norway","title":"Norway: 12252.6, 1.32\uff05"}},{"type":"Feature","geometry":{"type":"Point","coordinates":[2.2137489999989,46.227638]},"properties":{"size":"1","description":"Material Price (TSEK)","address":"France","placename":"France","title":"France: 12319.6, 1.33\uff05"}},{"type":"Feature","geometry":{"type":"Point","coordinates":[12.567380000004,41.871939999999]},"properties":{"size":"2","description":"Material Price (TSEK)","address":"Italy","placename":"Italy","title":"Italy: 15998.9, 1.72\uff05"}},{"type":"Feature","geometry":{"type":"Point","coordinates":[25.748150999997,61.924109999999]},"properties":{"size":"5","description":"Material Price (TSEK)","address":"Finland","placename":"Finland","title":"Finland: 49413.2, 5.32\uff05"}},{"type":"Feature","geometry":{"type":"Point","coordinates":[10.451526000003,51.165690999999]},"properties":{"size":"14","description":"Material Price (TSEK)","address":"Germany","placename":"Germany","title":"Germany: 134142.4, 14.43\uff05"}},{"type":"Feature","geometry":{"type":"Point","coordinates":[19.145136,51.919437999998]},"properties":{"size":"28","description":"Material Price (TSEK)","address":"Poland","placename":"Poland","title":"Poland: 258208.3, 27.77\uff05"}},{"type":"Feature","geometry":{"type":"Point","coordinates":[18.643501000001,60.128160999999]},"properties":{"size":"44","description":"Material Price (TSEK)","address":"Sweden","placename":"Sweden","title":"Sweden: 406118.9, 43.69\uff05"}},{"type":"Feature","geometry":{"type":"Point","coordinates":[17.0385376,51.107885199999]},"properties":{"description":"Inbound (MSEK)","address":"Wroclaw, Poland","placename":"Wroc\u0142aw, Poland","title":"Wroclaw: Material Purchasing Price - 930 (MSEK)"}},{"type":"Feature","geometry":{"type":"LineString","coordinates":[[18.643501000001,60.128160999999],[17.0385376,51.107885199999]]},"properties":[]},{"type":"Feature","geometry":{"type":"LineString","coordinates":[[19.145136,51.919437999998],[17.0385376,51.107885199999]]},"properties":[]},{"type":"Feature","geometry":{"type":"LineString","coordinates":[[10.451526000003,51.165690999999],[17.0385376,51.107885199999]]},"properties":[]},{"type":"Feature","geometry":{"type":"LineString","coordinates":[[25.748150999997,61.924109999999],[17.0385376,51.107885199999]]},"properties":[]},{"type":"Feature","geometry":{"type":"LineString","coordinates":[[12.567380000004,41.871939999999],[17.0385376,51.107885199999]]},"properties":[]},{"type":"Feature","geometry":{"type":"LineString","coordinates":[[2.2137489999989,46.227638],[17.0385376,51.107885199999]]},"properties":[]},{"type":"Feature","geometry":{"type":"LineString","coordinates":[[8.4689460000024,60.472024],[17.0385376,51.107885199999]]},"properties":[]},{"type":"Feature","geometry":{"type":"LineString","coordinates":[[4.4699360000043,50.503887000001],[17.0385376,51.107885199999]]},"properties":[]},{"type":"Feature","geometry":{"type":"LineString","coordinates":[[35.243321999997,38.963745000001],[17.0385376,51.107885199999]]},"properties":[]},{"type":"Feature","geometry":{"type":"LineString","coordinates":[[9.5017849999985,56.263920000001],[17.0385376,51.107885199999]]},"properties":[]},{"type":"Feature","geometry":{"type":"LineString","coordinates":[[5.2912660000021,52.132633000001],[17.0385376,51.107885199999]]},"properties":[]},{"type":"Feature","geometry":{"type":"LineString","coordinates":[[19.503303999996,47.162493999998],[17.0385376,51.107885199999]]},"properties":[]},{"type":"Feature","geometry":{"type":"LineString","coordinates":[[8.2275120000041,46.818187999999],[17.0385376,51.107885199999]]},"properties":[]},{"type":"Feature","geometry":{"type":"LineString","coordinates":[[-3.7492200000004,40.463667000002],[17.0385376,51.107885199999]]},"properties":[]},{"type":"Feature","geometry":{"type":"LineString","coordinates":[[-3.4359729999961,55.378051000001],[17.0385376,51.107885199999]]},"properties":[]},{"type":"Feature","geometry":{"type":"LineString","coordinates":[[14.550071999996,47.516230999997],[17.0385376,51.107885199999]]},"properties":[]},{"type":"Feature","geometry":{"type":"LineString","coordinates":[[104.195397,35.861660000001],[17.0385376,51.107885199999]]},"properties":[]},{"type":"Feature","geometry":{"type":"LineString","coordinates":[[6.129582999999,49.815273000002],[17.0385376,51.107885199999]]},"properties":[]},{"type":"Feature","geometry":{"type":"LineString","coordinates":[[25.013606999999,58.595272000001],[17.0385376,51.107885199999]]},"properties":[]},{"type":"Feature","geometry":{"type":"LineString","coordinates":[[15.472962000003,49.817492],[17.0385376,51.107885199999]]},"properties":[]},{"type":"Feature","geometry":{"type":"LineString","coordinates":[[78.962879999997,20.593684000004],[17.0385376,51.107885199999]]},"properties":[]},{"type":"Feature","geometry":{"type":"LineString","coordinates":[[101.975766,4.2104840000023],[17.0385376,51.107885199999]]},"properties":[]},{"type":"Feature","geometry":{"type":"LineString","coordinates":[[-8.2244540000027,39.399871999999],[17.0385376,51.107885199999]]},"properties":[]},{"type":"Feature","geometry":{"type":"LineString","coordinates":[[-95.712890999999,37.090240000003],[17.0385376,51.107885199999]]},"properties":[]},{"type":"Feature","geometry":{"type":"LineString","coordinates":[[24.966760000001,45.943161000003],[17.0385376,51.107885199999]]},"properties":[]},{"type":"Feature","geometry":{"type":"LineString","coordinates":[[23.881274999999,55.169437999999],[17.0385376,51.107885199999]]},"properties":[]},{"type":"Feature","geometry":{"type":"LineString","coordinates":[[10.451526000003,51.165690999999],[12.930107000004,59.132661]]},"properties":[]},{"type":"Feature","geometry":{"type":"LineString","coordinates":[[19.145136,51.919437999998],[12.930107000004,59.132661]]},"properties":[]},{"type":"Feature","geometry":{"type":"LineString","coordinates":[[18.643501000001,60.128160999999],[12.930107000004,59.132661]]},"properties":[]},{"type":"Feature","geometry":{"type":"LineString","coordinates":[[-63.616672000003,-38.416096999997],[-99.133208000003,19.4326077]]},"properties":[]},{"type":"Feature","geometry":{"type":"LineString","coordinates":[[4.4699360000043,50.503887000001],[-99.133208000003,19.4326077]]},"properties":[]},{"type":"Feature","geometry":{"type":"LineString","coordinates":[[-51.925279999999,-14.235004],[-99.133208000003,19.4326077]]},"properties":[]},{"type":"Feature","geometry":{"type":"LineString","coordinates":[[-106.346771,56.130366000001],[-99.133208000003,19.4326077]]},"properties":[]},{"type":"Feature","geometry":{"type":"LineString","coordinates":[[104.195397,35.861660000001],[-99.133208000003,19.4326077]]},"properties":[]},{"type":"Feature","geometry":{"type":"LineString","coordinates":[[9.5017849999985,56.263920000001],[-99.133208000003,19.4326077]]},"properties":[]},{"type":"Feature","geometry":{"type":"LineString","coordinates":[[25.013606999999,58.595272000001],[-99.133208000003,19.4326077]]},"properties":[]},{"type":"Feature","geometry":{"type":"LineString","coordinates":[[25.748150999997,61.924109999999],[-99.133208000003,19.4326077]]},"properties":[]},{"type":"Feature","geometry":{"type":"LineString","coordinates":[[2.2137489999989,46.227638],[-99.133208000003,19.4326077]]},"properties":[]},{"type":"Feature","geometry":{"type":"LineString","coordinates":[[10.451526000003,51.165690999999],[-99.133208000003,19.4326077]]},"properties":[]},{"type":"Feature","geometry":{"type":"LineString","coordinates":[[12.567380000004,41.871939999999],[-99.133208000003,19.4326077]]},"properties":[]},{"type":"Feature","geometry":{"type":"LineString","coordinates":[[101.975766,4.2104840000023],[-99.133208000003,19.4326077]]},"properties":[]},{"type":"Feature","geometry":{"type":"LineString","coordinates":[[-102.552784,23.634501000001],[-99.133208000003,19.4326077]]},"properties":[]},{"type":"Feature","geometry":{"type":"LineString","coordinates":[[8.4689460000024,60.472024],[-99.133208000003,19.4326077]]},"properties":[]},{"type":"Feature","geometry":{"type":"LineString","coordinates":[[19.145136,51.919437999998],[-99.133208000003,19.4326077]]},"properties":[]},{"type":"Feature","geometry":{"type":"LineString","coordinates":[[-3.7492200000004,40.463667000002],[-99.133208000003,19.4326077]]},"properties":[]},{"type":"Feature","geometry":{"type":"LineString","coordinates":[[18.643501000001,60.128160999999],[-99.133208000003,19.4326077]]},"properties":[]},{"type":"Feature","geometry":{"type":"LineString","coordinates":[[35.243321999997,38.963745000001],[-99.133208000003,19.4326077]]},"properties":[]},{"type":"Feature","geometry":{"type":"LineString","coordinates":[[-3.4359729999961,55.378051000001],[-99.133208000003,19.4326077]]},"properties":[]},{"type":"Feature","geometry":{"type":"LineString","coordinates":[[-95.712890999999,37.090240000003],[-99.133208000003,19.4326077]]},"properties":[]},{"type":"Feature","geometry":{"type":"LineString","coordinates":[[-63.616672000003,-38.416096999997],[-49.273251500001,-25.428356300003]]},"properties":[]},{"type":"Feature","geometry":{"type":"LineString","coordinates":[[14.550071999996,47.516230999997],[-49.273251500001,-25.428356300003]]},"properties":[]},{"type":"Feature","geometry":{"type":"LineString","coordinates":[[4.4699360000043,50.503887000001],[-49.273251500001,-25.428356300003]]},"properties":[]},{"type":"Feature","geometry":{"type":"LineString","coordinates":[[-51.925279999999,-14.235004],[-49.273251500001,-25.428356300003]]},"properties":[]},{"type":"Feature","geometry":{"type":"LineString","coordinates":[[-106.346771,56.130366000001],[-49.273251500001,-25.428356300003]]},"properties":[]},{"type":"Feature","geometry":{"type":"LineString","coordinates":[[104.195397,35.861660000001],[-49.273251500001,-25.428356300003]]},"properties":[]},{"type":"Feature","geometry":{"type":"LineString","coordinates":[[15.472962000003,49.817492],[-49.273251500001,-25.428356300003]]},"properties":[]},{"type":"Feature","geometry":{"type":"LineString","coordinates":[[9.5017849999985,56.263920000001],[-49.273251500001,-25.428356300003]]},"properties":[]},{"type":"Feature","geometry":{"type":"LineString","coordinates":[[25.013606999999,58.595272000001],[-49.273251500001,-25.428356300003]]},"properties":[]},{"type":"Feature","geometry":{"type":"LineString","coordinates":[[25.748150999997,61.924109999999],[-49.273251500001,-25.428356300003]]},"properties":[]},{"type":"Feature","geometry":{"type":"LineString","coordinates":[[2.2137489999989,46.227638],[-49.273251500001,-25.428356300003]]},"properties":[]},{"type":"Feature","geometry":{"type":"LineString","coordinates":[[10.451526000003,51.165690999999],[-49.273251500001,-25.428356300003]]},"properties":[]},{"type":"Feature","geometry":{"type":"LineString","coordinates":[[19.503303999996,47.162493999998],[-49.273251500001,-25.428356300003]]},"properties":[]},{"type":"Feature","geometry":{"type":"LineString","coordinates":[[78.962879999997,20.593684000004],[-49.273251500001,-25.428356300003]]},"properties":[]},{"type":"Feature","geometry":{"type":"LineString","coordinates":[[12.567380000004,41.871939999999],[-49.273251500001,-25.428356300003]]},"properties":[]},{"type":"Feature","geometry":{"type":"LineString","coordinates":[[127.766922,35.907756999999],[-49.273251500001,-25.428356300003]]},"properties":[]},{"type":"Feature","geometry":{"type":"LineString","coordinates":[[24.603189000003,56.879635000001],[-49.273251500001,-25.428356300003]]},"properties":[]},{"type":"Feature","geometry":{"type":"LineString","coordinates":[[23.881274999999,55.169437999999],[-49.273251500001,-25.428356300003]]},"properties":[]},{"type":"Feature","geometry":{"type":"LineString","coordinates":[[6.129582999999,49.815273000002],[-49.273251500001,-25.428356300003]]},"properties":[]},{"type":"Feature","geometry":{"type":"LineString","coordinates":[[-102.552784,23.634501000001],[-49.273251500001,-25.428356300003]]},"properties":[]},{"type":"Feature","geometry":{"type":"LineString","coordinates":[[7.4246158000028,43.738417600001],[-49.273251500001,-25.428356300003]]},"properties":[]},{"type":"Feature","geometry":{"type":"LineString","coordinates":[[5.2912660000021,52.132633000001],[-49.273251500001,-25.428356300003]]},"properties":[]},{"type":"Feature","geometry":{"type":"LineString","coordinates":[[8.4689460000024,60.472024],[-49.273251500001,-25.428356300003]]},"properties":[]},{"type":"Feature","geometry":{"type":"LineString","coordinates":[[19.145136,51.919437999998],[-49.273251500001,-25.428356300003]]},"properties":[]},{"type":"Feature","geometry":{"type":"LineString","coordinates":[[-8.2244540000027,39.399871999999],[-49.273251500001,-25.428356300003]]},"properties":[]},{"type":"Feature","geometry":{"type":"LineString","coordinates":[[24.966760000001,45.943161000003],[-49.273251500001,-25.428356300003]]},"properties":[]},{"type":"Feature","geometry":{"type":"LineString","coordinates":[[19.699023999996,48.669026],[-49.273251500001,-25.428356300003]]},"properties":[]},{"type":"Feature","geometry":{"type":"LineString","coordinates":[[14.995462999997,46.151240999997],[-49.273251500001,-25.428356300003]]},"properties":[]},{"type":"Feature","geometry":{"type":"LineString","coordinates":[[22.937506000003,-30.559481999999],[-49.273251500001,-25.428356300003]]},"properties":[]},{"type":"Feature","geometry":{"type":"LineString","coordinates":[[-3.7492200000004,40.463667000002],[-49.273251500001,-25.428356300003]]},"properties":[]},{"type":"Feature","geometry":{"type":"LineString","coordinates":[[18.643501000001,60.128160999999],[-49.273251500001,-25.428356300003]]},"properties":[]},{"type":"Feature","geometry":{"type":"LineString","coordinates":[[8.2275120000041,46.818187999999],[-49.273251500001,-25.428356300003]]},"properties":[]},{"type":"Feature","geometry":{"type":"LineString","coordinates":[[120.960515,23.697810000004],[-49.273251500001,-25.428356300003]]},"properties":[]},{"type":"Feature","geometry":{"type":"LineString","coordinates":[[100.992541,15.870032],[-49.273251500001,-25.428356300003]]},"properties":[]},{"type":"Feature","geometry":{"type":"LineString","coordinates":[[35.243321999997,38.963745000001],[-49.273251500001,-25.428356300003]]},"properties":[]},{"type":"Feature","geometry":{"type":"LineString","coordinates":[[-3.4359729999961,55.378051000001],[-49.273251500001,-25.428356300003]]},"properties":[]},{"type":"Feature","geometry":{"type":"LineString","coordinates":[[-95.712890999999,37.090240000003],[-49.273251500001,-25.428356300003]]},"properties":[]},{"type":"Feature","geometry":{"type":"LineString","coordinates":[[133.775136,-25.274397999999],[12.939818999999,57.721034999998]]},"properties":[]},{"type":"Feature","geometry":{"type":"LineString","coordinates":[[14.550071999996,47.516230999997],[12.939818999999,57.721034999998]]},"properties":[]},{"type":"Feature","geometry":{"type":"LineString","coordinates":[[4.4699360000043,50.503887000001],[12.939818999999,57.721034999998]]},"properties":[]},{"type":"Feature","geometry":{"type":"LineString","coordinates":[[-51.925279999999,-14.235004],[12.939818999999,57.721034999998]]},"properties":[]},{"type":"Feature","geometry":{"type":"LineString","coordinates":[[104.195397,35.861660000001],[12.939818999999,57.721034999998]]},"properties":[]},{"type":"Feature","geometry":{"type":"LineString","coordinates":[[15.472962000003,49.817492],[12.939818999999,57.721034999998]]},"properties":[]},{"type":"Feature","geometry":{"type":"LineString","coordinates":[[9.5017849999985,56.263920000001],[12.939818999999,57.721034999998]]},"properties":[]},{"type":"Feature","geometry":{"type":"LineString","coordinates":[[25.013606999999,58.595272000001],[12.939818999999,57.721034999998]]},"properties":[]},{"type":"Feature","geometry":{"type":"LineString","coordinates":[[25.748150999997,61.924109999999],[12.939818999999,57.721034999998]]},"properties":[]},{"type":"Feature","geometry":{"type":"LineString","coordinates":[[2.2137489999989,46.227638],[12.939818999999,57.721034999998]]},"properties":[]},{"type":"Feature","geometry":{"type":"LineString","coordinates":[[10.451526000003,51.165690999999],[12.939818999999,57.721034999998]]},"properties":[]},{"type":"Feature","geometry":{"type":"LineString","coordinates":[[19.503303999996,47.162493999998],[12.939818999999,57.721034999998]]},"properties":[]},{"type":"Feature","geometry":{"type":"LineString","coordinates":[[78.962879999997,20.593684000004],[12.939818999999,57.721034999998]]},"properties":[]},{"type":"Feature","geometry":{"type":"LineString","coordinates":[[12.567380000004,41.871939999999],[12.939818999999,57.721034999998]]},"properties":[]},{"type":"Feature","geometry":{"type":"LineString","coordinates":[[138.252924,36.204824000001],[12.939818999999,57.721034999998]]},"properties":[]},{"type":"Feature","geometry":{"type":"LineString","coordinates":[[127.766922,35.907756999999],[12.939818999999,57.721034999998]]},"properties":[]},{"type":"Feature","geometry":{"type":"LineString","coordinates":[[24.603189000003,56.879635000001],[12.939818999999,57.721034999998]]},"properties":[]},{"type":"Feature","geometry":{"type":"LineString","coordinates":[[23.881274999999,55.169437999999],[12.939818999999,57.721034999998]]},"properties":[]},{"type":"Feature","geometry":{"type":"LineString","coordinates":[[101.975766,4.2104840000023],[12.939818999999,57.721034999998]]},"properties":[]},{"type":"Feature","geometry":{"type":"LineString","coordinates":[[-102.552784,23.634501000001],[12.939818999999,57.721034999998]]},"properties":[]},{"type":"Feature","geometry":{"type":"LineString","coordinates":[[5.2912660000021,52.132633000001],[12.939818999999,57.721034999998]]},"properties":[]},{"type":"Feature","geometry":{"type":"LineString","coordinates":[[8.4689460000024,60.472024],[12.939818999999,57.721034999998]]},"properties":[]},{"type":"Feature","geometry":{"type":"LineString","coordinates":[[19.145136,51.919437999998],[12.939818999999,57.721034999998]]},"properties":[]},{"type":"Feature","geometry":{"type":"LineString","coordinates":[[-8.2244540000027,39.399871999999],[12.939818999999,57.721034999998]]},"properties":[]},{"type":"Feature","geometry":{"type":"LineString","coordinates":[[24.966760000001,45.943161000003],[12.939818999999,57.721034999998]]},"properties":[]},{"type":"Feature","geometry":{"type":"LineString","coordinates":[[105.318756,61.52401],[12.939818999999,57.721034999998]]},"properties":[]},{"type":"Feature","geometry":{"type":"LineString","coordinates":[[103.819836,1.3520830000039],[12.939818999999,57.721034999998]]},"properties":[]},{"type":"Feature","geometry":{"type":"LineString","coordinates":[[14.995462999997,46.151240999997],[12.939818999999,57.721034999998]]},"properties":[]},{"type":"Feature","geometry":{"type":"LineString","coordinates":[[22.937506000003,-30.559481999999],[12.939818999999,57.721034999998]]},"properties":[]},{"type":"Feature","geometry":{"type":"LineString","coordinates":[[-3.7492200000004,40.463667000002],[12.939818999999,57.721034999998]]},"properties":[]},{"type":"Feature","geometry":{"type":"LineString","coordinates":[[18.643501000001,60.128160999999],[12.939818999999,57.721034999998]]},"properties":[]},{"type":"Feature","geometry":{"type":"LineString","coordinates":[[8.2275120000041,46.818187999999],[12.939818999999,57.721034999998]]},"properties":[]},{"type":"Feature","geometry":{"type":"LineString","coordinates":[[120.960515,23.697810000004],[12.939818999999,57.721034999998]]},"properties":[]},{"type":"Feature","geometry":{"type":"LineString","coordinates":[[9.5374989999968,33.886917000001],[12.939818999999,57.721034999998]]},"properties":[]},{"type":"Feature","geometry":{"type":"LineString","coordinates":[[35.243321999997,38.963745000001],[12.939818999999,57.721034999998]]},"properties":[]},{"type":"Feature","geometry":{"type":"LineString","coordinates":[[-3.4359729999961,55.378051000001],[12.939818999999,57.721034999998]]},"properties":[]},{"type":"Feature","geometry":{"type":"LineString","coordinates":[[-95.712890999999,37.090240000003],[12.939818999999,57.721034999998]]},"properties":[]},{"type":"Feature","geometry":{"type":"LineString","coordinates":[[4.4699360000043,50.503887000001],[77.594562700002,12.971598699996]]},"properties":[]},{"type":"Feature","geometry":{"type":"LineString","coordinates":[[104.195397,35.861660000001],[77.594562700002,12.971598699996]]},"properties":[]},{"type":"Feature","geometry":{"type":"LineString","coordinates":[[25.748150999997,61.924109999999],[77.594562700002,12.971598699996]]},"properties":[]},{"type":"Feature","geometry":{"type":"LineString","coordinates":[[78.962879999997,20.593684000004],[77.594562700002,12.971598699996]]},"properties":[]},{"type":"Feature","geometry":{"type":"LineString","coordinates":[[18.643501000001,60.128160999999],[77.594562700002,12.971598699996]]},"properties":[]},{"type":"Feature","geometry":{"type":"LineString","coordinates":[[-3.4359729999961,55.378051000001],[77.594562700002,12.971598699996]]},"properties":[]},{"type":"Feature","geometry":{"type":"LineString","coordinates":[[4.4699360000043,50.503887000001],[-82.691542899999,42.435650400001]]},"properties":[]},{"type":"Feature","geometry":{"type":"LineString","coordinates":[[-51.925279999999,-14.235004],[-82.691542899999,42.435650400001]]},"properties":[]},{"type":"Feature","geometry":{"type":"LineString","coordinates":[[-106.346771,56.130366000001],[-82.691542899999,42.435650400001]]},"properties":[]},{"type":"Feature","geometry":{"type":"LineString","coordinates":[[104.195397,35.861660000001],[-82.691542899999,42.435650400001]]},"properties":[]},{"type":"Feature","geometry":{"type":"LineString","coordinates":[[15.472962000003,49.817492],[-82.691542899999,42.435650400001]]},"properties":[]},{"type":"Feature","geometry":{"type":"LineString","coordinates":[[25.748150999997,61.924109999999],[-82.691542899999,42.435650400001]]},"properties":[]},{"type":"Feature","geometry":{"type":"LineString","coordinates":[[2.2137489999989,46.227638],[-82.691542899999,42.435650400001]]},"properties":[]},{"type":"Feature","geometry":{"type":"LineString","coordinates":[[10.451526000003,51.165690999999],[-82.691542899999,42.435650400001]]},"properties":[]},{"type":"Feature","geometry":{"type":"LineString","coordinates":[[19.503303999996,47.162493999998],[-82.691542899999,42.435650400001]]},"properties":[]},{"type":"Feature","geometry":{"type":"LineString","coordinates":[[12.567380000004,41.871939999999],[-82.691542899999,42.435650400001]]},"properties":[]},{"type":"Feature","geometry":{"type":"LineString","coordinates":[[-102.552784,23.634501000001],[-82.691542899999,42.435650400001]]},"properties":[]},{"type":"Feature","geometry":{"type":"LineString","coordinates":[[5.2912660000021,52.132633000001],[-82.691542899999,42.435650400001]]},"properties":[]},{"type":"Feature","geometry":{"type":"LineString","coordinates":[[19.145136,51.919437999998],[-82.691542899999,42.435650400001]]},"properties":[]},{"type":"Feature","geometry":{"type":"LineString","coordinates":[[-3.7492200000004,40.463667000002],[-82.691542899999,42.435650400001]]},"properties":[]},{"type":"Feature","geometry":{"type":"LineString","coordinates":[[18.643501000001,60.128160999999],[-82.691542899999,42.435650400001]]},"properties":[]},{"type":"Feature","geometry":{"type":"LineString","coordinates":[[8.2275120000041,46.818187999999],[-82.691542899999,42.435650400001]]},"properties":[]},{"type":"Feature","geometry":{"type":"LineString","coordinates":[[120.960515,23.697810000004],[-82.691542899999,42.435650400001]]},"properties":[]},{"type":"Feature","geometry":{"type":"LineString","coordinates":[[-3.4359729999961,55.378051000001],[-82.691542899999,42.435650400001]]},"properties":[]},{"type":"Feature","geometry":{"type":"LineString","coordinates":[[-95.712890999999,37.090240000003],[-82.691542899999,42.435650400001]]},"properties":[]},{"type":"Feature","geometry":{"type":"LineString","coordinates":[[-106.346771,56.130366000001],[-73.887787999997,45.572764900001]]},"properties":[]},{"type":"Feature","geometry":{"type":"LineString","coordinates":[[-95.712890999999,37.090240000003],[-73.887787999997,45.572764900001]]},"properties":[]},{"type":"Feature","geometry":{"type":"LineString","coordinates":[[15.2551187,54.525961399999],[-73.887787999997,45.572764900001]]},"properties":[]},{"type":"Feature","geometry":{"type":"LineString","coordinates":[[-106.346771,56.130366000001],[-73.452912400001,44.699487300001]]},"properties":[]},{"type":"Feature","geometry":{"type":"LineString","coordinates":[[-95.712890999999,37.090240000003],[-73.452912400001,44.699487300001]]},"properties":[]},{"type":"Feature","geometry":{"type":"LineString","coordinates":[[15.2551187,54.525961399999],[-73.452912400001,44.699487300001]]},"properties":[]},{"type":"Feature","geometry":{"type":"LineString","coordinates":[[17.0385376,51.107885199999],[8.4689460000024,60.472024]]},"properties":[]},{"type":"Feature","geometry":{"type":"LineString","coordinates":[[17.0385376,51.107885199999],[18.643501000001,60.128160999999]]},"properties":[]},{"type":"Feature","geometry":{"type":"LineString","coordinates":[[17.0385376,51.107885199999],[10.451526000003,51.165690999999]]},"properties":[]},{"type":"Feature","geometry":{"type":"LineString","coordinates":[[17.0385376,51.107885199999],[8.2275120000041,46.818187999999]]},"properties":[]},{"type":"Feature","geometry":{"type":"LineString","coordinates":[[17.0385376,51.107885199999],[14.550071999996,47.516230999997]]},"properties":[]},{"type":"Feature","geometry":{"type":"LineString","coordinates":[[17.0385376,51.107885199999],[12.567380000004,41.871939999999]]},"properties":[]},{"type":"Feature","geometry":{"type":"LineString","coordinates":[[17.0385376,51.107885199999],[5.2912660000021,52.132633000001]]},"properties":[]},{"type":"Feature","geometry":{"type":"LineString","coordinates":[[17.0385376,51.107885199999],[2.2137489999989,46.227638]]},"properties":[]},{"type":"Feature","geometry":{"type":"LineString","coordinates":[[17.0385376,51.107885199999],[9.5017849999985,56.263920000001]]},"properties":[]},{"type":"Feature","geometry":{"type":"LineString","coordinates":[[17.0385376,51.107885199999],[-102.552784,23.634501000001]]},"properties":[]},{"type":"Feature","geometry":{"type":"LineString","coordinates":[[17.0385376,51.107885199999],[-3.4359729999961,55.378051000001]]},"properties":[]},{"type":"Feature","geometry":{"type":"LineString","coordinates":[[17.0385376,51.107885199999],[25.748150999997,61.924109999999]]},"properties":[]},{"type":"Feature","geometry":{"type":"LineString","coordinates":[[17.0385376,51.107885199999],[-3.7492200000004,40.463667000002]]},"properties":[]},{"type":"Feature","geometry":{"type":"LineString","coordinates":[[17.0385376,51.107885199999],[4.4699360000043,50.503887000001]]},"properties":[]},{"type":"Feature","geometry":{"type":"LineString","coordinates":[[17.0385376,51.107885199999],[15.472962000003,49.817492]]},"properties":[]},{"type":"Feature","geometry":{"type":"LineString","coordinates":[[17.0385376,51.107885199999],[19.145136,51.919437999998]]},"properties":[]},{"type":"Feature","geometry":{"type":"LineString","coordinates":[[17.0385376,51.107885199999],[24.603189000003,56.879635000001]]},"properties":[]},{"type":"Feature","geometry":{"type":"LineString","coordinates":[[17.0385376,51.107885199999],[15.200000000002,45.100000000003]]},"properties":[]},{"type":"Feature","geometry":{"type":"LineString","coordinates":[[17.0385376,51.107885199999],[19.503303999996,47.162493999998]]},"properties":[]},{"type":"Feature","geometry":{"type":"LineString","coordinates":[[17.0385376,51.107885199999],[24.966760000001,45.943161000003]]},"properties":[]},{"type":"Feature","geometry":{"type":"LineString","coordinates":[[17.0385376,51.107885199999],[25.013606999999,58.595272000001]]},"properties":[]},{"type":"Feature","geometry":{"type":"LineString","coordinates":[[12.930107000004,59.132661],[9.5017849999985,56.263920000001]]},"properties":[]},{"type":"Feature","geometry":{"type":"LineString","coordinates":[[12.930107000004,59.132661],[8.4689460000024,60.472024]]},"properties":[]},{"type":"Feature","geometry":{"type":"LineString","coordinates":[[12.930107000004,59.132661],[18.643501000001,60.128160999999]]},"properties":[]},{"type":"Feature","geometry":{"type":"LineString","coordinates":[[-99.133208000003,19.4326077],[-102.552784,23.634501000001]]},"properties":[]},{"type":"Feature","geometry":{"type":"LineString","coordinates":[[-99.133208000003,19.4326077],[-95.712890999999,37.090240000003]]},"properties":[]},{"type":"Feature","geometry":{"type":"LineString","coordinates":[[-49.273251500001,-25.428356300003],[-63.616672000003,-38.416096999997]]},"properties":[]},{"type":"Feature","geometry":{"type":"LineString","coordinates":[[-49.273251500001,-25.428356300003],[-51.925279999999,-14.235004]]},"properties":[]},{"type":"Feature","geometry":{"type":"LineString","coordinates":[[-49.273251500001,-25.428356300003],[-71.542969,-35.675146999998]]},"properties":[]},{"type":"Feature","geometry":{"type":"LineString","coordinates":[[-49.273251500001,-25.428356300003],[-74.297332999997,4.5708679999982]]},"properties":[]},{"type":"Feature","geometry":{"type":"LineString","coordinates":[[-49.273251500001,-25.428356300003],[-83.753427999999,9.7489169999974]]},"properties":[]},{"type":"Feature","geometry":{"type":"LineString","coordinates":[[-49.273251500001,-25.428356300003],[30.802498000002,26.820553000001]]},"properties":[]},{"type":"Feature","geometry":{"type":"LineString","coordinates":[[-49.273251500001,-25.428356300003],[-78.183406000002,-1.8312390000011]]},"properties":[]},{"type":"Feature","geometry":{"type":"LineString","coordinates":[[-49.273251500001,-25.428356300003],[-90.230759000004,15.783470999998]]},"properties":[]},{"type":"Feature","geometry":{"type":"LineString","coordinates":[[-49.273251500001,-25.428356300003],[-102.552784,23.634501000001]]},"properties":[]},{"type":"Feature","geometry":{"type":"LineString","coordinates":[[-49.273251500001,-25.428356300003],[-75.015152,-9.1899670000004]]},"properties":[]},{"type":"Feature","geometry":{"type":"LineString","coordinates":[[-49.273251500001,-25.428356300003],[22.937506000003,-30.559481999999]]},"properties":[]},{"type":"Feature","geometry":{"type":"LineString","coordinates":[[-49.273251500001,-25.428356300003],[-55.765835000003,-32.522779000001]]},"properties":[]},{"type":"Feature","geometry":{"type":"LineString","coordinates":[[12.939818999999,57.721034999998],[133.775136,-25.274397999999]]},"properties":[]},{"type":"Feature","geometry":{"type":"LineString","coordinates":[[12.939818999999,57.721034999998],[4.4699360000043,50.503887000001]]},"properties":[]},{"type":"Feature","geometry":{"type":"LineString","coordinates":[[12.939818999999,57.721034999998],[-51.925279999999,-14.235004]]},"properties":[]},{"type":"Feature","geometry":{"type":"LineString","coordinates":[[12.939818999999,57.721034999998],[-74.297332999997,4.5708679999982]]},"properties":[]},{"type":"Feature","geometry":{"type":"LineString","coordinates":[[12.939818999999,57.721034999998],[30.802498000002,26.820553000001]]},"properties":[]},{"type":"Feature","geometry":{"type":"LineString","coordinates":[[12.939818999999,57.721034999998],[25.748150999997,61.924109999999]]},"properties":[]},{"type":"Feature","geometry":{"type":"LineString","coordinates":[[12.939818999999,57.721034999998],[114.109497,22.396428000004]]},"properties":[]},{"type":"Feature","geometry":{"type":"LineString","coordinates":[[12.939818999999,57.721034999998],[34.851612000002,31.046051]]},"properties":[]},{"type":"Feature","geometry":{"type":"LineString","coordinates":[[12.939818999999,57.721034999998],[-7.0926199999983,31.791702]]},"properties":[]},{"type":"Feature","geometry":{"type":"LineString","coordinates":[[12.939818999999,57.721034999998],[5.2912660000021,52.132633000001]]},"properties":[]},{"type":"Feature","geometry":{"type":"LineString","coordinates":[[12.939818999999,57.721034999998],[174.885971,-40.900556999999]]},"properties":[]},{"type":"Feature","geometry":{"type":"LineString","coordinates":[[12.939818999999,57.721034999998],[8.4689460000024,60.472024]]},"properties":[]},{"type":"Feature","geometry":{"type":"LineString","coordinates":[[12.939818999999,57.721034999998],[-8.2244540000027,39.399871999999]]},"properties":[]},{"type":"Feature","geometry":{"type":"LineString","coordinates":[[12.939818999999,57.721034999998],[103.819836,1.3520830000039]]},"properties":[]},{"type":"Feature","geometry":{"type":"LineString","coordinates":[[12.939818999999,57.721034999998],[22.937506000003,-30.559481999999]]},"properties":[]},{"type":"Feature","geometry":{"type":"LineString","coordinates":[[12.939818999999,57.721034999998],[-3.7492200000004,40.463667000002]]},"properties":[]},{"type":"Feature","geometry":{"type":"LineString","coordinates":[[12.939818999999,57.721034999998],[18.643501000001,60.128160999999]]},"properties":[]},{"type":"Feature","geometry":{"type":"LineString","coordinates":[[12.939818999999,57.721034999998],[120.960515,23.697810000004]]},"properties":[]},{"type":"Feature","geometry":{"type":"LineString","coordinates":[[12.939818999999,57.721034999998],[100.992541,15.870032]]},"properties":[]},{"type":"Feature","geometry":{"type":"LineString","coordinates":[[12.939818999999,57.721034999998],[-3.4359729999961,55.378051000001]]},"properties":[]},{"type":"Feature","geometry":{"type":"LineString","coordinates":[[12.939818999999,57.721034999998],[104.195397,35.861660000001]]},"properties":[]},{"type":"Feature","geometry":{"type":"LineString","coordinates":[[12.939818999999,57.721034999998],[78.962879999997,20.593684000004]]},"properties":[]},{"type":"Feature","geometry":{"type":"LineString","coordinates":[[12.939818999999,57.721034999998],[53.688046000001,32.427908000001]]},"properties":[]},{"type":"Feature","geometry":{"type":"LineString","coordinates":[[12.939818999999,57.721034999998],[-102.552784,23.634501000001]]},"properties":[]},{"type":"Feature","geometry":{"type":"LineString","coordinates":[[12.939818999999,57.721034999998],[-7.0926199999983,31.791702]]},"properties":[]},{"type":"Feature","geometry":{"type":"LineString","coordinates":[[12.939818999999,57.721034999998],[19.145136,51.919437999998]]},"properties":[]},{"type":"Feature","geometry":{"type":"LineString","coordinates":[[12.939818999999,57.721034999998],[22.937506000003,-30.559481999999]]},"properties":[]},{"type":"Feature","geometry":{"type":"LineString","coordinates":[[12.939818999999,57.721034999998],[100.992541,15.870032]]},"properties":[]},{"type":"Feature","geometry":{"type":"LineString","coordinates":[[12.939818999999,57.721034999998],[9.5374989999968,33.886917000001]]},"properties":[]},{"type":"Feature","geometry":{"type":"LineString","coordinates":[[77.594562700002,12.971598699996],[14.550071999996,47.516230999997]]},"properties":[]},{"type":"Feature","geometry":{"type":"LineString","coordinates":[[77.594562700002,12.971598699996],[78.962879999997,20.593684000004]]},"properties":[]},{"type":"Feature","geometry":{"type":"LineString","coordinates":[[77.594562700002,12.971598699996],[22.937506000003,-30.559481999999]]},"properties":[]},{"type":"Feature","geometry":{"type":"LineString","coordinates":[[-82.691542899999,42.435650400001],[-106.346771,56.130366000001]]},"properties":[]},{"type":"Feature","geometry":{"type":"LineString","coordinates":[[-82.691542899999,42.435650400001],[-95.712890999999,37.090240000003]]},"properties":[]},{"type":"Feature","geometry":{"type":"LineString","coordinates":[[-73.887787999997,45.572764900001],[-106.346771,56.130366000001]]},"properties":[]},{"type":"Feature","geometry":{"type":"LineString","coordinates":[[-73.452912400001,44.699487300001],[-95.712890999999,37.090240000003]]},"properties":[]}],"properties":{"title":"Volvo Bus All","description":"","tags":""}}