{"supplychain":{"category":null,"created":1337578844,"enable_comments":true,"flags":0,"id":3087,"modified":1337579080,"other_perms":1,"passcode":null,"user_featured":false,"usergroup_id":null,"usergroup_perms":0,"user_id":2114,"owner":{"id":2114,"name":"keiji.mespomer","avatar":"http:\/\/free.sourcemap.com\/assets\/images\/default-user.png","banner_url":null,"display_name":null},"taxonomy":null,"attributes":{"description":"","tags":"","title":"all2","sm:ui:weight":"1"},"stops":[{"local_stop_id":247,"id":247,"geometry":"POINT(1896721.329494 6640399.598409)","attributes":{"title":"Wroclaw: Material Purchasing Price - 930 (MSEK)","placename":"Wroc\u0142aw, Poland","address":"Wroclaw, Poland","description":"Inbound (MSEK)"}},{"local_stop_id":246,"id":246,"geometry":"POINT(2075385.037924 8428326.96544)","attributes":{"title":"Sweden: 406118.9, 43.69\uff05","placename":"Sweden","address":"Sweden","description":"Material Price (TSEK)","size":"44"}},{"local_stop_id":245,"id":245,"geometry":"POINT(2131226.790688 6785571.898792)","attributes":{"title":"Poland: 258208.3, 27.77\uff05","placename":"Poland","address":"Poland","description":"Material Price (TSEK)","size":"28"}},{"local_stop_id":244,"id":244,"geometry":"POINT(1163458.552333 6650655.041174)","attributes":{"title":"Germany: 134142.4, 14.43\uff05","placename":"Germany","address":"Germany","description":"Material Price (TSEK)","size":"14"}},{"local_stop_id":243,"id":243,"geometry":"POINT(2866271.058188 8841170.394214)","attributes":{"title":"Finland: 49413.2, 5.32\uff05","placename":"Finland","address":"Finland","description":"Material Price (TSEK)","size":"5"}},{"local_stop_id":242,"id":242,"geometry":"POINT(1398994.342206 5141815.937641)","attributes":{"title":"Italy: 15998.9, 1.72\uff05","placename":"Italy","address":"Italy","description":"Material Price (TSEK)","size":"2"}},{"local_stop_id":241,"id":241,"geometry":"POINT(246433.411424 5816903.713427)","attributes":{"title":"France: 12319.6, 1.33\uff05","placename":"France","address":"France","description":"Material Price (TSEK)","size":"1"}},{"local_stop_id":240,"id":240,"geometry":"POINT(942758.756276 8505587.038689)","attributes":{"title":"Norway: 12252.6, 1.32\uff05","placename":"Norway","address":"Norway","description":"Material Price (TSEK)","size":"1"}},{"local_stop_id":239,"id":239,"geometry":"POINT(497590.999399 6534001.856289)","attributes":{"title":"Belgium: 11809.3, 1.27\uff05","placename":"Belgium","address":"Belgium","description":"Material Price (TSEK)","size":"1"}},{"local_stop_id":238,"id":238,"geometry":"POINT(3923268.658903 4716479.684629)","attributes":{"title":"Turkey: 4618.5, 0.5\uff05","placename":"Turkey","address":"Turkey","description":"Material Price (TSEK)","size":"1"}},{"local_stop_id":237,"id":237,"geometry":"POINT(1057733.867827 7611135.068229)","attributes":{"title":"Denmark: 4122.6, 0.44\uff05","placename":"Denmark","address":"Denmark","description":"Material Price (TSEK)","size":"0"}},{"local_stop_id":236,"id":236,"geometry":"POINT(589021.036772 6824142.821624)","attributes":{"title":"Netherlands: 3922.7, 0.42\uff05","placename":"The Netherlands","address":"Netherlands","description":"Material Price (TSEK)","size":"0"}},{"local_stop_id":235,"id":235,"geometry":"POINT(2171097.870066 5968637.679129)","attributes":{"title":"Hungary: 3879.1, 0.42\uff05","placename":"Hungary","address":"Hungary","description":"Material Price (TSEK)","size":"0"}},{"local_stop_id":234,"id":234,"geometry":"POINT(915882.446336 5912448.054871)","attributes":{"title":"Switzerland: 3564.3, 0.38\uff05","placename":"Switzerland","address":"Switzerland","description":"Material Price (TSEK)","size":"0"}},{"local_stop_id":233,"id":233,"geometry":"POINT(-417361.261272 4933551.652462)","attributes":{"title":"Spain: 2535.6, 0.27\uff05","placename":"Spain","address":"Spain","description":"Material Price (TSEK)","size":"0"}},{"local_stop_id":232,"id":232,"geometry":"POINT(-382490.764739 7435586.530983)","attributes":{"title":"Great Britain: 2262.1, 0.24\uff05","placename":"United Kingdom","address":"Great Britain","description":"Material Price (TSEK)","size":"0"}},{"local_stop_id":231,"id":231,"geometry":"POINT(1619706.606045 6026746.974644)","attributes":{"title":"Austria: 1290.4, 0.14\uff05","placename":"Austria","address":"Austria","description":"Material Price (TSEK)","size":"0"}},{"local_stop_id":230,"id":230,"geometry":"POINT(11598978.537043 4281602.659627)","attributes":{"title":"China: 935.2, 0.1\uff05","placename":"China","address":"China","description":"Material Price (TSEK)","size":"0"}},{"local_stop_id":229,"id":229,"geometry":"POINT(682342.058335 6414345.6274)","attributes":{"title":"Luxembourg: 874.8, 0.09\uff05","placename":"Luxembourg","address":"Luxembourg","description":"Material Price (TSEK)","size":"0"}},{"local_stop_id":228,"id":228,"geometry":"POINT(2784501.994143 8093419.123256)","attributes":{"title":"Estonia: 429.5, 0.05\uff05","placename":"Estonia","address":"Estonia","description":"Material Price (TSEK)","size":"0"}},{"local_stop_id":227,"id":227,"geometry":"POINT(1722442.250904 6414728.45895)","attributes":{"title":"Czech Republic: 313.2, 0.03\uff05","placename":"Czech Republic","address":"Czech Republic","description":"Material Price (TSEK)","size":"0"}},{"local_stop_id":226,"id":226,"geometry":"POINT(8790107.59317 2343495.165705)","attributes":{"title":"India: 242.2, 0.03\uff05","placename":"India","address":"India","description":"Material Price (TSEK)","size":"0"}},{"local_stop_id":225,"id":225,"geometry":"POINT(11351890.344374 469131.367658)","attributes":{"title":"Malaysia: 161.8, 0.02\uff05","placename":"Malaysia","address":"Malaysia","description":"Material Price (TSEK)","size":"0"}},{"local_stop_id":224,"id":224,"geometry":"POINT(-915542.031333 4779112.741647)","attributes":{"title":"Portugal: 127.6, 0.01\uff05","placename":"Portugal","address":"Portugal","description":"Material Price (TSEK)","size":"0"}},{"local_stop_id":223,"id":223,"geometry":"POINT(-10654710.288472 4451692.554811)","attributes":{"title":"United States of America: 75.5, 0.01\uff05","placename":"United States","address":"United States of America","description":"Material Price (TSEK)","size":"0"}},{"local_stop_id":222,"id":222,"geometry":"POINT(2779287.009958 5771245.404432)","attributes":{"title":"Romania: 21, 0\uff05","placename":"Romania","address":"Romania","description":"Material Price (TSEK)","size":"0"}},{"local_stop_id":221,"id":221,"geometry":"POINT(2658451.372494 7394820.260241)","attributes":{"title":"Lithuania: 3.9, 0\uff05","placename":"Lithuania","address":"Lithuania","description":"Material Price (TSEK)","size":"0"}},{"local_stop_id":220,"id":220,"geometry":"POINT(1439372.927143 8209115.431399)","attributes":{"title":"Saffle: 69 MSEK","placename":"S\u00e4ffle, Sweden","address":"Saffle, Sweden","description":"Inbound (MSEK)","size":"100"}},{"local_stop_id":219,"id":219,"geometry":"POINT(1163458.552333 6650655.041174)","attributes":{"title":"Germany: 6900TSEK, 10%","placename":"Germany","address":"Germany","description":"Material Price (TSEK)","size":"10"}},{"local_stop_id":218,"id":218,"geometry":"POINT(2131226.790688 6785571.898792)","attributes":{"title":"Poland: 41400TSEK, 60%","placename":"Poland","address":"Poland","description":"Material Price (TSEK)","size":"60"}},{"local_stop_id":217,"id":217,"geometry":"POINT(2075385.037924 8428326.96544)","attributes":{"title":"Sweden: 20700 TSEK, 30%","placename":"Sweden","address":"Sweden","description":"Material Price (TSEK)","size":"30"}},{"local_stop_id":216,"id":216,"geometry":"POINT(-11035458.235264 2205935.269899)","attributes":{"title":"Mexico CIty: Material Price - 872 (MSEK)","placename":"Mexico City, Distrito Federal, Mexico","address":"Mexico City, Mexico","description":"Inbound (MEK)","size":"100"}},{"local_stop_id":215,"id":215,"geometry":"POINT(-7081775.533003 -4638374.275084)","attributes":{"title":"Argentina: 31TSEK, 0%","placename":"Argentina","address":"Argentina","description":"Material Price (TSEK)","size":"0"}},{"local_stop_id":214,"id":214,"geometry":"POINT(497590.999399 6534001.856289)","attributes":{"title":"Belgium: 82TSEK, 0%","placename":"Belgium","address":"Belgium","description":"Material Price (TSEK)","size":"0"}},{"local_stop_id":213,"id":213,"geometry":"POINT(-5780295.728898 -1601191.813438)","attributes":{"title":"Brazil: 26025TSEK, 3%","placename":"Brazil","address":"Brazil","description":"Material Price (TSEK)","size":"3"}},{"local_stop_id":212,"id":212,"geometry":"POINT(-11838468.395229 7584411.732747)","attributes":{"title":"Canada: 93TSEK, 0%","placename":"Canada","address":"Canada","description":"Material Price (TSEK)","size":"0"}},{"local_stop_id":211,"id":211,"geometry":"POINT(11598978.537043 4281602.659627)","attributes":{"title":"China: 201TSEK, 0%","placename":"China","address":"China","description":"Material Price (TSEK)","size":"0"}},{"local_stop_id":210,"id":210,"geometry":"POINT(1057733.867827 7611135.068229)","attributes":{"title":"Denmark: 9TSEK, 0%","placename":"Denmark","address":"Denmark","description":"Material Price (TSEK)","size":"0"}},{"local_stop_id":209,"id":209,"geometry":"POINT(2784501.994143 8093419.123256)","attributes":{"title":"Estonia: 268TSEK, 0%","placename":"Estonia","address":"Estonia","description":"Material Price (TSEK)","size":"0"}},{"local_stop_id":208,"id":208,"geometry":"POINT(2866271.058188 8841170.394214)","attributes":{"title":"Finland: 18635TSEK, 2.1%","placename":"Finland","address":"Finland","description":"Material Price (TSEK)","size":"2"}},{"local_stop_id":207,"id":207,"geometry":"POINT(246433.411424 5816903.713427)","attributes":{"title":"France: 579TSEK, 0.1%","placename":"France","address":"France","description":"Material Price (TSEK)","size":"0"}},{"local_stop_id":206,"id":206,"geometry":"POINT(1163458.552333 6650655.041174)","attributes":{"title":"Germany: 17016TSEK, 2%","placename":"Germany","address":"Germany","description":"Material Price (TSEK)","size":"2"}},{"local_stop_id":205,"id":205,"geometry":"POINT(1398994.342206 5141815.937641)","attributes":{"title":"Italy: 3873TSEK, 0.4%","placename":"Italy","address":"Italy","description":"Material Price (TSEK)","size":"0"}},{"local_stop_id":204,"id":204,"geometry":"POINT(11351890.344374 469131.367658)","attributes":{"title":"Malaysia: 116TSEK, 0%","placename":"Malaysia","address":"Malaysia","description":"Material Price (TSEK)","size":"0"}},{"local_stop_id":203,"id":203,"geometry":"POINT(-11416123.694313 2708933.292233)","attributes":{"title":"Mexico: 383621TSEK, 44%","placename":"Mexico","address":"Mexico","description":"Material Price (TSEK)","size":"44"}},{"local_stop_id":202,"id":202,"geometry":"POINT(942758.756276 8505587.038689)","attributes":{"title":"Norway: 136TSEK, 0%","placename":"Norway","address":"Norway","description":"Material Price (TSEK)","size":"0"}},{"local_stop_id":201,"id":201,"geometry":"POINT(2131226.790688 6785571.898792)","attributes":{"title":"Poland: 5622TSEK, 0.6%","placename":"Poland","address":"Poland","description":"Material Price (TSEK)","size":"1"}},{"local_stop_id":200,"id":200,"geometry":"POINT(-417361.261272 4933551.652462)","attributes":{"title":"Spain: 4073TSEK, 0.5%","placename":"Spain","address":"Spain","description":"Material Price (TSEK)","size":"0"}},{"local_stop_id":199,"id":199,"geometry":"POINT(2075385.037924 8428326.96544)","attributes":{"title":"Sweden: 364541TSEK, 41.8%","placename":"Sweden","address":"Sweden","description":"Material Price (TSEK)","size":"42"}},{"local_stop_id":198,"id":198,"geometry":"POINT(3923268.658903 4716479.684629)","attributes":{"title":"Turkey: 12423TSEK, 1.4%","placename":"Turkey","address":"Turkey","description":"Material Price (TSEK)","size":"1"}},{"local_stop_id":197,"id":197,"geometry":"POINT(-382490.764739 7435586.530983)","attributes":{"title":"UK: 19494TSEK, 2.2%","placename":"United Kingdom","address":"United Kingdom","description":"Material Price (TSEK)","size":"2"}},{"local_stop_id":196,"id":196,"geometry":"POINT(-10654710.288472 4451692.554811)","attributes":{"title":"USA: 14910TSEK, 1.7%","placename":"United States","address":"United States of America","description":"Material Price (TSEK)","size":"2"}},{"local_stop_id":195,"id":195,"geometry":"POINT(-5485073.266709 -2928450.962028)","attributes":{"title":"Curitiba: Material Price - 1223 (MSEK)","placename":"Curitiba - Paran\u00e1, Brazil","address":"Curitiba, Brazil","description":"Inbound (MEK)","size":"100"}},{"local_stop_id":194,"id":194,"geometry":"POINT(-7081775.533003 -4638374.275084)","attributes":{"title":"Argentina: 7603TSEK, 0.6%","placename":"Argentina","address":"Argentina","description":"Material Price (TSEK)","size":"1"}},{"local_stop_id":193,"id":193,"geometry":"POINT(1619706.606045 6026746.974644)","attributes":{"title":"Austria: 1570TSEK, 0.1%","placename":"Austria","address":"Austria","description":"Material Price (TSEK)","size":"0"}},{"local_stop_id":192,"id":192,"geometry":"POINT(497590.999399 6534001.856289)","attributes":{"title":"Belgium: 16978TSEK, 1.4%","placename":"Belgium","address":"Belgium","description":"Material Price (TSEK)","size":"1"}},{"local_stop_id":191,"id":191,"geometry":"POINT(-5780295.728898 -1601191.813438)","attributes":{"title":"Brazil: 797195TSEK, 65.2%","placename":"Brazil","address":"Brazil","description":"Material Price (TSEK)","size":"65"}},{"local_stop_id":190,"id":190,"geometry":"POINT(-11838468.395229 7584411.732747)","attributes":{"title":"Canada: 143TSEK, 0%","placename":"Canada","address":"Canada","description":"Material Price (TSEK)","size":"0"}},{"local_stop_id":189,"id":189,"geometry":"POINT(11598978.537043 4281602.659627)","attributes":{"title":"China: 587TSEK, 0%","placename":"China","address":"China","description":"Material Price (TSEK)","size":"0"}},{"local_stop_id":188,"id":188,"geometry":"POINT(1722442.250904 6414728.45895)","attributes":{"title":"Czech Republic: 4229TSEK, 0.3%","placename":"Czech Republic","address":"Czech Republic","description":"Material Price (TSEK)","size":"0"}},{"local_stop_id":187,"id":187,"geometry":"POINT(1057733.867827 7611135.068229)","attributes":{"title":"Denmark: 1127TSEK, 0.1%","placename":"Denmark","address":"Denmark","description":"Material Price (TSEK)","size":"0"}},{"local_stop_id":186,"id":186,"geometry":"POINT(2784501.994143 8093419.123256)","attributes":{"title":"Estonia: 3264TSEK, 0.3%","placename":"Estonia","address":"Estonia","description":"Material Price (TSEK)","size":"0"}},{"local_stop_id":185,"id":185,"geometry":"POINT(2866271.058188 8841170.394214)","attributes":{"title":"Finland: 1156TSEK, 0.1%","placename":"Finland","address":"Finland","description":"Material Price (TSEK)","size":"0"}},{"local_stop_id":184,"id":184,"geometry":"POINT(246433.411424 5816903.713427)","attributes":{"title":"France: 94167TSEK, 7.7%","placename":"France","address":"France","description":"Material Price (TSEK)","size":"8"}},{"local_stop_id":183,"id":183,"geometry":"POINT(1163458.552333 6650655.041174)","attributes":{"title":"Germany: 89046TSEK, 7.3%","placename":"Germany","address":"Germany","description":"Material Price (TSEK)","size":"7"}},{"local_stop_id":182,"id":182,"geometry":"POINT(2171097.870066 5968637.679129)","attributes":{"title":"Hungary: 4904TSEK, 0.4%","placename":"Hungary","address":"Hungary","description":"Material Price (TSEK)","size":"0"}},{"local_stop_id":181,"id":181,"geometry":"POINT(8790107.59317 2343495.165705)","attributes":{"title":"India: 6203TSEK, 0.5%","placename":"India","address":"India","description":"Material Price (TSEK)","size":"1"}},{"local_stop_id":180,"id":180,"geometry":"POINT(1398994.342206 5141815.937641)","attributes":{"title":"Italy: 8090TSEK, 0.7%","placename":"Italy","address":"Italy","description":"Material Price (TSEK)","size":"1"}},{"local_stop_id":179,"id":179,"geometry":"POINT(14222948.697264 4287936.289399)","attributes":{"title":"South Korea: 398TSEK, 0%","placename":"South Korea","address":"South Korea","description":"Material Price (TSEK)","size":"0"}},{"local_stop_id":178,"id":178,"geometry":"POINT(2738814.471371 7735556.799888)","attributes":{"title":"Latvia: 45TSEK, 0%","placename":"Latvia","address":"Latvia","description":"Material Price (TSEK)","size":"0"}},{"local_stop_id":177,"id":177,"geometry":"POINT(2658451.372494 7394820.260241)","attributes":{"title":"Lithuania: 147TSEK, 0%","placename":"Lithuania","address":"Lithuania","description":"Material Price (TSEK)","size":"0"}},{"local_stop_id":176,"id":176,"geometry":"POINT(682342.058335 6414345.6274)","attributes":{"title":"Luxembourg: 3TSEK, 0%","placename":"Luxembourg","address":"Luxembourg","description":"Material Price (TSEK)","size":"0"}},{"local_stop_id":175,"id":175,"geometry":"POINT(-11416123.694313 2708933.292233)","attributes":{"title":"Mexico: 656TSEK, 0.1%","placename":"Mexico","address":"Mexico","description":"Material Price (TSEK)","size":"0"}},{"local_stop_id":174,"id":174,"geometry":"POINT(826504.450192 5425050.538922)","attributes":{"title":"Monaco: 562TSEK, 0%","placename":"Monaco","address":"Monaco","description":"Material Price (TSEK)","size":"0"}},{"local_stop_id":173,"id":173,"geometry":"POINT(589021.036772 6824142.821624)","attributes":{"title":"Netherlands: 8546TSEK, 0.7%","placename":"The Netherlands","address":"Netherlands","description":"Material Price (TSEK)","size":"1"}},{"local_stop_id":172,"id":172,"geometry":"POINT(942758.756276 8505587.038689)","attributes":{"title":"Norway: 13648TSEK, 1.1%","placename":"Norway","address":"Norway","description":"Material Price (TSEK)","size":"1"}},{"local_stop_id":171,"id":171,"geometry":"POINT(2131226.790688 6785571.898792)","attributes":{"title":"Poland: 9972TSEK, 0.8%","placename":"Poland","address":"Poland","description":"Material Price (TSEK)","size":"1"}},{"local_stop_id":170,"id":170,"geometry":"POINT(-915542.031333 4779112.741647)","attributes":{"title":"Portugal: 4360TSEK, 0.4%","placename":"Portugal","address":"Portugal","description":"Material Price (TSEK)","size":"0"}},{"local_stop_id":169,"id":169,"geometry":"POINT(2779287.009958 5771245.404432)","attributes":{"title":"Romania: 377TSEK, 0%","placename":"Romania","address":"Romania","description":"Material Price (TSEK)","size":"0"}},{"local_stop_id":168,"id":168,"geometry":"POINT(2192885.320804 6218887.493883)","attributes":{"title":"Slovakia: 538TSEK, 0%","placename":"Slovakia","address":"Slovakia","description":"Material Price (TSEK)","size":"0"}},{"local_stop_id":167,"id":167,"geometry":"POINT(1669287.305369 5804618.909739)","attributes":{"title":"Slovenia: 253TSEK, 0%","placename":"Slovenia","address":"Slovenia","description":"Material Price (TSEK)","size":"0"}},{"local_stop_id":166,"id":166,"geometry":"POINT(2553391.487988 -3575670.675527)","attributes":{"title":"South Africa: 449TSEK, 0%","placename":"South Africa","address":"South Africa","description":"Material Price (TSEK)","size":"0"}},{"local_stop_id":165,"id":165,"geometry":"POINT(-417361.261272 4933551.652462)","attributes":{"title":"Spain: 8903TSEK, 0.7%","placename":"Spain","address":"Spain","description":"Material Price (TSEK)","size":"1"}},{"local_stop_id":164,"id":164,"geometry":"POINT(2075385.037924 8428326.96544)","attributes":{"title":"Sweden: 96029TSEK, 7.9%","placename":"Sweden","address":"Sweden","description":"Material Price (TSEK)","size":"8"}},{"local_stop_id":163,"id":163,"geometry":"POINT(915882.446336 5912448.054871)","attributes":{"title":"Switzerland: 34TSEK, 0%","placename":"Switzerland","address":"Switzerland","description":"Material Price (TSEK)","size":"0"}},{"local_stop_id":162,"id":162,"geometry":"POINT(13465262.935892 2716627.939237)","attributes":{"title":"Taiwan: 653TSEK, 0.1%","placename":"Taiwan","address":"Taiwan","description":"Material Price (TSEK)","size":"0"}},{"local_stop_id":161,"id":161,"geometry":"POINT(11242438.238039 1789676.623494)","attributes":{"title":"Thailand: 164TSEK, 0%","placename":"Thailand","address":"Thailand","description":"Material Price (TSEK)","size":"0"}},{"local_stop_id":160,"id":160,"geometry":"POINT(3923268.658903 4716479.684629)","attributes":{"title":"Turkey: 2743TSEK, 0.2%","placename":"Turkey","address":"Turkey","description":"Material Price (TSEK)","size":"0"}},{"local_stop_id":159,"id":159,"geometry":"POINT(-382490.764739 7435586.530983)","attributes":{"title":"United Kingdom: 34856TSEK, 2.8%","placename":"United Kingdom","address":"United Kingdom","description":"Material Price (TSEK)","size":"3"}},{"local_stop_id":158,"id":158,"geometry":"POINT(-10654710.288472 4451692.554811)","attributes":{"title":"United States of America: 3648TSEK, 0.3%","placename":"United States","address":"United States of America","description":"Material Price (TSEK)","size":"0"}},{"local_stop_id":157,"id":157,"geometry":"POINT(1440454.062037 7908942.597708)","attributes":{"title":"Boras: Material Purchasing Price - 3663 (MSEK)","placename":"Bor\u00e5s, Sweden","address":"Boras, Sweden","description":"Inbound (MEK)","size":"100"}},{"local_stop_id":156,"id":156,"geometry":"POINT(14891780.020321 -2909486.054997)","attributes":{"title":"Australia: 13839TSEK, 0.38%","placename":"Australia","address":"Australia","description":"Material Price (TSEK)","size":"0.38"}},{"local_stop_id":155,"id":155,"geometry":"POINT(1619706.606045 6026746.974644)","attributes":{"title":"Austria: 7931TSEK, 0.22%","placename":"Austria","address":"Austria","description":"Material Price (TSEK)","size":"0.22"}},{"local_stop_id":154,"id":154,"geometry":"POINT(497590.999399 6534001.856289)","attributes":{"title":"Belgium: 204771TSEK, 5.59%","placename":"Belgium","address":"Belgium","description":"Material Price (TSEK)","size":"5.59"}},{"local_stop_id":153,"id":153,"geometry":"POINT(-5780295.728898 -1601191.813438)","attributes":{"title":"Brazil: 32067TSEK, 0.88%","placename":"Brazil","address":"Brazil","description":"Material Price (TSEK)","size":"0.88"}},{"local_stop_id":152,"id":152,"geometry":"POINT(11598978.537043 4281602.659627)","attributes":{"title":"China: 16787TSEK, 0.46%","placename":"China","address":"China","description":"Material Price (TSEK)","size":"0.46"}},{"local_stop_id":151,"id":151,"geometry":"POINT(1722442.250904 6414728.45895)","attributes":{"title":"Czech Rep.: 16379TSEK, 0.45%","placename":"Czech Republic","address":"Czech Republic","description":"Material Price (TSEK)","size":"0.45"}},{"local_stop_id":150,"id":150,"geometry":"POINT(1057733.867827 7611135.068229)","attributes":{"title":"Denmark: 4907TSEK, 0.13%","placename":"Denmark","address":"Denmark","description":"Material Price (TSEK)","size":"0.13"}},{"local_stop_id":149,"id":149,"geometry":"POINT(2784501.994143 8093419.123256)","attributes":{"title":"Estonia: 38201TSEK, 1.04%","placename":"Estonia","address":"Estonia","description":"Material Price (TSEK)","size":"1.04"}},{"local_stop_id":148,"id":148,"geometry":"POINT(2866271.058188 8841170.394214)","attributes":{"title":"Finland: 41933TSEK, 1.14%","placename":"Finland","address":"Finland","description":"Material Price (TSEK)","size":"1.14"}},{"local_stop_id":147,"id":147,"geometry":"POINT(246433.411424 5816903.713427)","attributes":{"title":"France: 115078TSEK, 3.14%","placename":"France","address":"France","description":"Material Price (TSEK)","size":"3.14"}},{"local_stop_id":146,"id":146,"geometry":"POINT(1163458.552333 6650655.041174)","attributes":{"title":"Germany: 544251TSEK, 14.86%","placename":"Germany","address":"Germany","description":"Material Price (TSEK)","size":"14.86"}},{"local_stop_id":145,"id":145,"geometry":"POINT(2171097.870066 5968637.679129)","attributes":{"title":"Hungary: 12205TSEK, 0.33%","placename":"Hungary","address":"Hungary","description":"Material Price (TSEK)","size":"0.33"}},{"local_stop_id":144,"id":144,"geometry":"POINT(8790107.59317 2343495.165705)","attributes":{"title":"India: 9904TSEK, 0.27%","placename":"India","address":"India","description":"Material Price (TSEK)","size":"0.27"}},{"local_stop_id":143,"id":143,"geometry":"POINT(1398994.342206 5141815.937641)","attributes":{"title":"Italy: 80629TSEK, 2.2%","placename":"Italy","address":"Italy","description":"Material Price (TSEK)","size":"2.2"}},{"local_stop_id":142,"id":142,"geometry":"POINT(15390245.100361 4328841.562513)","attributes":{"title":"Japan: 41TSEK, 0%","placename":"Japan","address":"Japan","description":"Material Price (TSEK)","size":"0"}},{"local_stop_id":141,"id":141,"geometry":"POINT(14222948.697264 4287936.289399)","attributes":{"title":"South Korea: 735TSEK, 0.02%","placename":"South Korea","address":"South Korea","description":"Material Price (TSEK)","size":"0.02"}},{"local_stop_id":140,"id":140,"geometry":"POINT(2738814.471371 7735556.799888)","attributes":{"title":"Latvia: 8096TSEK, 0.22%","placename":"Latvia","address":"Latvia","description":"Material Price (TSEK)","size":"0.22"}},{"local_stop_id":139,"id":139,"geometry":"POINT(2658451.372494 7394820.260241)","attributes":{"title":"Lithuania: 293630TSEK, 8.02%","placename":"Lithuania","address":"Lithuania","description":"Material Price (TSEK)","size":"8.02"}},{"local_stop_id":138,"id":138,"geometry":"POINT(11351890.344374 469131.367658)","attributes":{"title":"Malaysia: 8039TSEK, 0.22%","placename":"Malaysia","address":"Malaysia","description":"Material Price (TSEK)","size":"0.22"}},{"local_stop_id":137,"id":137,"geometry":"POINT(-11416123.694313 2708933.292233)","attributes":{"title":"Mexico: 76TSEK, 0%","placename":"Mexico","address":"Mexico","description":"Material Price (TSEK)","size":"0"}},{"local_stop_id":136,"id":136,"geometry":"POINT(589021.036772 6824142.821624)","attributes":{"title":"Netherlands: 13218TSEK, 0.36%","placename":"The Netherlands","address":"Netherlands","description":"Material Price (TSEK)","size":"0.36"}},{"local_stop_id":135,"id":135,"geometry":"POINT(942758.756276 8505587.038689)","attributes":{"title":"Norway: 16830TSEK, 0.46%","placename":"Norway","address":"Norway","description":"Material Price (TSEK)","size":"0.46"}},{"local_stop_id":134,"id":134,"geometry":"POINT(2131226.790688 6785571.898792)","attributes":{"title":"Poland: 10140TSEK, 0.28%","placename":"Poland","address":"Poland","description":"Material Price (TSEK)","size":"0.28"}},{"local_stop_id":133,"id":133,"geometry":"POINT(-915542.031333 4779112.741647)","attributes":{"title":"Portugal: 138TSEK, 0%","placename":"Portugal","address":"Portugal","description":"Material Price (TSEK)","size":"0"}},{"local_stop_id":132,"id":132,"geometry":"POINT(2779287.009958 5771245.404432)","attributes":{"title":"Romania: 2828TSEK, 0.08%","placename":"Romania","address":"Romania","description":"Material Price (TSEK)","size":"0.08"}},{"local_stop_id":131,"id":131,"geometry":"POINT(11724030.288901 8747149.04879)","attributes":{"title":"Russia: 9658TSEK, 0.26%","placename":"Russia","address":"Russia","description":"Material Price (TSEK)","size":"0.26"}},{"local_stop_id":130,"id":130,"geometry":"POINT(11557171.277761 150527.162641)","attributes":{"title":"Singapore: 26TSEK, 0%","placename":"Singapore","address":"Singapore","description":"Material Price (TSEK)","size":"0"}},{"local_stop_id":129,"id":129,"geometry":"POINT(1669287.305369 5804618.909739)","attributes":{"title":"Slovenia: 11317TSEK, 0.31%","placename":"Slovenia","address":"Slovenia","description":"Material Price (TSEK)","size":"0.31"}},{"local_stop_id":128,"id":128,"geometry":"POINT(2553391.487988 -3575670.675527)","attributes":{"title":"South Africa: 54966TSEK, 1.5%","placename":"South Africa","address":"South Africa","description":"Material Price (TSEK)","size":"1.5"}},{"local_stop_id":127,"id":127,"geometry":"POINT(-417361.261272 4933551.652462)","attributes":{"title":"Spain: 22306TSEK, 0.61%","placename":"Spain","address":"Spain","description":"Material Price (TSEK)","size":"0.61"}},{"local_stop_id":126,"id":126,"geometry":"POINT(2075385.037924 8428326.96544)","attributes":{"title":"Sweden: 1922238TSEK, 52.48%","placename":"Sweden","address":"Sweden","description":"Material Price (TSEK)","size":"52.48"}},{"local_stop_id":125,"id":125,"geometry":"POINT(915882.446336 5912448.054871)","attributes":{"title":"Switzerland: 1532TSEK, 0.04%","placename":"Switzerland","address":"Switzerland","description":"Material Price (TSEK)","size":"0.04"}},{"local_stop_id":124,"id":124,"geometry":"POINT(13465262.935892 2716627.939237)","attributes":{"title":"Taiwan: 1677TSEK, 0.05%","placename":"Taiwan","address":"Taiwan","description":"Material Price (TSEK)","size":"0.05"}},{"local_stop_id":123,"id":123,"geometry":"POINT(1061709.532121 4013627.830394)","attributes":{"title":"Tunisia: 7075TSEK, 0.19%","placename":"Tunisia","address":"Tunisia","description":"Material Price (TSEK)","size":"0.19"}},{"local_stop_id":122,"id":122,"geometry":"POINT(3923268.658903 4716479.684629)","attributes":{"title":"Turkey: 79382TSEK, 2.17%","placename":"Turkey","address":"Turkey","description":"Material Price (TSEK)","size":"2.17"}},{"local_stop_id":121,"id":121,"geometry":"POINT(-382490.764739 7435586.530983)","attributes":{"title":"UK: 54613TSEK, 1.49%","placename":"United Kingdom","address":"United Kingdom","description":"Material Price (TSEK)","size":"1.49"}},{"local_stop_id":120,"id":120,"geometry":"POINT(-10654710.288472 4451692.554811)","attributes":{"title":"USA: 5371TSEK, 0.15%","placename":"United States","address":"United States of America","description":"Material Price (TSEK)","size":"0.15"}},{"local_stop_id":119,"id":119,"geometry":"POINT(8637787.208091 1456487.675599)","attributes":{"title":"Bangalore: Material Price - 212 (MSEK)","placename":"Bengaluru, Karnataka, India","address":"Bangalore, India","description":"Inbound (MEK)","size":"100"}},{"local_stop_id":118,"id":118,"geometry":"POINT(497590.999399 6534001.856289)","attributes":{"title":"Belgium: 216TSEK, 0.1%","placename":"Belgium","address":"Belgium","description":"Material Price (TSEK)","size":"0"}},{"local_stop_id":117,"id":117,"geometry":"POINT(11598978.537043 4281602.659627)","attributes":{"title":"China: 6897TSEK, 3.3%","placename":"China","address":"China","description":"Material Price (TSEK)","size":"3"}},{"local_stop_id":116,"id":116,"geometry":"POINT(2866271.058188 8841170.394214)","attributes":{"title":"Finland: 929TSEK, 0.4%","placename":"Finland","address":"Finland","description":"Material Price (TSEK)","size":"0"}},{"local_stop_id":115,"id":115,"geometry":"POINT(8790107.59317 2343495.165705)","attributes":{"title":"India: 203764TSEK, 96.1%","placename":"India","address":"India","description":"Material Price (TSEK)","size":"96"}},{"local_stop_id":114,"id":114,"geometry":"POINT(2075385.037924 8428326.96544)","attributes":{"title":"Sweden: 298TSEK, 0.1%","placename":"Sweden","address":"Sweden","description":"Material Price (TSEK)","size":"0"}},{"local_stop_id":113,"id":113,"geometry":"POINT(-382490.764739 7435586.530983)","attributes":{"title":"United Kingdom: 2TSEK, 0%","placename":"United Kingdom","address":"United Kingdom","description":"Material Price (TSEK)","size":"0"}},{"local_stop_id":112,"id":112,"geometry":"POINT(-9205180.448538 5226462.807718)","attributes":{"title":"Prevost Bus: Material Price - 567MSEK","placename":"Lake St Clair","address":"St. Claire, Canada","description":"Inbound (MEK)","size":"100"}},{"local_stop_id":111,"id":111,"geometry":"POINT(497590.999399 6534001.856289)","attributes":{"title":"Belgium: 256TSEK, 0.05%","placename":"Belgium","address":"Belgium","description":"Material Price (TSEK)","size":"0"}},{"local_stop_id":110,"id":110,"geometry":"POINT(-5780295.728898 -1601191.813438)","attributes":{"title":"Brazil: 642TSEK, 0.11%","placename":"Brazil","address":"Brazil","description":"Material Price (TSEK)","size":"0"}},{"local_stop_id":109,"id":109,"geometry":"POINT(-11838468.395229 7584411.732747)","attributes":{"title":"Canada: 354081TSEK, 62.43%","placename":"Canada","address":"Canada","description":"Material Price (TSEK)","size":"62"}},{"local_stop_id":108,"id":108,"geometry":"POINT(11598978.537043 4281602.659627)","attributes":{"title":"China: 224TSEK, 0.04%","placename":"China","address":"China","description":"Material Price (TSEK)","size":"0"}},{"local_stop_id":107,"id":107,"geometry":"POINT(1722442.250904 6414728.45895)","attributes":{"title":"Czech Rep.: 1TSEK, 0%","placename":"Czech Republic","address":"Czech Republic","description":"Material Price (TSEK)","size":"0"}},{"local_stop_id":106,"id":106,"geometry":"POINT(2866271.058188 8841170.394214)","attributes":{"title":"Finland: 1058TSEK, 0.19%","placename":"Finland","address":"Finland","description":"Material Price (TSEK)","size":"0"}},{"local_stop_id":105,"id":105,"geometry":"POINT(246433.411424 5816903.713427)","attributes":{"title":"France: 3462TSEK, 0.61%","placename":"France","address":"France","description":"Material Price (TSEK)","size":"1"}},{"local_stop_id":104,"id":104,"geometry":"POINT(1163458.552333 6650655.041174)","attributes":{"title":"Germany: 23914TSEK, 4.22%","placename":"Germany","address":"Germany","description":"Material Price (TSEK)","size":"4"}},{"local_stop_id":103,"id":103,"geometry":"POINT(2171097.870066 5968637.679129)","attributes":{"title":"Hungary: 845TSEK, 0.15%","placename":"Hungary","address":"Hungary","description":"Material Price (TSEK)","size":"0"}},{"local_stop_id":102,"id":102,"geometry":"POINT(1398994.342206 5141815.937641)","attributes":{"title":"Italy: 3143TSEK, 0.55%","placename":"Italy","address":"Italy","description":"Material Price (TSEK)","size":"1"}},{"local_stop_id":101,"id":101,"geometry":"POINT(-11416123.694313 2708933.292233)","attributes":{"title":"Mexico: 12825TSEK, 2.26%","placename":"Mexico","address":"Mexico","description":"Material Price (TSEK)","size":"2"}},{"local_stop_id":100,"id":100,"geometry":"POINT(589021.036772 6824142.821624)","attributes":{"title":"Netherlands: 1795TSEK, 0.32%","placename":"The Netherlands","address":"Netherlands","description":"Material Price (TSEK)","size":"0"}},{"local_stop_id":99,"id":99,"geometry":"POINT(2131226.790688 6785571.898792)","attributes":{"title":"Poland: 12TSEK, 0%","placename":"Poland","address":"Poland","description":"Material Price (TSEK)","size":"0"}},{"local_stop_id":98,"id":98,"geometry":"POINT(-417361.261272 4933551.652462)","attributes":{"title":"Spain: 9681TSEK, 1.71%","placename":"Spain","address":"Spain","description":"Material Price (TSEK)","size":"2"}},{"local_stop_id":97,"id":97,"geometry":"POINT(2075385.037924 8428326.96544)","attributes":{"title":"Sweden: 942TSEK, 0.17%","placename":"Sweden","address":"Sweden","description":"Material Price (TSEK)","size":"0"}},{"local_stop_id":96,"id":96,"geometry":"POINT(915882.446336 5912448.054871)","attributes":{"title":"Switzerland: 237TSEK, 0.04%","placename":"Switzerland","address":"Switzerland","description":"Material Price (TSEK)","size":"0"}},{"local_stop_id":95,"id":95,"geometry":"POINT(13465262.935892 2716627.939237)","attributes":{"title":"Taiwan: 1190TSEK, 0.21%","placename":"Taiwan","address":"Taiwan","description":"Material Price (TSEK)","size":"0"}},{"local_stop_id":94,"id":94,"geometry":"POINT(-382490.764739 7435586.530983)","attributes":{"title":"UK: 1802TSEK, 0.32%","placename":"United Kingdom","address":"United Kingdom","description":"Material Price (TSEK)","size":"0"}},{"local_stop_id":93,"id":93,"geometry":"POINT(-10654710.288472 4451692.554811)","attributes":{"title":"USA: 151028TSEK, 26.63%","placename":"United States","address":"United States of America","description":"Material Price (TSEK)","size":"27"}},{"local_stop_id":92,"id":92,"geometry":"POINT(-8225150.936001 5712146.843241)","attributes":{"title":"St. Eustache: Material Price - 3.4MSEK","placename":"St-Eustache, QC J7P, Canada","address":"St. Eustache, Canada","description":"Inbound (MSEK)","size":"100"}},{"local_stop_id":91,"id":91,"geometry":"POINT(-11838468.395229 7584411.732747)","attributes":{"title":"Canada: 1868TSEK, 55%","placename":"Canada","address":"Canada","description":"Material Price (TSEK)","size":"55"}},{"local_stop_id":90,"id":90,"geometry":"POINT(-10654710.288472 4451692.554811)","attributes":{"title":"USA: 1325TSEK, 39%","placename":"United States","address":"United States of America","description":"Material Price (TSEK)","size":"39"}},{"local_stop_id":89,"id":89,"geometry":"POINT(1698192.045675 7270403.143886)","attributes":{"title":"EU: 204TSEK, 6%","placename":"Europe","address":"Europe","description":"Material Price (TSEK)","size":"6"}},{"local_stop_id":88,"id":88,"geometry":"POINT(-8176740.805651 5574335.332209)","attributes":{"title":"Plattsburgh: Material Price - 9.8MSEK","placename":"Plattsburgh, NY, USA","address":"Plattsburgh, USA","description":"Inbound (MSEK)","size":"100"}},{"local_stop_id":87,"id":87,"geometry":"POINT(-11838468.395229 7584411.732747)","attributes":{"title":"Canada: 3026TSEK, 31%","placename":"Canada","address":"Canada","description":"Material Price (TSEK)","size":"31"}},{"local_stop_id":86,"id":86,"geometry":"POINT(-10654710.288472 4451692.554811)","attributes":{"title":"USA: 6149TSEK, 63%","placename":"United States","address":"United States of America","description":"Material Price (TSEK)","size":"63"}},{"local_stop_id":85,"id":85,"geometry":"POINT(1698192.045675 7270403.143886)","attributes":{"title":"EU: 586TSEK, 6%","placename":"Europe","address":"Europe","description":"Material Price (TSEK)","size":"6"}},{"local_stop_id":84,"id":84,"geometry":"POINT(1896721.329494 6640399.598409)","attributes":{"title":"Wrolcaw: Complete Bus - 925 Unit","placename":"Wroc\u0142aw, Poland","address":"Wroclaw, Poland","description":"Outbound (Unit)"}},{"local_stop_id":83,"id":83,"geometry":"POINT(942758.756276 8505587.038689)","attributes":{"title":"Norway: 372, 40.22%","placename":"Norway","address":"Norway","description":"Complete Bus Sold (Unit)","size":"40"}},{"local_stop_id":82,"id":82,"geometry":"POINT(2075385.037924 8428326.96544)","attributes":{"title":"Sweden: 111, 12%","placename":"Sweden","address":"Sweden","description":"Complete Bus Sold (Unit)","size":"12"}},{"local_stop_id":81,"id":81,"geometry":"POINT(1163458.552333 6650655.041174)","attributes":{"title":"Germany: 89, 9.62%","placename":"Germany","address":"Germany","description":"Complete Bus Sold (Unit)","size":"10"}},{"local_stop_id":80,"id":80,"geometry":"POINT(915882.446336 5912448.054871)","attributes":{"title":"Switzerland: 49, 5.3%","placename":"Switzerland","address":"Switzerland","description":"Complete Bus Sold (Unit)","size":"5"}},{"local_stop_id":79,"id":79,"geometry":"POINT(1619706.606045 6026746.974644)","attributes":{"title":"Austria: 47, 5.08%","placename":"Austria","address":"Austria","description":"Complete Bus Sold (Unit)","size":"5"}},{"local_stop_id":78,"id":78,"geometry":"POINT(1398994.342206 5141815.937641)","attributes":{"title":"Italy: 38, 4.11%","placename":"Italy","address":"Italy","description":"Complete Bus Sold (Unit)","size":"4"}},{"local_stop_id":77,"id":77,"geometry":"POINT(589021.036772 6824142.821624)","attributes":{"title":"Netherlands: 34, 3.68%","placename":"The Netherlands","address":"Netherlands","description":"Complete Bus Sold (Unit)","size":"4"}},{"local_stop_id":76,"id":76,"geometry":"POINT(246433.411424 5816903.713427)","attributes":{"title":"France: 34, 3.68%","placename":"France","address":"France","description":"Complete Bus Sold (Unit)","size":"4"}},{"local_stop_id":75,"id":75,"geometry":"POINT(1057733.867827 7611135.068229)","attributes":{"title":"Denmark: 30, 3.24%","placename":"Denmark","address":"Denmark","description":"Complete Bus Sold (Unit)","size":"3"}},{"local_stop_id":74,"id":74,"geometry":"POINT(-11416123.694313 2708933.292233)","attributes":{"title":"Mexico: 28, 3.03%","placename":"Mexico","address":"Mexico","description":"Complete Bus Sold (Unit)","size":"3"}},{"local_stop_id":73,"id":73,"geometry":"POINT(-382490.764739 7435586.530983)","attributes":{"title":"United Kingdom: 25, 2.7%","placename":"United Kingdom","address":"United Kingdom","description":"Complete Bus Sold (Unit)","size":"3"}},{"local_stop_id":72,"id":72,"geometry":"POINT(2866271.058188 8841170.394214)","attributes":{"title":"Finland: 20, 2.16%","placename":"Finland","address":"Finland","description":"Complete Bus Sold (Unit)","size":"2"}},{"local_stop_id":71,"id":71,"geometry":"POINT(-417361.261272 4933551.652462)","attributes":{"title":"Spain: 12, 1.3%","placename":"Spain","address":"Spain","description":"Complete Bus Sold (Unit)","size":"1"}},{"local_stop_id":70,"id":70,"geometry":"POINT(497590.999399 6534001.856289)","attributes":{"title":"Belgium: 10, 1.08%","placename":"Belgium","address":"Belgium","description":"Complete Bus Sold (Unit)","size":"1"}},{"local_stop_id":69,"id":69,"geometry":"POINT(1722442.250904 6414728.45895)","attributes":{"title":"Czech Republic: 8, 0.86%","placename":"Czech Republic","address":"Czech Republic","description":"Complete Bus Sold (Unit)","size":"1"}},{"local_stop_id":68,"id":68,"geometry":"POINT(2131226.790688 6785571.898792)","attributes":{"title":"Poland: 6, 0.65%","placename":"Poland","address":"Poland","description":"Complete Bus Sold (Unit)","size":"1"}},{"local_stop_id":67,"id":67,"geometry":"POINT(2738814.471371 7735556.799888)","attributes":{"title":"Latvia: 5, 0.54%","placename":"Latvia","address":"Latvia","description":"Complete Bus Sold (Unit)","size":"1"}},{"local_stop_id":66,"id":66,"geometry":"POINT(1692056.260058 5637278.201891)","attributes":{"title":"Croatia: 3, 0.32%","placename":"Croatia","address":"Croatia","description":"Complete Bus Sold (Unit)","size":"0"}},{"local_stop_id":65,"id":65,"geometry":"POINT(2171097.870066 5968637.679129)","attributes":{"title":"Hungary: 2, 0.22%","placename":"Hungary","address":"Hungary","description":"Complete Bus Sold (Unit)","size":"0"}},{"local_stop_id":64,"id":64,"geometry":"POINT(2779287.009958 5771245.404432)","attributes":{"title":"Romania: 1, 0.11%","placename":"Romania","address":"Romania","description":"Complete Bus Sold (Unit)","size":"0"}},{"local_stop_id":63,"id":63,"geometry":"POINT(2784501.994143 8093419.123256)","attributes":{"title":"Estonia: 1, 0.11%","placename":"Estonia","address":"Estonia","description":"Complete Bus Sold (Unit)","size":"0"}},{"local_stop_id":62,"id":62,"geometry":"POINT(1439372.927143 8209115.431399)","attributes":{"title":"Saffle: 253 Unit","placename":"S\u00e4ffle, Sweden","address":"Saffle, Sweden","description":"Outbound (Unit)","size":"100"}},{"local_stop_id":61,"id":61,"geometry":"POINT(1057733.867827 7611135.068229)","attributes":{"title":"Denmark: 29, 12%","placename":"Denmark","address":"Denmark","description":"Complete Bus Sold (Unit)","size":"12"}},{"local_stop_id":60,"id":60,"geometry":"POINT(942758.756276 8505587.038689)","attributes":{"title":"Norway: 67, 26%","placename":"Norway","address":"Norway","description":"Complete Bus Sold (Unit)","size":"26"}},{"local_stop_id":59,"id":59,"geometry":"POINT(2075385.037924 8428326.96544)","attributes":{"title":"Sweden: 157, 62%","placename":"Sweden","address":"Sweden","description":"Complete Bus Sold (Unit)","size":"62"}},{"local_stop_id":58,"id":58,"geometry":"POINT(-11035458.235264 2205935.269899)","attributes":{"title":"Mexico City: Complete Bus - 799 Unit","placename":"Mexico City, Distrito Federal, Mexico","address":"Mexico City, Mexico","description":"Outbound (Unit)","size":"100"}},{"local_stop_id":57,"id":57,"geometry":"POINT(-11416123.694313 2708933.292233)","attributes":{"title":"Mexico: 749, 93.7%","placename":"Mexico","address":"Mexico","description":"Complete Bus Sold (Unit)","size":"749"}},{"local_stop_id":56,"id":56,"geometry":"POINT(-10654710.288472 4451692.554811)","attributes":{"title":"USA: 50, 6.3%","placename":"United States","address":"United States of America","description":"Complete Bus Sold (Unit)","size":"50"}},{"local_stop_id":55,"id":55,"geometry":"POINT(-5485073.266709 -2928450.962028)","attributes":{"title":"Curitiba: Complete Bus - 2623 Unit","placename":"Curitiba - Paran\u00e1, Brazil","address":"Curitiba, Brazil","description":"Outbound (Unit)","size":"100"}},{"local_stop_id":54,"id":54,"geometry":"POINT(-7081775.533003 -4638374.275084)","attributes":{"title":"Argentina: 85, 3.2%","placename":"Argentina","address":"Argentina","description":"Complete Bus Sold (Unit)","size":"3"}},{"local_stop_id":53,"id":53,"geometry":"POINT(-5780295.728898 -1601191.813438)","attributes":{"title":"Brazil: 2030, 77.4%","placename":"Brazil","address":"Brazil","description":"Complete Bus Sold (Unit)","size":"77"}},{"local_stop_id":52,"id":52,"geometry":"POINT(-7964126.878919 -4256013.675159)","attributes":{"title":"Chile: 100, 3.8%","placename":"Chile","address":"Chile","description":"Complete Bus Sold (Unit)","size":"4"}},{"local_stop_id":51,"id":51,"geometry":"POINT(-8270741.276858 509367.281339)","attributes":{"title":"Colombia: 161, 6.1%","placename":"Colombia","address":"Colombia","description":"Complete Bus Sold (Unit)","size":"6"}},{"local_stop_id":50,"id":50,"geometry":"POINT(-9323388.957151 1090519.231591)","attributes":{"title":"Costa Rica: 2, 0.1%","placename":"Costa Rica","address":"Costa Rica","description":"Complete Bus Sold (Unit)","size":"0"}},{"local_stop_id":49,"id":49,"geometry":"POINT(3428918.392521 3101070.050794)","attributes":{"title":"Egypt: 2, 0.1%","placename":"Egypt","address":"Egypt","description":"Complete Bus Sold (Unit)","size":"0"}},{"local_stop_id":48,"id":48,"geometry":"POINT(-8703336.944404 -203887.308284)","attributes":{"title":"Equador: 80, 3%","placename":"Ecuador","address":"Equador","description":"Complete Bus Sold (Unit)","size":"3"}},{"local_stop_id":47,"id":47,"geometry":"POINT(-10044442.145771 1779661.011764)","attributes":{"title":"Guatemala: 2, 0.1%","placename":"Guatemala","address":"Guatemala","description":"Complete Bus Sold (Unit)","size":"0"}},{"local_stop_id":46,"id":46,"geometry":"POINT(-11416123.694313 2708933.292233)","attributes":{"title":"Mexico: 63, 2.4%","placename":"Mexico","address":"Mexico","description":"Complete Bus Sold (Unit)","size":"2"}},{"local_stop_id":45,"id":45,"geometry":"POINT(-8350648.52242 -1027437.355768)","attributes":{"title":"Peru: 38, 1.4%","placename":"Peru","address":"Peru","description":"Complete Bus Sold (Unit)","size":"1"}},{"local_stop_id":44,"id":44,"geometry":"POINT(2553391.487988 -3575670.675527)","attributes":{"title":"South Africa: 28, 1.1%","placename":"South Africa","address":"South Africa","description":"Complete Bus Sold (Unit)","size":"1"}},{"local_stop_id":43,"id":43,"geometry":"POINT(-6207824.355862 -3832130.824994)","attributes":{"title":"Uruguay: 32, 1.2%","placename":"Uruguay","address":"Uruguay","description":"Complete Bus Sold (Unit)","size":"1"}},{"local_stop_id":42,"id":42,"geometry":"POINT(1440454.062037 7908942.597708)","attributes":{"title":"Boras: Complete Bus - 4029 Unit","placename":"Bor\u00e5s, Sweden","address":"Boras, Sweden","description":"Outbound (Unit)","size":"100"}},{"local_stop_id":41,"id":41,"geometry":"POINT(14891780.020321 -2909486.054997)","attributes":{"title":"Australia: 495, 12.29%","placename":"Australia","address":"Australia","description":"Chassis Sold (Unit)","size":"12"}},{"local_stop_id":40,"id":40,"geometry":"POINT(497590.999399 6534001.856289)","attributes":{"title":"Belgium: 143, 3.55%","placename":"Belgium","address":"Belgium","description":"Chassis Sold (Unit)","size":"4"}},{"local_stop_id":39,"id":39,"geometry":"POINT(-5780295.728898 -1601191.813438)","attributes":{"title":"Brazil: 7, 0.17%","placename":"Brazil","address":"Brazil","description":"Chassis Sold (Unit)","size":"0"}},{"local_stop_id":38,"id":38,"geometry":"POINT(-8270741.276858 509367.281339)","attributes":{"title":"Colombia: 945, 23.45%","placename":"Colombia","address":"Colombia","description":"Chassis Sold (Unit)","size":"23"}},{"local_stop_id":37,"id":37,"geometry":"POINT(3428918.392521 3101070.050794)","attributes":{"title":"Egypt: 28, 0.69%","placename":"Egypt","address":"Egypt","description":"Chassis Sold (Unit)","size":"1"}},{"local_stop_id":36,"id":36,"geometry":"POINT(2866271.058188 8841170.394214)","attributes":{"title":"Finland: 147, 3.65%","placename":"Finland","address":"Finland","description":"Chassis Sold (Unit)","size":"4"}},{"local_stop_id":35,"id":35,"geometry":"POINT(12702611.100717 2559188.1802)","attributes":{"title":"Hong Kong: 2, 0.05%","placename":"Hong Kong","address":"Hong Kong","description":"Chassis Sold (Unit)","size":"0"}},{"local_stop_id":34,"id":34,"geometry":"POINT(3879663.701165 3638731.187583)","attributes":{"title":"Israel: 170, 4.22%","placename":"Israel","address":"Israel","description":"Chassis Sold (Unit)","size":"4"}},{"local_stop_id":33,"id":33,"geometry":"POINT(-789546.84679 3735999.22766)","attributes":{"title":"Morocco: 2, 0.05%","placename":"Morocco","address":"Morocco","description":"Chassis Sold (Unit)","size":"0"}},{"local_stop_id":32,"id":32,"geometry":"POINT(589021.036772 6824142.821624)","attributes":{"title":"Netherlands: 1, 0.02%","placename":"The Netherlands","address":"Netherlands","description":"Chassis Sold (Unit)","size":"0"}},{"local_stop_id":31,"id":31,"geometry":"POINT(19468217.238607 -4997684.890551)","attributes":{"title":"New Zealand: 3, 0.07%","placename":"New Zealand","address":"New Zealand","description":"Chassis Sold (Unit)","size":"0"}},{"local_stop_id":30,"id":30,"geometry":"POINT(942758.756276 8505587.038689)","attributes":{"title":"Norway: 23, 0.57%","placename":"Norway","address":"Norway","description":"Chassis Sold (Unit)","size":"1"}},{"local_stop_id":29,"id":29,"geometry":"POINT(-915542.031333 4779112.741647)","attributes":{"title":"Portugal: 256, 6.35%","placename":"Portugal","address":"Portugal","description":"Chassis Sold (Unit)","size":"6"}},{"local_stop_id":28,"id":28,"geometry":"POINT(11557171.277761 150527.162641)","attributes":{"title":"Singapore: 233, 5.78%","placename":"Singapore","address":"Singapore","description":"Chassis Sold (Unit)","size":"6"}},{"local_stop_id":27,"id":27,"geometry":"POINT(2553391.487988 -3575670.675527)","attributes":{"title":"South Africa: 8, 0.2%","placename":"South Africa","address":"South Africa","description":"Chassis Sold (Unit)","size":"0"}},{"local_stop_id":26,"id":26,"geometry":"POINT(-417361.261272 4933551.652462)","attributes":{"title":"Spain: 440, 10.92%","placename":"Spain","address":"Spain","description":"Chassis Sold (Unit)","size":"11"}},{"local_stop_id":25,"id":25,"geometry":"POINT(2075385.037924 8428326.96544)","attributes":{"title":"Sweden: 272, 6.75%","placename":"Sweden","address":"Sweden","description":"Chassis Sold (Unit)","size":"7"}},{"local_stop_id":24,"id":24,"geometry":"POINT(13465262.935892 2716627.939237)","attributes":{"title":"Taiwan: 25, 0.62%","placename":"Taiwan","address":"Taiwan","description":"Chassis Sold (Unit)","size":"1"}},{"local_stop_id":23,"id":23,"geometry":"POINT(11242438.238039 1789676.623494)","attributes":{"title":"Thailand: 1, 0.02%","placename":"Thailand","address":"Thailand","description":"Chassis Sold (Unit)","size":"0"}},{"local_stop_id":22,"id":22,"geometry":"POINT(-382490.764739 7435586.530983)","attributes":{"title":"UK: 828, 20.55%","placename":"United Kingdom","address":"United Kingdom","description":"Chassis Sold (Unit)","size":"21"}},{"local_stop_id":21,"id":21,"geometry":"POINT(1440454.062037 7908942.597708)","attributes":{"title":"Boras: CKD Kits - 3618 Unit","placename":"Bor\u00e5s, Sweden","address":"Boras, Sweden","description":"Outbound (Unit)","size":"100"}},{"local_stop_id":20,"id":20,"geometry":"POINT(11598978.537043 4281602.659627)","attributes":{"title":"China: 37, 1.02%","placename":"China","address":"China","description":"Chassis as CKD (Unit)","size":"1"}},{"local_stop_id":19,"id":19,"geometry":"POINT(8790107.59317 2343495.165705)","attributes":{"title":"India: 714, 19.73%","placename":"India","address":"India","description":"Chassis as CKD (Unit)","size":"20"}},{"local_stop_id":18,"id":18,"geometry":"POINT(5976525.942406 3819612.201442)","attributes":{"title":"Iran: 800, 22.11%","placename":"Iran","address":"Iran","description":"Chassis as CKD (Unit)","size":"22"}},{"local_stop_id":17,"id":17,"geometry":"POINT(-11416123.694313 2708933.292233)","attributes":{"title":"Mexico: 717, 19.82%","placename":"Mexico","address":"Mexico","description":"Chassis as CKD (Unit)","size":"20"}},{"local_stop_id":16,"id":16,"geometry":"POINT(-789546.84679 3735999.22766)","attributes":{"title":"Morocco (CKD): 246, 6.8%","placename":"Morocco","address":"Morocco","description":"Chassis as CKD (Unit)","size":"7"}},{"local_stop_id":15,"id":15,"geometry":"POINT(2131226.790688 6785571.898792)","attributes":{"title":"Poland: 849, 23.47%","placename":"Poland","address":"Poland","description":"Chassis as CKD (Unit)","size":"23"}},{"local_stop_id":14,"id":14,"geometry":"POINT(2553391.487988 -3575670.675527)","attributes":{"title":"South Africa (CKD): 27, 0.75%","placename":"South Africa","address":"South Africa","description":"Chassis as CKD (Unit)","size":"1"}},{"local_stop_id":13,"id":13,"geometry":"POINT(11242438.238039 1789676.623494)","attributes":{"title":"Thailand (CKD): 120, 3.32%","placename":"Thailand","address":"Thailand","description":"Chassis as CKD (Unit)","size":"3"}},{"local_stop_id":12,"id":12,"geometry":"POINT(1061709.532121 4013627.830394)","attributes":{"title":"Tunisia: 108, 2.99%","placename":"Tunisia","address":"Tunisia","description":"Chassis as CKD (Unit)","size":"3"}},{"local_stop_id":11,"id":11,"geometry":"POINT(8637787.208091 1456487.675599)","attributes":{"title":"Bangalore: Complete Bus - 662 Unit","placename":"Bengaluru, Karnataka, India","address":"Bangalore, India","description":"","size":"100"}},{"local_stop_id":10,"id":10,"geometry":"POINT(1619706.606045 6026746.974644)","attributes":{"title":"Austria: 4, 0.6%","placename":"Austria","address":"Austria","description":"Complete Bus Sold (Unit)","size":"1"}},{"local_stop_id":9,"id":9,"geometry":"POINT(8790107.59317 2343495.165705)","attributes":{"title":"India: 651, 98.3%","placename":"India","address":"India","description":"Complete Bus Sold (Unit)","size":"98"}},{"local_stop_id":8,"id":8,"geometry":"POINT(2553391.487988 -3575670.675527)","attributes":{"title":"South Africa: 1.1%","placename":"South Africa","address":"South Africa","description":"Complete Bus Sold (Unit)","size":"1"}},{"local_stop_id":7,"id":7,"geometry":"POINT(-9205180.448538 5226462.807718)","attributes":{"title":"Prevost Bus: Complete Bus Sold - 533 Unit","placename":"Lake St Clair","address":"St. Claire, Canada","description":"Outbound (Unit)","size":"100"}},{"local_stop_id":6,"id":6,"geometry":"POINT(-11838468.395229 7584411.732747)","attributes":{"title":"Canada: 114, 21%","placename":"Canada","address":"Canada","description":"Complete Bus Sold (Unit)","size":"21"}},{"local_stop_id":5,"id":5,"geometry":"POINT(-10654710.288472 4451692.554811)","attributes":{"title":"USA: 419, 79%","placename":"United States","address":"United States of America","description":"Complete Bus Sold (Unit)","size":"79"}},{"local_stop_id":4,"id":4,"geometry":"POINT(-8225150.936001 5712146.843241)","attributes":{"title":"St. Eustache: 40ft Bus Sold - 532","placename":"St-Eustache, QC J7P, Canada","address":"St. Eustache, Canada","description":"Outbound (Unit)","size":"100"}},{"local_stop_id":3,"id":3,"geometry":"POINT(-11838468.395229 7584411.732747)","attributes":{"title":"Canada: 532, 100%","placename":"Canada","address":"Canada","description":"40ft Bus Sold (Unit)","size":"100"}},{"local_stop_id":2,"id":2,"geometry":"POINT(-8176740.805651 5574335.332209)","attributes":{"title":"Plattsburgh: 60ft Bus Sold - 199","placename":"Plattsburgh, NY, USA","address":"Plattsburgh, USA","description":"","size":"100"}},{"local_stop_id":1,"id":1,"geometry":"POINT(-10654710.288472 4451692.554811)","attributes":{"title":"USA: 199, 100%","placename":"United States","address":"United States of America","description":"60ft Bus Sold (Unit)","size":"100"}}],"hops":[{"from_stop_id":246,"to_stop_id":247,"geometry":"MULTILINESTRING((2075385.037924 8428326.96544,1896721.329494 6640399.598409))","attributes":{"title":"Sweden: 406118.9, 43.69\uff05 to Wroclaw: Material Purchasing Price - 930 (MSEK)","distance":"1007.981801"}},{"from_stop_id":245,"to_stop_id":247,"geometry":"MULTILINESTRING((2131226.790688 6785571.898792,1896721.329494 6640399.598409))","attributes":{"distance":"171.436565","title":"Poland: 258208.3, 27.77\uff05 to Wroclaw: Material Purchasing Price - 930 (MSEK)"}},{"from_stop_id":244,"to_stop_id":247,"geometry":"MULTILINESTRING((1163458.552333 6650655.041174,1896721.329494 6640399.598409))","attributes":{"title":"Germany: 134142.4, 14.43\uff05 to Wroclaw: Material Purchasing Price - 930 (MSEK)","distance":"459.471940"}},{"from_stop_id":243,"to_stop_id":247,"geometry":"MULTILINESTRING((2866271.058188 8841170.394214,1896721.329494 6640399.598409))","attributes":{"distance":"1313.368657","title":"Finland: 49413.2, 5.32\uff05 to Wroclaw: Material Purchasing Price - 930 (MSEK)"}},{"from_stop_id":242,"to_stop_id":247,"geometry":"MULTILINESTRING((1398994.342206 5141815.937641,1896721.329494 6640399.598409))","attributes":{"distance":"1082.008255","title":"Italy: 15998.9, 1.72\uff05 to Wroclaw: Material Purchasing Price - 930 (MSEK)"}},{"from_stop_id":241,"to_stop_id":247,"geometry":"MULTILINESTRING((246433.411424 5816903.713427,1896721.329494 6640399.598409))","attributes":{"distance":"1213.447377","title":"France: 12319.6, 1.33\uff05 to Wroclaw: Material Purchasing Price - 930 (MSEK)"}},{"from_stop_id":240,"to_stop_id":247,"geometry":"MULTILINESTRING((942758.756276 8505587.038689,1896721.329494 6640399.598409))","attributes":{"distance":"1168.783700","title":"Norway: 12252.6, 1.32\uff05 to Wroclaw: Material Purchasing Price - 930 (MSEK)"}},{"from_stop_id":239,"to_stop_id":247,"geometry":"MULTILINESTRING((497590.999399 6534001.856289,1896721.329494 6640399.598409))","attributes":{"distance":"884.655851","title":"Belgium: 11809.3, 1.27\uff05 to Wroclaw: Material Purchasing Price - 930 (MSEK)"}},{"from_stop_id":238,"to_stop_id":247,"geometry":"MULTILINESTRING((3923268.658903 4716479.684629,1896721.329494 6640399.598409))","attributes":{"distance":"1957.133309","title":"Turkey: 4618.5, 0.5\uff05 to Wroclaw: Material Purchasing Price - 930 (MSEK)"}},{"from_stop_id":237,"to_stop_id":247,"geometry":"MULTILINESTRING((1057733.867827 7611135.068229,1896721.329494 6640399.598409))","attributes":{"distance":"757.427845","title":"Denmark: 4122.6, 0.44\uff05 to Wroclaw: Material Purchasing Price - 930 (MSEK)"}},{"from_stop_id":236,"to_stop_id":247,"geometry":"MULTILINESTRING((589021.036772 6824142.821624,1896721.329494 6640399.598409))","attributes":{"distance":"818.042437","title":"Netherlands: 3922.7, 0.42\uff05 to Wroclaw: Material Purchasing Price - 930 (MSEK)"}},{"from_stop_id":235,"to_stop_id":247,"geometry":"MULTILINESTRING((2171097.870066 5968637.679129,1896721.329494 6640399.598409))","attributes":{"title":"Hungary: 3879.1, 0.42\uff05 to Wroclaw: Material Purchasing Price - 930 (MSEK)","distance":"473.869647"}},{"from_stop_id":234,"to_stop_id":247,"geometry":"MULTILINESTRING((915882.446336 5912448.054871,1896721.329494 6640399.598409))","attributes":{"distance":"799.914574","title":"Switzerland: 3564.3, 0.38\uff05 to Wroclaw: Material Purchasing Price - 930 (MSEK)"}},{"from_stop_id":233,"to_stop_id":247,"geometry":"MULTILINESTRING((-417361.261272 4933551.652462,1896721.329494 6640399.598409))","attributes":{"distance":"1988.269701","title":"Spain: 2535.6, 0.27\uff05 to Wroclaw: Material Purchasing Price - 930 (MSEK)"}},{"from_stop_id":232,"to_stop_id":247,"geometry":"MULTILINESTRING((-382490.764739 7435586.530983,1896721.329494 6640399.598409))","attributes":{"title":"Great Britain: 2262.1, 0.24\uff05 to Wroclaw: Material Purchasing Price - 930 (MSEK)","distance":"1436.468822"}},{"from_stop_id":231,"to_stop_id":247,"geometry":"MULTILINESTRING((1619706.606045 6026746.974644,1896721.329494 6640399.598409))","attributes":{"distance":"438.160605","title":"Austria: 1290.4, 0.14\uff05 to Wroclaw: Material Purchasing Price - 930 (MSEK)"}},{"from_stop_id":230,"to_stop_id":247,"geometry":"MULTILINESTRING((11598978.537043 4281602.659627,1896721.329494 6640399.598409))","attributes":{"title":"China: 935.2, 0.1\uff05 to Wroclaw: Material Purchasing Price - 930 (MSEK)","distance":"6809.095202"}},{"from_stop_id":229,"to_stop_id":247,"geometry":"MULTILINESTRING((682342.058335 6414345.6274,1896721.329494 6640399.598409))","attributes":{"distance":"784.696219","title":"Luxembourg: 874.8, 0.09\uff05 to Wroclaw: Material Purchasing Price - 930 (MSEK)"}},{"from_stop_id":228,"to_stop_id":247,"geometry":"MULTILINESTRING((2784501.994143 8093419.123256,1896721.329494 6640399.598409))","attributes":{"distance":"975.134632","title":"Estonia: 429.5, 0.05\uff05 to Wroclaw: Material Purchasing Price - 930 (MSEK)"}},{"from_stop_id":227,"to_stop_id":247,"geometry":"MULTILINESTRING((1722442.250904 6414728.45895,1896721.329494 6640399.598409))","attributes":{"distance":"181.288400","title":"Czech Republic: 313.2, 0.03\uff05 to Wroclaw: Material Purchasing Price - 930 (MSEK)"}},{"from_stop_id":226,"to_stop_id":247,"geometry":"MULTILINESTRING((8790107.59317 2343495.165705,1896721.329494 6640399.598409))","attributes":{"distance":"6294.414828","title":"India: 242.2, 0.03\uff05 to Wroclaw: Material Purchasing Price - 930 (MSEK)"}},{"from_stop_id":225,"to_stop_id":247,"geometry":"MULTILINESTRING((11351890.344374 469131.367658,1896721.329494 6640399.598409))","attributes":{"distance":"9289.911053","title":"Malaysia: 161.8, 0.02\uff05 to Wroclaw: Material Purchasing Price - 930 (MSEK)"}},{"from_stop_id":224,"to_stop_id":247,"geometry":"MULTILINESTRING((-915542.031333 4779112.741647,1896721.329494 6640399.598409))","attributes":{"distance":"2349.063633","title":"Portugal: 127.6, 0.01\uff05 to Wroclaw: Material Purchasing Price - 930 (MSEK)"}},{"from_stop_id":223,"to_stop_id":247,"geometry":"MULTILINESTRING((-10654710.288472 4451692.554811,1896721.329494 6640399.598409))","attributes":{"distance":"8228.009433","title":"United States of America: 75.5, 0.01\uff05 to Wroclaw: Material Purchasing Price - 930 (MSEK)"}},{"from_stop_id":222,"to_stop_id":247,"geometry":"MULTILINESTRING((2779287.009958 5771245.404432,1896721.329494 6640399.598409))","attributes":{"distance":"818.093273","title":"Romania: 21, 0\uff05 to Wroclaw: Material Purchasing Price - 930 (MSEK)"}},{"from_stop_id":221,"to_stop_id":247,"geometry":"MULTILINESTRING((2658451.372494 7394820.260241,1896721.329494 6640399.598409))","attributes":{"title":"Lithuania: 3.9, 0\uff05 to Wroclaw: Material Purchasing Price - 930 (MSEK)","distance":"641.550055"}},{"from_stop_id":219,"to_stop_id":220,"geometry":"MULTILINESTRING((1163458.552333 6650655.041174,1439372.927143 8209115.431399))","attributes":{"title":"Germany: 6900TSEK, 10% to Saffle: 69 MSEK","distance":"899.615931"}},{"from_stop_id":218,"to_stop_id":220,"geometry":"MULTILINESTRING((2131226.790688 6785571.898792,1439372.927143 8209115.431399))","attributes":{"title":"Poland: 41400TSEK, 60% to Saffle: 69 MSEK","distance":"891.485985"}},{"from_stop_id":217,"to_stop_id":220,"geometry":"MULTILINESTRING((2075385.037924 8428326.96544,1439372.927143 8209115.431399))","attributes":{"distance":"339.601329","title":"Sweden: 20700 TSEK, 30% to Saffle: 69 MSEK"}},{"from_stop_id":215,"to_stop_id":216,"geometry":"MULTILINESTRING((-7081775.533003 -4638374.275084,-11035458.235264 2205935.269899))","attributes":{"distance":"7422.664346","title":"Argentina: 31TSEK, 0% to Mexico CIty: Material Price - 872 (MSEK)"}},{"from_stop_id":214,"to_stop_id":216,"geometry":"MULTILINESTRING((497590.999399 6534001.856289,-11035458.235264 2205935.269899))","attributes":{"title":"Belgium: 82TSEK, 0% to Mexico CIty: Material Price - 872 (MSEK)","distance":"9268.998411"}},{"from_stop_id":213,"to_stop_id":216,"geometry":"MULTILINESTRING((-5780295.728898 -1601191.813438,-11035458.235264 2205935.269899))","attributes":{"distance":"6379.650978","title":"Brazil: 26025TSEK, 3% to Mexico CIty: Material Price - 872 (MSEK)"}},{"from_stop_id":212,"to_stop_id":216,"geometry":"MULTILINESTRING((-11838468.395229 7584411.732747,-11035458.235264 2205935.269899))","attributes":{"distance":"4124.747539","title":"Canada: 93TSEK, 0% to Mexico CIty: Material Price - 872 (MSEK)"}},{"from_stop_id":211,"to_stop_id":216,"geometry":"MULTILINESTRING((11598978.537043 4281602.659627,-11035458.235264 2205935.269899))","attributes":{"distance":"13394.137141","title":"China: 201TSEK, 0% to Mexico CIty: Material Price - 872 (MSEK)"}},{"from_stop_id":210,"to_stop_id":216,"geometry":"MULTILINESTRING((1057733.867827 7611135.068229,-11035458.235264 2205935.269899))","attributes":{"distance":"9309.663679","title":"Denmark: 9TSEK, 0% to Mexico CIty: Material Price - 872 (MSEK)"}},{"from_stop_id":209,"to_stop_id":216,"geometry":"MULTILINESTRING((2784501.994143 8093419.123256,-11035458.235264 2205935.269899))","attributes":{"distance":"9955.733047","title":"Estonia: 268TSEK, 0% to Mexico CIty: Material Price - 872 (MSEK)"}},{"from_stop_id":208,"to_stop_id":216,"geometry":"MULTILINESTRING((2866271.058188 8841170.394214,-11035458.235264 2205935.269899))","attributes":{"distance":"9754.352718","title":"Finland: 18635TSEK, 2.1% to Mexico CIty: Material Price - 872 (MSEK)"}},{"from_stop_id":207,"to_stop_id":216,"geometry":"MULTILINESTRING((246433.411424 5816903.713427,-11035458.235264 2205935.269899))","attributes":{"distance":"9293.245014","title":"France: 579TSEK, 0.1% to Mexico CIty: Material Price - 872 (MSEK)"}},{"from_stop_id":206,"to_stop_id":216,"geometry":"MULTILINESTRING((1163458.552333 6650655.041174,-11035458.235264 2205935.269899))","attributes":{"distance":"9619.060883","title":"Germany: 17016TSEK, 2% to Mexico CIty: Material Price - 872 (MSEK)"}},{"from_stop_id":205,"to_stop_id":216,"geometry":"MULTILINESTRING((1398994.342206 5141815.937641,-11035458.235264 2205935.269899))","attributes":{"distance":"10247.052183","title":"Italy: 3873TSEK, 0.4% to Mexico CIty: Material Price - 872 (MSEK)"}},{"from_stop_id":204,"to_stop_id":216,"geometry":"MULTILINESTRING((11351890.344374 469131.367658,-11035458.235264 2205935.269899))","attributes":{"title":"Malaysia: 116TSEK, 0% to Mexico CIty: Material Price - 872 (MSEK)","distance":"16516.249756"}},{"from_stop_id":203,"to_stop_id":216,"geometry":"MULTILINESTRING((-11416123.694313 2708933.292233,-11035458.235264 2205935.269899))","attributes":{"title":"Mexico: 383621TSEK, 44% to Mexico CIty: Material Price - 872 (MSEK)","distance":"585.934663"}},{"from_stop_id":202,"to_stop_id":216,"geometry":"MULTILINESTRING((942758.756276 8505587.038689,-11035458.235264 2205935.269899))","attributes":{"distance":"9055.131472","title":"Norway: 136TSEK, 0% to Mexico CIty: Material Price - 872 (MSEK)"}},{"from_stop_id":201,"to_stop_id":216,"geometry":"MULTILINESTRING((2131226.790688 6785571.898792,-11035458.235264 2205935.269899))","attributes":{"title":"Poland: 5622TSEK, 0.6% to Mexico CIty: Material Price - 872 (MSEK)","distance":"10094.643078"}},{"from_stop_id":200,"to_stop_id":216,"geometry":"MULTILINESTRING((-417361.261272 4933551.652462,-11035458.235264 2205935.269899))","attributes":{"title":"Spain: 4073TSEK, 0.5% to Mexico CIty: Material Price - 872 (MSEK)","distance":"9057.366660"}},{"from_stop_id":199,"to_stop_id":216,"geometry":"MULTILINESTRING((2075385.037924 8428326.96544,-11035458.235264 2205935.269899))","attributes":{"distance":"9563.708490","title":"Sweden: 364541TSEK, 41.8% to Mexico CIty: Material Price - 872 (MSEK)"}},{"from_stop_id":198,"to_stop_id":216,"geometry":"MULTILINESTRING((3923268.658903 4716479.684629,-11035458.235264 2205935.269899))","attributes":{"distance":"11972.821856","title":"Turkey: 12423TSEK, 1.4% to Mexico CIty: Material Price - 872 (MSEK)"}},{"from_stop_id":197,"to_stop_id":216,"geometry":"MULTILINESTRING((-382490.764739 7435586.530983,-11035458.235264 2205935.269899))","attributes":{"distance":"8590.482192","title":"UK: 19494TSEK, 2.2% to Mexico CIty: Material Price - 872 (MSEK)"}},{"from_stop_id":196,"to_stop_id":216,"geometry":"MULTILINESTRING((-10654710.288472 4451692.554811,-11035458.235264 2205935.269899))","attributes":{"distance":"1991.390373","title":"USA: 14910TSEK, 1.7% to Mexico CIty: Material Price - 872 (MSEK)"}},{"from_stop_id":194,"to_stop_id":195,"geometry":"MULTILINESTRING((-7081775.533003 -4638374.275084,-5485073.266709 -2928450.962028))","attributes":{"distance":"1974.444883","title":"Argentina: 7603TSEK, 0.6% to Curitiba: Material Price - 1223 (MSEK)"}},{"from_stop_id":193,"to_stop_id":195,"geometry":"MULTILINESTRING((1619706.606045 6026746.974644,-5485073.266709 -2928450.962028))","attributes":{"distance":"10310.797555","title":"Austria: 1570TSEK, 0.1% to Curitiba: Material Price - 1223 (MSEK)"}},{"from_stop_id":192,"to_stop_id":195,"geometry":"MULTILINESTRING((497590.999399 6534001.856289,-5485073.266709 -2928450.962028))","attributes":{"distance":"9954.226298","title":"Belgium: 16978TSEK, 1.4% to Curitiba: Material Price - 1223 (MSEK)"}},{"from_stop_id":191,"to_stop_id":195,"geometry":"MULTILINESTRING((-5780295.728898 -1601191.813438,-5485073.266709 -2928450.962028))","attributes":{"distance":"1275.048549","title":"Brazil: 797195TSEK, 65.2% to Curitiba: Material Price - 1223 (MSEK)"}},{"from_stop_id":190,"to_stop_id":195,"geometry":"MULTILINESTRING((-11838468.395229 7584411.732747,-5485073.266709 -2928450.962028))","attributes":{"distance":"10536.537488","title":"Canada: 143TSEK, 0% to Curitiba: Material Price - 1223 (MSEK)"}},{"from_stop_id":189,"to_stop_id":195,"geometry":"MULTILINESTRING((11598978.537043 4281602.659627,-5485073.266709 -2928450.962028))","attributes":{"title":"China: 587TSEK, 0% to Curitiba: Material Price - 1223 (MSEK)","distance":"17236.419967"}},{"from_stop_id":188,"to_stop_id":195,"geometry":"MULTILINESTRING((1722442.250904 6414728.45895,-5485073.266709 -2928450.962028))","attributes":{"distance":"10514.197737","title":"Czech Republic: 4229TSEK, 0.3% to Curitiba: Material Price - 1223 (MSEK)"}},{"from_stop_id":187,"to_stop_id":195,"geometry":"MULTILINESTRING((1057733.867827 7611135.068229,-5485073.266709 -2928450.962028))","attributes":{"distance":"10626.917496","title":"Denmark: 1127TSEK, 0.1% to Curitiba: Material Price - 1223 (MSEK)"}},{"from_stop_id":186,"to_stop_id":195,"geometry":"MULTILINESTRING((2784501.994143 8093419.123256,-5485073.266709 -2928450.962028))","attributes":{"title":"Estonia: 3264TSEK, 0.3% to Curitiba: Material Price - 1223 (MSEK)","distance":"11545.308924"}},{"from_stop_id":185,"to_stop_id":195,"geometry":"MULTILINESTRING((2866271.058188 8841170.394214,-5485073.266709 -2928450.962028))","attributes":{"title":"Finland: 1156TSEK, 0.1% to Curitiba: Material Price - 1223 (MSEK)","distance":"11742.700632"}},{"from_stop_id":184,"to_stop_id":195,"geometry":"MULTILINESTRING((246433.411424 5816903.713427,-5485073.266709 -2928450.962028))","attributes":{"distance":"9503.781278","title":"France: 94167TSEK, 7.7% to Curitiba: Material Price - 1223 (MSEK)"}},{"from_stop_id":183,"to_stop_id":195,"geometry":"MULTILINESTRING((1163458.552333 6650655.041174,-5485073.266709 -2928450.962028))","attributes":{"distance":"10319.587352","title":"Germany: 89046TSEK, 7.3% to Curitiba: Material Price - 1223 (MSEK)"}},{"from_stop_id":182,"to_stop_id":195,"geometry":"MULTILINESTRING((2171097.870066 5968637.679129,-5485073.266709 -2928450.962028))","attributes":{"distance":"10598.144162","title":"Hungary: 4904TSEK, 0.4% to Curitiba: Material Price - 1223 (MSEK)"}},{"from_stop_id":181,"to_stop_id":195,"geometry":"MULTILINESTRING((8790107.59317 2343495.165705,-5485073.266709 -2928450.962028))","attributes":{"distance":"14721.832628","title":"India: 6203TSEK, 0.5% to Curitiba: Material Price - 1223 (MSEK)"}},{"from_stop_id":180,"to_stop_id":195,"geometry":"MULTILINESTRING((1398994.342206 5141815.937641,-5485073.266709 -2928450.962028))","attributes":{"distance":"9811.468940","title":"Italy: 8090TSEK, 0.7% to Curitiba: Material Price - 1223 (MSEK)"}},{"from_stop_id":179,"to_stop_id":195,"geometry":"MULTILINESTRING((14222948.697264 4287936.289399,-5485073.266709 -2928450.962028))","attributes":{"distance":"18816.130881","title":"South Korea: 398TSEK, 0% to Curitiba: Material Price - 1223 (MSEK)"}},{"from_stop_id":178,"to_stop_id":195,"geometry":"MULTILINESTRING((2738814.471371 7735556.799888,-5485073.266709 -2928450.962028))","attributes":{"distance":"11437.563988","title":"Latvia: 45TSEK, 0% to Curitiba: Material Price - 1223 (MSEK)"}},{"from_stop_id":177,"to_stop_id":195,"geometry":"MULTILINESTRING((2658451.372494 7394820.260241,-5485073.266709 -2928450.962028))","attributes":{"distance":"11309.750535","title":"Lithuania: 147TSEK, 0% to Curitiba: Material Price - 1223 (MSEK)"}},{"from_stop_id":176,"to_stop_id":195,"geometry":"MULTILINESTRING((682342.058335 6414345.6274,-5485073.266709 -2928450.962028))","attributes":{"distance":"9989.389861","title":"Luxembourg: 3TSEK, 0% to Curitiba: Material Price - 1223 (MSEK)"}},{"from_stop_id":175,"to_stop_id":195,"geometry":"MULTILINESTRING((-11416123.694313 2708933.292233,-5485073.266709 -2928450.962028))","attributes":{"title":"Mexico: 656TSEK, 0.1% to Curitiba: Material Price - 1223 (MSEK)","distance":"7915.134294"}},{"from_stop_id":174,"to_stop_id":195,"geometry":"MULTILINESTRING((826504.450192 5425050.538922,-5485073.266709 -2928450.962028))","attributes":{"distance":"9616.102851","title":"Monaco: 562TSEK, 0% to Curitiba: Material Price - 1223 (MSEK)"}},{"from_stop_id":173,"to_stop_id":195,"geometry":"MULTILINESTRING((589021.036772 6824142.821624,-5485073.266709 -2928450.962028))","attributes":{"distance":"10119.382213","title":"Netherlands: 8546TSEK, 0.7% to Curitiba: Material Price - 1223 (MSEK)"}},{"from_stop_id":172,"to_stop_id":195,"geometry":"MULTILINESTRING((942758.756276 8505587.038689,-5485073.266709 -2928450.962028))","attributes":{"distance":"10876.997517","title":"Norway: 13648TSEK, 1.1% to Curitiba: Material Price - 1223 (MSEK)"}},{"from_stop_id":171,"to_stop_id":195,"geometry":"MULTILINESTRING((2131226.790688 6785571.898792,-5485073.266709 -2928450.962028))","attributes":{"distance":"10858.046782","title":"Poland: 9972TSEK, 0.8% to Curitiba: Material Price - 1223 (MSEK)"}},{"from_stop_id":170,"to_stop_id":195,"geometry":"MULTILINESTRING((-915542.031333 4779112.741647,-5485073.266709 -2928450.962028))","attributes":{"title":"Portugal: 4360TSEK, 0.4% to Curitiba: Material Price - 1223 (MSEK)","distance":"8372.955518"}},{"from_stop_id":169,"to_stop_id":195,"geometry":"MULTILINESTRING((2779287.009958 5771245.404432,-5485073.266709 -2928450.962028))","attributes":{"distance":"10889.581965","title":"Romania: 377TSEK, 0% to Curitiba: Material Price - 1223 (MSEK)"}},{"from_stop_id":168,"to_stop_id":195,"geometry":"MULTILINESTRING((2192885.320804 6218887.493883,-5485073.266709 -2928450.962028))","attributes":{"distance":"10699.619502","title":"Slovakia: 538TSEK, 0% to Curitiba: Material Price - 1223 (MSEK)"}},{"from_stop_id":167,"to_stop_id":195,"geometry":"MULTILINESTRING((1669287.305369 5804618.909739,-5485073.266709 -2928450.962028))","attributes":{"distance":"10249.913770","title":"Slovenia: 253TSEK, 0% to Curitiba: Material Price - 1223 (MSEK)"}},{"from_stop_id":166,"to_stop_id":195,"geometry":"MULTILINESTRING((2553391.487988 -3575670.675527,-5485073.266709 -2928450.962028))","attributes":{"distance":"6991.574897","title":"South Africa: 449TSEK, 0% to Curitiba: Material Price - 1223 (MSEK)"}},{"from_stop_id":165,"to_stop_id":195,"geometry":"MULTILINESTRING((-417361.261272 4933551.652462,-5485073.266709 -2928450.962028))","attributes":{"distance":"8706.849919","title":"Spain: 8903TSEK, 0.7% to Curitiba: Material Price - 1223 (MSEK)"}},{"from_stop_id":164,"to_stop_id":195,"geometry":"MULTILINESTRING((2075385.037924 8428326.96544,-5485073.266709 -2928450.962028))","attributes":{"distance":"11311.386673","title":"Sweden: 96029TSEK, 7.9% to Curitiba: Material Price - 1223 (MSEK)"}},{"from_stop_id":163,"to_stop_id":195,"geometry":"MULTILINESTRING((915882.446336 5912448.054871,-5485073.266709 -2928450.962028))","attributes":{"distance":"9886.766422","title":"Switzerland: 34TSEK, 0% to Curitiba: Material Price - 1223 (MSEK)"}},{"from_stop_id":162,"to_stop_id":195,"geometry":"MULTILINESTRING((13465262.935892 2716627.939237,-5485073.266709 -2928450.962028))","attributes":{"distance":"19009.098347","title":"Taiwan: 653TSEK, 0.1% to Curitiba: Material Price - 1223 (MSEK)"}},{"from_stop_id":161,"to_stop_id":195,"geometry":"MULTILINESTRING((11242438.238039 1789676.623494,-5485073.266709 -2928450.962028))","attributes":{"title":"Thailand: 164TSEK, 0% to Curitiba: Material Price - 1223 (MSEK)","distance":"16752.793877"}},{"from_stop_id":160,"to_stop_id":195,"geometry":"MULTILINESTRING((3923268.658903 4716479.684629,-5485073.266709 -2928450.962028))","attributes":{"title":"Turkey: 2743TSEK, 0.2% to Curitiba: Material Price - 1223 (MSEK)","distance":"11309.292053"}},{"from_stop_id":159,"to_stop_id":195,"geometry":"MULTILINESTRING((-382490.764739 7435586.530983,-5485073.266709 -2928450.962028))","attributes":{"title":"United Kingdom: 34856TSEK, 2.8% to Curitiba: Material Price - 1223 (MSEK)","distance":"9981.157731"}},{"from_stop_id":158,"to_stop_id":195,"geometry":"MULTILINESTRING((-10654710.288472 4451692.554811,-5485073.266709 -2928450.962028))","attributes":{"co2e":"0","distance":"8479.840662","title":"United States of America: 3648TSEK, 0.3% to Curitiba: Material Price - 1223 (MSEK)"}},{"from_stop_id":156,"to_stop_id":157,"geometry":"MULTILINESTRING((14891780.020321 -2909486.054997,1440454.062037 7908942.597708))","attributes":{"title":"Australia: 13839TSEK, 0.38% to Boras: Material Purchasing Price - 3663 (MSEK)","distance":"14175.277221"}},{"from_stop_id":155,"to_stop_id":157,"geometry":"MULTILINESTRING((1619706.606045 6026746.974644,1440454.062037 7908942.597708))","attributes":{"title":"Austria: 7931TSEK, 0.22% to Boras: Material Purchasing Price - 3663 (MSEK)","distance":"1139.832969"}},{"from_stop_id":154,"to_stop_id":157,"geometry":"MULTILINESTRING((497590.999399 6534001.856289,1440454.062037 7908942.597708))","attributes":{"distance":"972.492396","title":"Belgium: 204771TSEK, 5.59% to Boras: Material Purchasing Price - 3663 (MSEK)"}},{"from_stop_id":153,"to_stop_id":157,"geometry":"MULTILINESTRING((-5780295.728898 -1601191.813438,1440454.062037 7908942.597708))","attributes":{"distance":"9931.266857","title":"Brazil: 32067TSEK, 0.88% to Boras: Material Purchasing Price - 3663 (MSEK)"}},{"from_stop_id":152,"to_stop_id":157,"geometry":"MULTILINESTRING((11598978.537043 4281602.659627,1440454.062037 7908942.597708))","attributes":{"distance":"6775.593472","title":"China: 16787TSEK, 0.46% to Boras: Material Purchasing Price - 3663 (MSEK)"}},{"from_stop_id":151,"to_stop_id":157,"geometry":"MULTILINESTRING((1722442.250904 6414728.45895,1440454.062037 7908942.597708))","attributes":{"distance":"894.299461","title":"Czech Rep.: 16379TSEK, 0.45% to Boras: Material Purchasing Price - 3663 (MSEK)"}},{"from_stop_id":150,"to_stop_id":157,"geometry":"MULTILINESTRING((1057733.867827 7611135.068229,1440454.062037 7908942.597708))","attributes":{"distance":"263.804856","title":"Denmark: 4907TSEK, 0.13% to Boras: Material Purchasing Price - 3663 (MSEK)"}},{"from_stop_id":149,"to_stop_id":157,"geometry":"MULTILINESTRING((2784501.994143 8093419.123256,1440454.062037 7908942.597708))","attributes":{"distance":"713.936794","title":"Estonia: 38201TSEK, 1.04% to Boras: Material Purchasing Price - 3663 (MSEK)"}},{"from_stop_id":148,"to_stop_id":157,"geometry":"MULTILINESTRING((2866271.058188 8841170.394214,1440454.062037 7908942.597708))","attributes":{"distance":"852.711446","title":"Finland: 41933TSEK, 1.14% to Boras: Material Purchasing Price - 3663 (MSEK)"}},{"from_stop_id":147,"to_stop_id":157,"geometry":"MULTILINESTRING((246433.411424 5816903.713427,1440454.062037 7908942.597708))","attributes":{"distance":"1470.174323","title":"France: 115078TSEK, 3.14% to Boras: Material Purchasing Price - 3663 (MSEK)"}},{"from_stop_id":146,"to_stop_id":157,"geometry":"MULTILINESTRING((1163458.552333 6650655.041174,1440454.062037 7908942.597708))","attributes":{"title":"Germany: 544251TSEK, 14.86% to Boras: Material Purchasing Price - 3663 (MSEK)","distance":"746.335048"}},{"from_stop_id":145,"to_stop_id":157,"geometry":"MULTILINESTRING((2171097.870066 5968637.679129,1440454.062037 7908942.597708))","attributes":{"distance":"1254.105055","title":"Hungary: 12205TSEK, 0.33% to Boras: Material Purchasing Price - 3663 (MSEK)"}},{"from_stop_id":144,"to_stop_id":157,"geometry":"MULTILINESTRING((8790107.59317 2343495.165705,1440454.062037 7908942.597708))","attributes":{"distance":"6667.793528","title":"India: 9904TSEK, 0.27% to Boras: Material Purchasing Price - 3663 (MSEK)"}},{"from_stop_id":143,"to_stop_id":157,"geometry":"MULTILINESTRING((1398994.342206 5141815.937641,1440454.062037 7908942.597708))","attributes":{"distance":"1762.534935","title":"Italy: 80629TSEK, 2.2% to Boras: Material Purchasing Price - 3663 (MSEK)"}},{"from_stop_id":142,"to_stop_id":157,"geometry":"MULTILINESTRING((15390245.100361 4328841.562513,1440454.062037 7908942.597708))","attributes":{"distance":"8395.766681","title":"Japan: 41TSEK, 0% to Boras: Material Purchasing Price - 3663 (MSEK)"}},{"from_stop_id":141,"to_stop_id":157,"geometry":"MULTILINESTRING((14222948.697264 4287936.289399,1440454.062037 7908942.597708))","attributes":{"title":"South Korea: 735TSEK, 0.02% to Boras: Material Purchasing Price - 3663 (MSEK)","distance":"7971.118741"}},{"from_stop_id":140,"to_stop_id":157,"geometry":"MULTILINESTRING((2738814.471371 7735556.799888,1440454.062037 7908942.597708))","attributes":{"distance":"705.953038","title":"Latvia: 8096TSEK, 0.22% to Boras: Material Purchasing Price - 3663 (MSEK)"}},{"from_stop_id":139,"to_stop_id":157,"geometry":"MULTILINESTRING((2658451.372494 7394820.260241,1440454.062037 7908942.597708))","attributes":{"distance":"728.823530","title":"Lithuania: 293630TSEK, 8.02% to Boras: Material Purchasing Price - 3663 (MSEK)"}},{"from_stop_id":138,"to_stop_id":157,"geometry":"MULTILINESTRING((11351890.344374 469131.367658,1440454.062037 7908942.597708))","attributes":{"distance":"9554.596897","title":"Malaysia: 8039TSEK, 0.22% to Boras: Material Purchasing Price - 3663 (MSEK)"}},{"from_stop_id":137,"to_stop_id":157,"geometry":"MULTILINESTRING((-11416123.694313 2708933.292233,1440454.062037 7908942.597708))","attributes":{"distance":"9187.400872","title":"Mexico: 76TSEK, 0% to Boras: Material Purchasing Price - 3663 (MSEK)"}},{"from_stop_id":136,"to_stop_id":157,"geometry":"MULTILINESTRING((589021.036772 6824142.821624,1440454.062037 7908942.597708))","attributes":{"distance":"789.552577","title":"Netherlands: 13218TSEK, 0.36% to Boras: Material Purchasing Price - 3663 (MSEK)"}},{"from_stop_id":135,"to_stop_id":157,"geometry":"MULTILINESTRING((942758.756276 8505587.038689,1440454.062037 7908942.597708))","attributes":{"distance":"398.274368","title":"Norway: 16830TSEK, 0.46% to Boras: Material Purchasing Price - 3663 (MSEK)"}},{"from_stop_id":134,"to_stop_id":157,"geometry":"MULTILINESTRING((2131226.790688 6785571.898792,1440454.062037 7908942.597708))","attributes":{"distance":"757.065321","title":"Poland: 10140TSEK, 0.28% to Boras: Material Purchasing Price - 3663 (MSEK)"}},{"from_stop_id":133,"to_stop_id":157,"geometry":"MULTILINESTRING((-915542.031333 4779112.741647,1440454.062037 7908942.597708))","attributes":{"distance":"2541.630016","title":"Portugal: 138TSEK, 0% to Boras: Material Purchasing Price - 3663 (MSEK)"}},{"from_stop_id":132,"to_stop_id":157,"geometry":"MULTILINESTRING((2779287.009958 5771245.404432,1440454.062037 7908942.597708))","attributes":{"title":"Romania: 2828TSEK, 0.08% to Boras: Material Purchasing Price - 3663 (MSEK)","distance":"1543.528777"}},{"from_stop_id":131,"to_stop_id":157,"geometry":"MULTILINESTRING((11724030.288901 8747149.04879,1440454.062037 7908942.597708))","attributes":{"distance":"4769.701753","title":"Russia: 9658TSEK, 0.26% to Boras: Material Purchasing Price - 3663 (MSEK)"}},{"from_stop_id":130,"to_stop_id":157,"geometry":"MULTILINESTRING((11557171.277761 150527.162641,1440454.062037 7908942.597708))","attributes":{"distance":"9932.684526","title":"Singapore: 26TSEK, 0% to Boras: Material Purchasing Price - 3663 (MSEK)"}},{"from_stop_id":129,"to_stop_id":157,"geometry":"MULTILINESTRING((1669287.305369 5804618.909739,1440454.062037 7908942.597708))","attributes":{"title":"Slovenia: 11317TSEK, 0.31% to Boras: Material Purchasing Price - 3663 (MSEK)","distance":"1294.043533"}},{"from_stop_id":128,"to_stop_id":157,"geometry":"MULTILINESTRING((2553391.487988 -3575670.675527,1440454.062037 7908942.597708))","attributes":{"distance":"9860.851012","title":"South Africa: 54966TSEK, 1.5% to Boras: Material Purchasing Price - 3663 (MSEK)"}},{"from_stop_id":127,"to_stop_id":157,"geometry":"MULTILINESTRING((-417361.261272 4933551.652462,1440454.062037 7908942.597708))","attributes":{"distance":"2257.658862","title":"Spain: 22306TSEK, 0.61% to Boras: Material Purchasing Price - 3663 (MSEK)"}},{"from_stop_id":126,"to_stop_id":157,"geometry":"MULTILINESTRING((2075385.037924 8428326.96544,1440454.062037 7908942.597708))","attributes":{"title":"Sweden: 1922238TSEK, 52.48% to Boras: Material Purchasing Price - 3663 (MSEK)","distance":"422.608059"}},{"from_stop_id":125,"to_stop_id":157,"geometry":"MULTILINESTRING((915882.446336 5912448.054871,1440454.062037 7908942.597708))","attributes":{"distance":"1253.268673","title":"Switzerland: 1532TSEK, 0.04% to Boras: Material Purchasing Price - 3663 (MSEK)"}},{"from_stop_id":124,"to_stop_id":157,"geometry":"MULTILINESTRING((13465262.935892 2716627.939237,1440454.062037 7908942.597708))","attributes":{"distance":"8799.253139","title":"Taiwan: 1677TSEK, 0.05% to Boras: Material Purchasing Price - 3663 (MSEK)"}},{"from_stop_id":123,"to_stop_id":157,"geometry":"MULTILINESTRING((1061709.532121 4013627.830394,1440454.062037 7908942.597708))","attributes":{"distance":"2662.525958","title":"Tunisia: 7075TSEK, 0.19% to Boras: Material Purchasing Price - 3663 (MSEK)"}},{"from_stop_id":122,"to_stop_id":157,"geometry":"MULTILINESTRING((3923268.658903 4716479.684629,1440454.062037 7908942.597708))","attributes":{"distance":"2632.766805","title":"Turkey: 79382TSEK, 2.17% to Boras: Material Purchasing Price - 3663 (MSEK)"}},{"from_stop_id":121,"to_stop_id":157,"geometry":"MULTILINESTRING((-382490.764739 7435586.530983,1440454.062037 7908942.597708))","attributes":{"distance":"1034.133548","title":"UK: 54613TSEK, 1.49% to Boras: Material Purchasing Price - 3663 (MSEK)"}},{"from_stop_id":120,"to_stop_id":157,"geometry":"MULTILINESTRING((-10654710.288472 4451692.554811,1440454.062037 7908942.597708))","attributes":{"distance":"7568.000801","title":"USA: 5371TSEK, 0.15% to Boras: Material Purchasing Price - 3663 (MSEK)"}},{"from_stop_id":118,"to_stop_id":119,"geometry":"MULTILINESTRING((497590.999399 6534001.856289,8637787.208091 1456487.675599))","attributes":{"distance":"7708.117945","title":"Belgium: 216TSEK, 0.1% to Bangalore: Material Price - 212 (MSEK)"}},{"from_stop_id":117,"to_stop_id":119,"geometry":"MULTILINESTRING((11598978.537043 4281602.659627,8637787.208091 1456487.675599))","attributes":{"distance":"3681.286485","title":"China: 6897TSEK, 3.3% to Bangalore: Material Price - 212 (MSEK)"}},{"from_stop_id":116,"to_stop_id":119,"geometry":"MULTILINESTRING((2866271.058188 8841170.394214,8637787.208091 1456487.675599))","attributes":{"title":"Finland: 929TSEK, 0.4% to Bangalore: Material Price - 212 (MSEK)","distance":"6807.826210"}},{"from_stop_id":115,"to_stop_id":119,"geometry":"MULTILINESTRING((8790107.59317 2343495.165705,8637787.208091 1456487.675599))","attributes":{"distance":"859.941262","title":"India: 203764TSEK, 96.1% to Bangalore: Material Price - 212 (MSEK)"}},{"from_stop_id":114,"to_stop_id":119,"geometry":"MULTILINESTRING((2075385.037924 8428326.96544,8637787.208091 1456487.675599))","attributes":{"distance":"7069.576576","title":"Sweden: 298TSEK, 0.1% to Bangalore: Material Price - 212 (MSEK)"}},{"from_stop_id":113,"to_stop_id":119,"geometry":"MULTILINESTRING((-382490.764739 7435586.530983,8637787.208091 1456487.675599))","attributes":{"title":"United Kingdom: 2TSEK, 0% to Bangalore: Material Price - 212 (MSEK)","distance":"8258.880003"}},{"from_stop_id":111,"to_stop_id":112,"geometry":"MULTILINESTRING((497590.999399 6534001.856289,-9205180.448538 5226462.807718))","attributes":{"distance":"6343.437628","title":"Belgium: 256TSEK, 0.05% to Prevost Bus: Material Price - 567MSEK"}},{"from_stop_id":110,"to_stop_id":112,"geometry":"MULTILINESTRING((-5780295.728898 -1601191.813438,-9205180.448538 5226462.807718))","attributes":{"title":"Brazil: 642TSEK, 0.11% to Prevost Bus: Material Price - 567MSEK","distance":"7042.553967"}},{"from_stop_id":109,"to_stop_id":112,"geometry":"MULTILINESTRING((-11838468.395229 7584411.732747,-9205180.448538 5226462.807718))","attributes":{"distance":"2273.322040","title":"Canada: 354081TSEK, 62.43% to Prevost Bus: Material Price - 567MSEK"}},{"from_stop_id":108,"to_stop_id":112,"geometry":"MULTILINESTRING((11598978.537043 4281602.659627,-9205180.448538 5226462.807718))","attributes":{"distance":"11280.756956","title":"China: 224TSEK, 0.04% to Prevost Bus: Material Price - 567MSEK"}},{"from_stop_id":107,"to_stop_id":112,"geometry":"MULTILINESTRING((1722442.250904 6414728.45895,-9205180.448538 5226462.807718))","attributes":{"distance":"7048.857087","title":"Czech Rep.: 1TSEK, 0% to Prevost Bus: Material Price - 567MSEK"}},{"from_stop_id":106,"to_stop_id":112,"geometry":"MULTILINESTRING((2866271.058188 8841170.394214,-9205180.448538 5226462.807718))","attributes":{"distance":"6777.931356","title":"Finland: 1058TSEK, 0.19% to Prevost Bus: Material Price - 567MSEK"}},{"from_stop_id":105,"to_stop_id":112,"geometry":"MULTILINESTRING((246433.411424 5816903.713427,-9205180.448538 5226462.807718))","attributes":{"distance":"6429.288584","title":"France: 3462TSEK, 0.61% to Prevost Bus: Material Price - 567MSEK"}},{"from_stop_id":104,"to_stop_id":112,"geometry":"MULTILINESTRING((1163458.552333 6650655.041174,-9205180.448538 5226462.807718))","attributes":{"distance":"6669.936447","title":"Germany: 23914TSEK, 4.22% to Prevost Bus: Material Price - 567MSEK"}},{"from_stop_id":103,"to_stop_id":112,"geometry":"MULTILINESTRING((2171097.870066 5968637.679129,-9205180.448538 5226462.807718))","attributes":{"distance":"7463.470864","title":"Hungary: 845TSEK, 0.15% to Prevost Bus: Material Price - 567MSEK"}},{"from_stop_id":102,"to_stop_id":112,"geometry":"MULTILINESTRING((1398994.342206 5141815.937641,-9205180.448538 5226462.807718))","attributes":{"distance":"7385.699451","title":"Italy: 3143TSEK, 0.55% to Prevost Bus: Material Price - 567MSEK"}},{"from_stop_id":101,"to_stop_id":112,"geometry":"MULTILINESTRING((-11416123.694313 2708933.292233,-9205180.448538 5226462.807718))","attributes":{"title":"Mexico: 12825TSEK, 2.26% to Prevost Bus: Material Price - 567MSEK","distance":"2778.100728"}},{"from_stop_id":100,"to_stop_id":112,"geometry":"MULTILINESTRING((589021.036772 6824142.821624,-9205180.448538 5226462.807718))","attributes":{"title":"Netherlands: 1795TSEK, 0.32% to Prevost Bus: Material Price - 567MSEK","distance":"6307.775169"}},{"from_stop_id":99,"to_stop_id":112,"geometry":"MULTILINESTRING((2131226.790688 6785571.898792,-9205180.448538 5226462.807718))","attributes":{"title":"Poland: 12TSEK, 0% to Prevost Bus: Material Price - 567MSEK","distance":"7120.781372"}},{"from_stop_id":98,"to_stop_id":112,"geometry":"MULTILINESTRING((-417361.261272 4933551.652462,-9205180.448538 5226462.807718))","attributes":{"distance":"6330.858972","title":"Spain: 9681TSEK, 1.71% to Prevost Bus: Material Price - 567MSEK"}},{"from_stop_id":97,"to_stop_id":112,"geometry":"MULTILINESTRING((2075385.037924 8428326.96544,-9205180.448538 5226462.807718))","attributes":{"distance":"6576.630737","title":"Sweden: 942TSEK, 0.17% to Prevost Bus: Material Price - 567MSEK"}},{"from_stop_id":96,"to_stop_id":112,"geometry":"MULTILINESTRING((915882.446336 5912448.054871,-9205180.448538 5226462.807718))","attributes":{"title":"Switzerland: 237TSEK, 0.04% to Prevost Bus: Material Price - 567MSEK","distance":"6789.326555"}},{"from_stop_id":95,"to_stop_id":112,"geometry":"MULTILINESTRING((13465262.935892 2716627.939237,-9205180.448538 5226462.807718))","attributes":{"distance":"12270.939263","title":"Taiwan: 1190TSEK, 0.21% to Prevost Bus: Material Price - 567MSEK"}},{"from_stop_id":94,"to_stop_id":112,"geometry":"MULTILINESTRING((-382490.764739 7435586.530983,-9205180.448538 5226462.807718))","attributes":{"distance":"5637.033282","title":"UK: 1802TSEK, 0.32% to Prevost Bus: Material Price - 567MSEK"}},{"from_stop_id":93,"to_stop_id":112,"geometry":"MULTILINESTRING((-10654710.288472 4451692.554811,-9205180.448538 5226462.807718))","attributes":{"distance":"1259.806756","title":"USA: 151028TSEK, 26.63% to Prevost Bus: Material Price - 567MSEK"}},{"from_stop_id":91,"to_stop_id":92,"geometry":"MULTILINESTRING((-11838468.395229 7584411.732747,-8225150.936001 5712146.843241))","attributes":{"distance":"2530.922778","title":"Canada: 1868TSEK, 55% to St. Eustache: Material Price - 3.4MSEK"}},{"from_stop_id":90,"to_stop_id":92,"geometry":"MULTILINESTRING((-10654710.288472 4451692.554811,-8225150.936001 5712146.843241))","attributes":{"distance":"2042.720647","title":"USA: 1325TSEK, 39% to St. Eustache: Material Price - 3.4MSEK"}},{"from_stop_id":89,"to_stop_id":92,"geometry":"MULTILINESTRING((1698192.045675 7270403.143886,-8225150.936001 5712146.843241))","attributes":{"distance":"6005.535888","title":"EU: 204TSEK, 6% to St. Eustache: Material Price - 3.4MSEK"}},{"from_stop_id":87,"to_stop_id":88,"geometry":"MULTILINESTRING((-11838468.395229 7584411.732747,-8176740.805651 5574335.332209))","attributes":{"distance":"2619.540968","title":"Canada: 3026TSEK, 31% to Plattsburgh: Material Price - 9.8MSEK"}},{"from_stop_id":86,"to_stop_id":88,"geometry":"MULTILINESTRING((-10654710.288472 4451692.554811,-8176740.805651 5574335.332209))","attributes":{"distance":"2044.730530","title":"USA: 6149TSEK, 63% to Plattsburgh: Material Price - 9.8MSEK"}},{"from_stop_id":85,"to_stop_id":88,"geometry":"MULTILINESTRING((1698192.045675 7270403.143886,-8176740.805651 5574335.332209))","attributes":{"distance":"6048.986447","title":"EU: 586TSEK, 6% to Plattsburgh: Material Price - 9.8MSEK"}},{"from_stop_id":84,"to_stop_id":83,"geometry":"MULTILINESTRING((1896721.329494 6640399.598409,942758.756276 8505587.038689))","attributes":{"title":"Wrolcaw: Complete Bus - 925 Unit to Norway: 372, 40.22%","distance":"1168.783700"}},{"from_stop_id":84,"to_stop_id":82,"geometry":"MULTILINESTRING((1896721.329494 6640399.598409,2075385.037924 8428326.96544))","attributes":{"title":"Wrolcaw: Complete Bus - 925 Unit to Sweden: 111, 12%","distance":"1007.981801"}},{"from_stop_id":84,"to_stop_id":81,"geometry":"MULTILINESTRING((1896721.329494 6640399.598409,1163458.552333 6650655.041174))","attributes":{"distance":"459.471940","title":"Wrolcaw: Complete Bus - 925 Unit to Germany: 89, 9.62%"}},{"from_stop_id":84,"to_stop_id":80,"geometry":"MULTILINESTRING((1896721.329494 6640399.598409,915882.446336 5912448.054871))","attributes":{"title":"Wrolcaw: Complete Bus - 925 Unit to Switzerland: 49, 5.3%","distance":"799.914574"}},{"from_stop_id":84,"to_stop_id":79,"geometry":"MULTILINESTRING((1896721.329494 6640399.598409,1619706.606045 6026746.974644))","attributes":{"title":"Wrolcaw: Complete Bus - 925 Unit to Austria: 47, 5.08%","distance":"438.160605"}},{"from_stop_id":84,"to_stop_id":78,"geometry":"MULTILINESTRING((1896721.329494 6640399.598409,1398994.342206 5141815.937641))","attributes":{"distance":"1082.008255","title":"Wrolcaw: Complete Bus - 925 Unit to Italy: 38, 4.11%"}},{"from_stop_id":84,"to_stop_id":77,"geometry":"MULTILINESTRING((1896721.329494 6640399.598409,589021.036772 6824142.821624))","attributes":{"distance":"818.042437","title":"Wrolcaw: Complete Bus - 925 Unit to Netherlands: 34, 3.68%"}},{"from_stop_id":84,"to_stop_id":76,"geometry":"MULTILINESTRING((1896721.329494 6640399.598409,246433.411424 5816903.713427))","attributes":{"distance":"1213.447377","title":"Wrolcaw: Complete Bus - 925 Unit to France: 34, 3.68%"}},{"from_stop_id":84,"to_stop_id":75,"geometry":"MULTILINESTRING((1896721.329494 6640399.598409,1057733.867827 7611135.068229))","attributes":{"distance":"757.427845","title":"Wrolcaw: Complete Bus - 925 Unit to Denmark: 30, 3.24%"}},{"from_stop_id":84,"to_stop_id":74,"geometry":"MULTILINESTRING((1896721.329494 6640399.598409,-11416123.694313 2708933.292233))","attributes":{"distance":"9829.150613","title":"Wrolcaw: Complete Bus - 925 Unit to Mexico: 28, 3.03%"}},{"from_stop_id":84,"to_stop_id":73,"geometry":"MULTILINESTRING((1896721.329494 6640399.598409,-382490.764739 7435586.530983))","attributes":{"distance":"1436.468822","title":"Wrolcaw: Complete Bus - 925 Unit to United Kingdom: 25, 2.7%"}},{"from_stop_id":84,"to_stop_id":72,"geometry":"MULTILINESTRING((1896721.329494 6640399.598409,2866271.058188 8841170.394214))","attributes":{"distance":"1313.368657","title":"Wrolcaw: Complete Bus - 925 Unit to Finland: 20, 2.16%"}},{"from_stop_id":84,"to_stop_id":71,"geometry":"MULTILINESTRING((1896721.329494 6640399.598409,-417361.261272 4933551.652462))","attributes":{"distance":"1988.269701","title":"Wrolcaw: Complete Bus - 925 Unit to Spain: 12, 1.3%"}},{"from_stop_id":84,"to_stop_id":70,"geometry":"MULTILINESTRING((1896721.329494 6640399.598409,497590.999399 6534001.856289))","attributes":{"distance":"884.655851","title":"Wrolcaw: Complete Bus - 925 Unit to Belgium: 10, 1.08%"}},{"from_stop_id":84,"to_stop_id":69,"geometry":"MULTILINESTRING((1896721.329494 6640399.598409,1722442.250904 6414728.45895))","attributes":{"title":"Wrolcaw: Complete Bus - 925 Unit to Czech Republic: 8, 0.86%","distance":"181.288400"}},{"from_stop_id":84,"to_stop_id":68,"geometry":"MULTILINESTRING((1896721.329494 6640399.598409,2131226.790688 6785571.898792))","attributes":{"distance":"171.436565","title":"Wrolcaw: Complete Bus - 925 Unit to Poland: 6, 0.65%"}},{"from_stop_id":84,"to_stop_id":67,"geometry":"MULTILINESTRING((1896721.329494 6640399.598409,2738814.471371 7735556.799888))","attributes":{"title":"Wrolcaw: Complete Bus - 925 Unit to Latvia: 5, 0.54%","distance":"809.197013"}},{"from_stop_id":84,"to_stop_id":66,"geometry":"MULTILINESTRING((1896721.329494 6640399.598409,1692056.260058 5637278.201891))","attributes":{"title":"Wrolcaw: Complete Bus - 925 Unit to Croatia: 3, 0.32%","distance":"681.792915"}},{"from_stop_id":84,"to_stop_id":65,"geometry":"MULTILINESTRING((1896721.329494 6640399.598409,2171097.870066 5968637.679129))","attributes":{"distance":"473.869647","title":"Wrolcaw: Complete Bus - 925 Unit to Hungary: 2, 0.22%"}},{"from_stop_id":84,"to_stop_id":64,"geometry":"MULTILINESTRING((1896721.329494 6640399.598409,2779287.009958 5771245.404432))","attributes":{"title":"Wrolcaw: Complete Bus - 925 Unit to Romania: 1, 0.11%","distance":"818.093273"}},{"from_stop_id":84,"to_stop_id":63,"geometry":"MULTILINESTRING((1896721.329494 6640399.598409,2784501.994143 8093419.123256))","attributes":{"distance":"975.134632","title":"Wrolcaw: Complete Bus - 925 Unit to Estonia: 1, 0.11%"}},{"from_stop_id":62,"to_stop_id":61,"geometry":"MULTILINESTRING((1439372.927143 8209115.431399,1057733.867827 7611135.068229))","attributes":{"distance":"378.377998","title":"Saffle: 253 Unit to Denmark: 29, 12%"}},{"from_stop_id":62,"to_stop_id":60,"geometry":"MULTILINESTRING((1439372.927143 8209115.431399,942758.756276 8505587.038689))","attributes":{"distance":"290.489154","title":"Saffle: 253 Unit to Norway: 67, 26%"}},{"from_stop_id":62,"to_stop_id":59,"geometry":"MULTILINESTRING((1439372.927143 8209115.431399,2075385.037924 8428326.96544))","attributes":{"distance":"339.601329","title":"Saffle: 253 Unit to Sweden: 157, 62%"}},{"from_stop_id":58,"to_stop_id":57,"geometry":"MULTILINESTRING((-11035458.235264 2205935.269899,-11416123.694313 2708933.292233))","attributes":{"distance":"585.934663","title":"Mexico City: Complete Bus - 799 Unit to Mexico: 749, 93.7%"}},{"from_stop_id":58,"to_stop_id":56,"geometry":"MULTILINESTRING((-11035458.235264 2205935.269899,-10654710.288472 4451692.554811))","attributes":{"distance":"1991.390373","title":"Mexico City: Complete Bus - 799 Unit to USA: 50, 6.3%"}},{"from_stop_id":55,"to_stop_id":54,"geometry":"MULTILINESTRING((-5485073.266709 -2928450.962028,-7081775.533003 -4638374.275084))","attributes":{"distance":"1974.444883","title":"Curitiba: Complete Bus - 2623 Unit to Argentina: 85, 3.2%"}},{"from_stop_id":55,"to_stop_id":53,"geometry":"MULTILINESTRING((-5485073.266709 -2928450.962028,-5780295.728898 -1601191.813438))","attributes":{"distance":"1275.048549","title":"Curitiba: Complete Bus - 2623 Unit to Brazil: 2030, 77.4%"}},{"from_stop_id":55,"to_stop_id":52,"geometry":"MULTILINESTRING((-5485073.266709 -2928450.962028,-7964126.878919 -4256013.675159))","attributes":{"distance":"2409.550316","title":"Curitiba: Complete Bus - 2623 Unit to Chile: 100, 3.8%"}},{"from_stop_id":55,"to_stop_id":51,"geometry":"MULTILINESTRING((-5485073.266709 -2928450.962028,-8270741.276858 509367.281339))","attributes":{"title":"Curitiba: Complete Bus - 2623 Unit to Colombia: 161, 6.1%","distance":"4292.070512"}},{"from_stop_id":55,"to_stop_id":50,"geometry":"MULTILINESTRING((-5485073.266709 -2928450.962028,-9323388.957151 1090519.231591))","attributes":{"title":"Curitiba: Complete Bus - 2623 Unit to Costa Rica: 2, 0.1%","distance":"5406.671645"}},{"from_stop_id":55,"to_stop_id":49,"geometry":"MULTILINESTRING((-5485073.266709 -2928450.962028,3428918.392521 3101070.050794))","attributes":{"distance":"10357.045394","title":"Curitiba: Complete Bus - 2623 Unit to Egypt: 2, 0.1%"}},{"from_stop_id":55,"to_stop_id":48,"geometry":"MULTILINESTRING((-5485073.266709 -2928450.962028,-8703336.944404 -203887.308284))","attributes":{"title":"Curitiba: Complete Bus - 2623 Unit to Equador: 80, 3%","distance":"4058.236863"}},{"from_stop_id":55,"to_stop_id":47,"geometry":"MULTILINESTRING((-5485073.266709 -2928450.962028,-10044442.145771 1779661.011764))","attributes":{"title":"Curitiba: Complete Bus - 2623 Unit to Guatemala: 2, 0.1%","distance":"6376.871664"}},{"from_stop_id":55,"to_stop_id":46,"geometry":"MULTILINESTRING((-5485073.266709 -2928450.962028,-11416123.694313 2708933.292233))","attributes":{"distance":"7915.134294","title":"Curitiba: Complete Bus - 2623 Unit to Mexico: 63, 2.4%"}},{"from_stop_id":55,"to_stop_id":45,"geometry":"MULTILINESTRING((-5485073.266709 -2928450.962028,-8350648.52242 -1027437.355768))","attributes":{"distance":"3263.716024","title":"Curitiba: Complete Bus - 2623 Unit to Peru: 38, 1.4%"}},{"from_stop_id":55,"to_stop_id":44,"geometry":"MULTILINESTRING((-5485073.266709 -2928450.962028,2553391.487988 -3575670.675527))","attributes":{"distance":"6991.574897","title":"Curitiba: Complete Bus - 2623 Unit to South Africa: 28, 1.1%"}},{"from_stop_id":55,"to_stop_id":43,"geometry":"MULTILINESTRING((-5485073.266709 -2928450.962028,-6207824.355862 -3832130.824994))","attributes":{"distance":"1010.006147","title":"Curitiba: Complete Bus - 2623 Unit to Uruguay: 32, 1.2%"}},{"from_stop_id":42,"to_stop_id":41,"geometry":"MULTILINESTRING((1440454.062037 7908942.597708,14891780.020321 -2909486.054997))","attributes":{"distance":"14175.277221","title":"Boras: Complete Bus - 4029 Unit to Australia: 495, 12.29%"}},{"from_stop_id":42,"to_stop_id":40,"geometry":"MULTILINESTRING((1440454.062037 7908942.597708,497590.999399 6534001.856289))","attributes":{"distance":"972.492396","title":"Boras: Complete Bus - 4029 Unit to Belgium: 143, 3.55%"}},{"from_stop_id":42,"to_stop_id":39,"geometry":"MULTILINESTRING((1440454.062037 7908942.597708,-5780295.728898 -1601191.813438))","attributes":{"distance":"9931.266857","title":"Boras: Complete Bus - 4029 Unit to Brazil: 7, 0.17%"}},{"from_stop_id":42,"to_stop_id":38,"geometry":"MULTILINESTRING((1440454.062037 7908942.597708,-8270741.276858 509367.281339))","attributes":{"distance":"9413.950047","title":"Boras: Complete Bus - 4029 Unit to Colombia: 945, 23.45%"}},{"from_stop_id":42,"to_stop_id":37,"geometry":"MULTILINESTRING((1440454.062037 7908942.597708,3428918.392521 3101070.050794))","attributes":{"distance":"3711.151367","title":"Boras: Complete Bus - 4029 Unit to Egypt: 28, 0.69%"}},{"from_stop_id":42,"to_stop_id":36,"geometry":"MULTILINESTRING((1440454.062037 7908942.597708,2866271.058188 8841170.394214))","attributes":{"title":"Boras: Complete Bus - 4029 Unit to Finland: 147, 3.65%","distance":"852.711446"}},{"from_stop_id":42,"to_stop_id":35,"geometry":"MULTILINESTRING((1440454.062037 7908942.597708,12702611.100717 2559188.1802))","attributes":{"distance":"8551.999835","title":"Boras: Complete Bus - 4029 Unit to Hong Kong: 2, 0.05%"}},{"from_stop_id":42,"to_stop_id":34,"geometry":"MULTILINESTRING((1440454.062037 7908942.597708,3879663.701165 3638731.187583))","attributes":{"distance":"3405.412672","title":"Boras: Complete Bus - 4029 Unit to Israel: 170, 4.22%"}},{"from_stop_id":42,"to_stop_id":33,"geometry":"MULTILINESTRING((1440454.062037 7908942.597708,-789546.84679 3735999.22766))","attributes":{"title":"Boras: Complete Bus - 4029 Unit to Morocco: 2, 0.05%","distance":"3260.586442"}},{"from_stop_id":42,"to_stop_id":32,"geometry":"MULTILINESTRING((1440454.062037 7908942.597708,589021.036772 6824142.821624))","attributes":{"title":"Boras: Complete Bus - 4029 Unit to Netherlands: 1, 0.02%","distance":"789.552577"}},{"from_stop_id":42,"to_stop_id":31,"geometry":"MULTILINESTRING((1440454.062037 7908942.597708,19468217.238607 -4997684.890551))","attributes":{"title":"Boras: Complete Bus - 4029 Unit to New Zealand: 3, 0.07%","distance":"17747.816472"}},{"from_stop_id":42,"to_stop_id":30,"geometry":"MULTILINESTRING((1440454.062037 7908942.597708,942758.756276 8505587.038689))","attributes":{"distance":"398.274368","title":"Boras: Complete Bus - 4029 Unit to Norway: 23, 0.57%"}},{"from_stop_id":42,"to_stop_id":29,"geometry":"MULTILINESTRING((1440454.062037 7908942.597708,-915542.031333 4779112.741647))","attributes":{"distance":"2541.630016","title":"Boras: Complete Bus - 4029 Unit to Portugal: 256, 6.35%"}},{"from_stop_id":42,"to_stop_id":28,"geometry":"MULTILINESTRING((1440454.062037 7908942.597708,11557171.277761 150527.162641))","attributes":{"distance":"9932.684526","title":"Boras: Complete Bus - 4029 Unit to Singapore: 233, 5.78%"}},{"from_stop_id":42,"to_stop_id":27,"geometry":"MULTILINESTRING((1440454.062037 7908942.597708,2553391.487988 -3575670.675527))","attributes":{"distance":"9860.851012","title":"Boras: Complete Bus - 4029 Unit to South Africa: 8, 0.2%"}},{"from_stop_id":42,"to_stop_id":26,"geometry":"MULTILINESTRING((1440454.062037 7908942.597708,-417361.261272 4933551.652462))","attributes":{"distance":"2257.658862","title":"Boras: Complete Bus - 4029 Unit to Spain: 440, 10.92%"}},{"from_stop_id":42,"to_stop_id":25,"geometry":"MULTILINESTRING((1440454.062037 7908942.597708,2075385.037924 8428326.96544))","attributes":{"distance":"422.608059","title":"Boras: Complete Bus - 4029 Unit to Sweden: 272, 6.75%"}},{"from_stop_id":42,"to_stop_id":24,"geometry":"MULTILINESTRING((1440454.062037 7908942.597708,13465262.935892 2716627.939237))","attributes":{"distance":"8799.253139","title":"Boras: Complete Bus - 4029 Unit to Taiwan: 25, 0.62%"}},{"from_stop_id":42,"to_stop_id":23,"geometry":"MULTILINESTRING((1440454.062037 7908942.597708,11242438.238039 1789676.623494))","attributes":{"distance":"8406.594307","title":"Boras: Complete Bus - 4029 Unit to Thailand: 1, 0.02%"}},{"from_stop_id":42,"to_stop_id":22,"geometry":"MULTILINESTRING((1440454.062037 7908942.597708,-382490.764739 7435586.530983))","attributes":{"title":"Boras: Complete Bus - 4029 Unit to UK: 828, 20.55%","distance":"1034.133548"}},{"from_stop_id":21,"to_stop_id":20,"geometry":"MULTILINESTRING((1440454.062037 7908942.597708,11598978.537043 4281602.659627))","attributes":{"distance":"6775.593472","title":"Boras: CKD Kits - 3618 Unit to China: 37, 1.02%"}},{"from_stop_id":21,"to_stop_id":19,"geometry":"MULTILINESTRING((1440454.062037 7908942.597708,8790107.59317 2343495.165705))","attributes":{"title":"Boras: CKD Kits - 3618 Unit to India: 714, 19.73%","distance":"6667.793528"}},{"from_stop_id":21,"to_stop_id":18,"geometry":"MULTILINESTRING((1440454.062037 7908942.597708,5976525.942406 3819612.201442))","attributes":{"distance":"4154.003911","title":"Boras: CKD Kits - 3618 Unit to Iran: 800, 22.11%"}},{"from_stop_id":21,"to_stop_id":17,"geometry":"MULTILINESTRING((1440454.062037 7908942.597708,-11416123.694313 2708933.292233))","attributes":{"distance":"9187.400872","title":"Boras: CKD Kits - 3618 Unit to Mexico: 717, 19.82%"}},{"from_stop_id":21,"to_stop_id":16,"geometry":"MULTILINESTRING((1440454.062037 7908942.597708,-789546.84679 3735999.22766))","attributes":{"title":"Boras: CKD Kits - 3618 Unit to Morocco (CKD): 246, 6.8%","distance":"3260.586442"}},{"from_stop_id":21,"to_stop_id":15,"geometry":"MULTILINESTRING((1440454.062037 7908942.597708,2131226.790688 6785571.898792))","attributes":{"distance":"757.065321","title":"Boras: CKD Kits - 3618 Unit to Poland: 849, 23.47%"}},{"from_stop_id":21,"to_stop_id":14,"geometry":"MULTILINESTRING((1440454.062037 7908942.597708,2553391.487988 -3575670.675527))","attributes":{"distance":"9860.851012","title":"Boras: CKD Kits - 3618 Unit to South Africa (CKD): 27, 0.75%"}},{"from_stop_id":21,"to_stop_id":13,"geometry":"MULTILINESTRING((1440454.062037 7908942.597708,11242438.238039 1789676.623494))","attributes":{"distance":"8406.594307","title":"Boras: CKD Kits - 3618 Unit to Thailand (CKD): 120, 3.32%"}},{"from_stop_id":21,"to_stop_id":12,"geometry":"MULTILINESTRING((1440454.062037 7908942.597708,1061709.532121 4013627.830394))","attributes":{"distance":"2662.525958","title":"Boras: CKD Kits - 3618 Unit to Tunisia: 108, 2.99%"}},{"from_stop_id":11,"to_stop_id":10,"geometry":"MULTILINESTRING((8637787.208091 1456487.675599,1619706.606045 6026746.974644))","attributes":{"distance":"6934.400524","title":"Bangalore: Complete Bus - 662 Unit to Austria: 4, 0.6%"}},{"from_stop_id":11,"to_stop_id":9,"geometry":"MULTILINESTRING((8637787.208091 1456487.675599,8790107.59317 2343495.165705))","attributes":{"distance":"859.941262","title":"Bangalore: Complete Bus - 662 Unit to India: 651, 98.3%"}},{"from_stop_id":11,"to_stop_id":8,"geometry":"MULTILINESTRING((8637787.208091 1456487.675599,2553391.487988 -3575670.675527))","attributes":{"distance":"7584.078552","title":"Bangalore: Complete Bus - 662 Unit to South Africa: 1.1%"}},{"from_stop_id":7,"to_stop_id":6,"geometry":"MULTILINESTRING((-9205180.448538 5226462.807718,-11838468.395229 7584411.732747))","attributes":{"distance":"2273.322040","title":"Prevost Bus: Complete Bus Sold - 533 Unit to Canada: 114, 21%"}},{"from_stop_id":7,"to_stop_id":5,"geometry":"MULTILINESTRING((-9205180.448538 5226462.807718,-10654710.288472 4451692.554811))","attributes":{"title":"Prevost Bus: Complete Bus Sold - 533 Unit to USA: 419, 79%","distance":"1259.806756"}},{"from_stop_id":4,"to_stop_id":3,"geometry":"MULTILINESTRING((-8225150.936001 5712146.843241,-11838468.395229 7584411.732747))","attributes":{"distance":"2530.922778","title":"St. Eustache: 40ft Bus Sold - 532 to Canada: 532, 100%"}},{"from_stop_id":2,"to_stop_id":1,"geometry":"MULTILINESTRING((-8176740.805651 5574335.332209,-10654710.288472 4451692.554811))","attributes":{"distance":"2044.730530","title":"Plattsburgh: 60ft Bus Sold - 199 to USA: 199, 100%"}}]},"editable":false}