{"type":"FeatureCollection","features":[{"type":"Feature","geometry":{"type":"Point","coordinates":[17.0385376,51.107885199999]},"properties":{"title":"Wroclaw: Material Purchasing Price - 930 (MSEK)","placename":"Wroc\u0142aw, Poland","address":"Wroclaw, Poland","description":"Inbound (MSEK)"}},{"type":"Feature","geometry":{"type":"Point","coordinates":[18.643501000001,60.128160999999]},"properties":{"title":"Sweden: 406118.9, 43.69\uff05","placename":"Sweden","address":"Sweden","description":"Material Price (TSEK)","size":"44"}},{"type":"Feature","geometry":{"type":"Point","coordinates":[19.145136,51.919437999998]},"properties":{"title":"Poland: 258208.3, 27.77\uff05","placename":"Poland","address":"Poland","description":"Material Price (TSEK)","size":"28"}},{"type":"Feature","geometry":{"type":"Point","coordinates":[10.451526000003,51.165690999999]},"properties":{"title":"Germany: 134142.4, 14.43\uff05","placename":"Germany","address":"Germany","description":"Material Price (TSEK)","size":"14"}},{"type":"Feature","geometry":{"type":"Point","coordinates":[25.748150999997,61.924109999999]},"properties":{"title":"Finland: 49413.2, 5.32\uff05","placename":"Finland","address":"Finland","description":"Material Price (TSEK)","size":"5"}},{"type":"Feature","geometry":{"type":"Point","coordinates":[12.567380000004,41.871939999999]},"properties":{"title":"Italy: 15998.9, 1.72\uff05","placename":"Italy","address":"Italy","description":"Material Price (TSEK)","size":"2"}},{"type":"Feature","geometry":{"type":"Point","coordinates":[2.2137489999989,46.227638]},"properties":{"title":"France: 12319.6, 1.33\uff05","placename":"France","address":"France","description":"Material Price (TSEK)","size":"1"}},{"type":"Feature","geometry":{"type":"Point","coordinates":[8.4689460000024,60.472024]},"properties":{"title":"Norway: 12252.6, 1.32\uff05","placename":"Norway","address":"Norway","description":"Material Price (TSEK)","size":"1"}},{"type":"Feature","geometry":{"type":"Point","coordinates":[4.4699360000043,50.503887000001]},"properties":{"title":"Belgium: 11809.3, 1.27\uff05","placename":"Belgium","address":"Belgium","description":"Material Price (TSEK)","size":"1"}},{"type":"Feature","geometry":{"type":"Point","coordinates":[35.243321999997,38.963745000001]},"properties":{"title":"Turkey: 4618.5, 0.5\uff05","placename":"Turkey","address":"Turkey","description":"Material Price (TSEK)","size":"1"}},{"type":"Feature","geometry":{"type":"Point","coordinates":[9.5017849999985,56.263920000001]},"properties":{"title":"Denmark: 4122.6, 0.44\uff05","placename":"Denmark","address":"Denmark","description":"Material Price (TSEK)","size":"0"}},{"type":"Feature","geometry":{"type":"Point","coordinates":[5.2912660000021,52.132633000001]},"properties":{"title":"Netherlands: 3922.7, 0.42\uff05","placename":"The Netherlands","address":"Netherlands","description":"Material Price (TSEK)","size":"0"}},{"type":"Feature","geometry":{"type":"Point","coordinates":[19.503303999996,47.162493999998]},"properties":{"title":"Hungary: 3879.1, 0.42\uff05","placename":"Hungary","address":"Hungary","description":"Material Price (TSEK)","size":"0"}},{"type":"Feature","geometry":{"type":"Point","coordinates":[8.2275120000041,46.818187999999]},"properties":{"title":"Switzerland: 3564.3, 0.38\uff05","placename":"Switzerland","address":"Switzerland","description":"Material Price (TSEK)","size":"0"}},{"type":"Feature","geometry":{"type":"Point","coordinates":[-3.7492200000004,40.463667000002]},"properties":{"title":"Spain: 2535.6, 0.27\uff05","placename":"Spain","address":"Spain","description":"Material Price (TSEK)","size":"0"}},{"type":"Feature","geometry":{"type":"Point","coordinates":[-3.4359729999961,55.378051000001]},"properties":{"title":"Great Britain: 2262.1, 0.24\uff05","placename":"United Kingdom","address":"Great Britain","description":"Material Price (TSEK)","size":"0"}},{"type":"Feature","geometry":{"type":"Point","coordinates":[14.550071999996,47.516230999997]},"properties":{"title":"Austria: 1290.4, 0.14\uff05","placename":"Austria","address":"Austria","description":"Material Price (TSEK)","size":"0"}},{"type":"Feature","geometry":{"type":"Point","coordinates":[104.195397,35.861660000001]},"properties":{"title":"China: 935.2, 0.1\uff05","placename":"China","address":"China","description":"Material Price (TSEK)","size":"0"}},{"type":"Feature","geometry":{"type":"Point","coordinates":[6.129582999999,49.815273000002]},"properties":{"title":"Luxembourg: 874.8, 0.09\uff05","placename":"Luxembourg","address":"Luxembourg","description":"Material Price (TSEK)","size":"0"}},{"type":"Feature","geometry":{"type":"Point","coordinates":[25.013606999999,58.595272000001]},"properties":{"title":"Estonia: 429.5, 0.05\uff05","placename":"Estonia","address":"Estonia","description":"Material Price (TSEK)","size":"0"}},{"type":"Feature","geometry":{"type":"Point","coordinates":[15.472962000003,49.817492]},"properties":{"title":"Czech Republic: 313.2, 0.03\uff05","placename":"Czech Republic","address":"Czech Republic","description":"Material Price (TSEK)","size":"0"}},{"type":"Feature","geometry":{"type":"Point","coordinates":[78.962879999997,20.593684000004]},"properties":{"title":"India: 242.2, 0.03\uff05","placename":"India","address":"India","description":"Material Price (TSEK)","size":"0"}},{"type":"Feature","geometry":{"type":"Point","coordinates":[101.975766,4.2104840000023]},"properties":{"title":"Malaysia: 161.8, 0.02\uff05","placename":"Malaysia","address":"Malaysia","description":"Material Price (TSEK)","size":"0"}},{"type":"Feature","geometry":{"type":"Point","coordinates":[-8.2244540000027,39.399871999999]},"properties":{"title":"Portugal: 127.6, 0.01\uff05","placename":"Portugal","address":"Portugal","description":"Material Price (TSEK)","size":"0"}},{"type":"Feature","geometry":{"type":"Point","coordinates":[-95.712890999999,37.090240000003]},"properties":{"title":"United States of America: 75.5, 0.01\uff05","placename":"United States","address":"United States of America","description":"Material Price (TSEK)","size":"0"}},{"type":"Feature","geometry":{"type":"Point","coordinates":[24.966760000001,45.943161000003]},"properties":{"title":"Romania: 21, 0\uff05","placename":"Romania","address":"Romania","description":"Material Price (TSEK)","size":"0"}},{"type":"Feature","geometry":{"type":"Point","coordinates":[23.881274999999,55.169437999999]},"properties":{"title":"Lithuania: 3.9, 0\uff05","placename":"Lithuania","address":"Lithuania","description":"Material Price (TSEK)","size":"0"}},{"type":"Feature","geometry":{"type":"Point","coordinates":[12.930107000004,59.132661]},"properties":{"title":"Saffle: 69 MSEK","placename":"S\u00e4ffle, Sweden","address":"Saffle, Sweden","description":"Inbound (MSEK)","size":"100"}},{"type":"Feature","geometry":{"type":"Point","coordinates":[10.451526000003,51.165690999999]},"properties":{"title":"Germany: 6900TSEK, 10%","placename":"Germany","address":"Germany","description":"Material Price (TSEK)","size":"10"}},{"type":"Feature","geometry":{"type":"Point","coordinates":[19.145136,51.919437999998]},"properties":{"title":"Poland: 41400TSEK, 60%","placename":"Poland","address":"Poland","description":"Material Price (TSEK)","size":"60"}},{"type":"Feature","geometry":{"type":"Point","coordinates":[18.643501000001,60.128160999999]},"properties":{"title":"Sweden: 20700 TSEK, 30%","placename":"Sweden","address":"Sweden","description":"Material Price (TSEK)","size":"30"}},{"type":"Feature","geometry":{"type":"Point","coordinates":[-99.133208000003,19.4326077]},"properties":{"title":"Mexico CIty: Material Price - 872 (MSEK)","placename":"Mexico City, Distrito Federal, Mexico","address":"Mexico City, Mexico","description":"Inbound (MEK)","size":"100"}},{"type":"Feature","geometry":{"type":"Point","coordinates":[-63.616672000003,-38.416096999997]},"properties":{"title":"Argentina: 31TSEK, 0%","placename":"Argentina","address":"Argentina","description":"Material Price (TSEK)","size":"0"}},{"type":"Feature","geometry":{"type":"Point","coordinates":[4.4699360000043,50.503887000001]},"properties":{"title":"Belgium: 82TSEK, 0%","placename":"Belgium","address":"Belgium","description":"Material Price (TSEK)","size":"0"}},{"type":"Feature","geometry":{"type":"Point","coordinates":[-51.925279999999,-14.235004]},"properties":{"title":"Brazil: 26025TSEK, 3%","placename":"Brazil","address":"Brazil","description":"Material Price (TSEK)","size":"3"}},{"type":"Feature","geometry":{"type":"Point","coordinates":[-106.346771,56.130366000001]},"properties":{"title":"Canada: 93TSEK, 0%","placename":"Canada","address":"Canada","description":"Material Price (TSEK)","size":"0"}},{"type":"Feature","geometry":{"type":"Point","coordinates":[104.195397,35.861660000001]},"properties":{"title":"China: 201TSEK, 0%","placename":"China","address":"China","description":"Material Price (TSEK)","size":"0"}},{"type":"Feature","geometry":{"type":"Point","coordinates":[9.5017849999985,56.263920000001]},"properties":{"title":"Denmark: 9TSEK, 0%","placename":"Denmark","address":"Denmark","description":"Material Price (TSEK)","size":"0"}},{"type":"Feature","geometry":{"type":"Point","coordinates":[25.013606999999,58.595272000001]},"properties":{"title":"Estonia: 268TSEK, 0%","placename":"Estonia","address":"Estonia","description":"Material Price (TSEK)","size":"0"}},{"type":"Feature","geometry":{"type":"Point","coordinates":[25.748150999997,61.924109999999]},"properties":{"title":"Finland: 18635TSEK, 2.1%","placename":"Finland","address":"Finland","description":"Material Price (TSEK)","size":"2"}},{"type":"Feature","geometry":{"type":"Point","coordinates":[2.2137489999989,46.227638]},"properties":{"title":"France: 579TSEK, 0.1%","placename":"France","address":"France","description":"Material Price (TSEK)","size":"0"}},{"type":"Feature","geometry":{"type":"Point","coordinates":[10.451526000003,51.165690999999]},"properties":{"title":"Germany: 17016TSEK, 2%","placename":"Germany","address":"Germany","description":"Material Price (TSEK)","size":"2"}},{"type":"Feature","geometry":{"type":"Point","coordinates":[12.567380000004,41.871939999999]},"properties":{"title":"Italy: 3873TSEK, 0.4%","placename":"Italy","address":"Italy","description":"Material Price (TSEK)","size":"0"}},{"type":"Feature","geometry":{"type":"Point","coordinates":[101.975766,4.2104840000023]},"properties":{"title":"Malaysia: 116TSEK, 0%","placename":"Malaysia","address":"Malaysia","description":"Material Price (TSEK)","size":"0"}},{"type":"Feature","geometry":{"type":"Point","coordinates":[-102.552784,23.634501000001]},"properties":{"title":"Mexico: 383621TSEK, 44%","placename":"Mexico","address":"Mexico","description":"Material Price (TSEK)","size":"44"}},{"type":"Feature","geometry":{"type":"Point","coordinates":[8.4689460000024,60.472024]},"properties":{"title":"Norway: 136TSEK, 0%","placename":"Norway","address":"Norway","description":"Material Price (TSEK)","size":"0"}},{"type":"Feature","geometry":{"type":"Point","coordinates":[19.145136,51.919437999998]},"properties":{"title":"Poland: 5622TSEK, 0.6%","placename":"Poland","address":"Poland","description":"Material Price (TSEK)","size":"1"}},{"type":"Feature","geometry":{"type":"Point","coordinates":[-3.7492200000004,40.463667000002]},"properties":{"title":"Spain: 4073TSEK, 0.5%","placename":"Spain","address":"Spain","description":"Material Price (TSEK)","size":"0"}},{"type":"Feature","geometry":{"type":"Point","coordinates":[18.643501000001,60.128160999999]},"properties":{"title":"Sweden: 364541TSEK, 41.8%","placename":"Sweden","address":"Sweden","description":"Material Price (TSEK)","size":"42"}},{"type":"Feature","geometry":{"type":"Point","coordinates":[35.243321999997,38.963745000001]},"properties":{"title":"Turkey: 12423TSEK, 1.4%","placename":"Turkey","address":"Turkey","description":"Material Price (TSEK)","size":"1"}},{"type":"Feature","geometry":{"type":"Point","coordinates":[-3.4359729999961,55.378051000001]},"properties":{"title":"UK: 19494TSEK, 2.2%","placename":"United Kingdom","address":"United Kingdom","description":"Material Price (TSEK)","size":"2"}},{"type":"Feature","geometry":{"type":"Point","coordinates":[-95.712890999999,37.090240000003]},"properties":{"title":"USA: 14910TSEK, 1.7%","placename":"United States","address":"United States of America","description":"Material Price (TSEK)","size":"2"}},{"type":"Feature","geometry":{"type":"Point","coordinates":[-49.273251500001,-25.428356300003]},"properties":{"title":"Curitiba: Material Price - 1223 (MSEK)","placename":"Curitiba - Paran\u00e1, Brazil","address":"Curitiba, Brazil","description":"Inbound (MEK)","size":"100"}},{"type":"Feature","geometry":{"type":"Point","coordinates":[-63.616672000003,-38.416096999997]},"properties":{"title":"Argentina: 7603TSEK, 0.6%","placename":"Argentina","address":"Argentina","description":"Material Price (TSEK)","size":"1"}},{"type":"Feature","geometry":{"type":"Point","coordinates":[14.550071999996,47.516230999997]},"properties":{"title":"Austria: 1570TSEK, 0.1%","placename":"Austria","address":"Austria","description":"Material Price (TSEK)","size":"0"}},{"type":"Feature","geometry":{"type":"Point","coordinates":[4.4699360000043,50.503887000001]},"properties":{"title":"Belgium: 16978TSEK, 1.4%","placename":"Belgium","address":"Belgium","description":"Material Price (TSEK)","size":"1"}},{"type":"Feature","geometry":{"type":"Point","coordinates":[-51.925279999999,-14.235004]},"properties":{"title":"Brazil: 797195TSEK, 65.2%","placename":"Brazil","address":"Brazil","description":"Material Price (TSEK)","size":"65"}},{"type":"Feature","geometry":{"type":"Point","coordinates":[-106.346771,56.130366000001]},"properties":{"title":"Canada: 143TSEK, 0%","placename":"Canada","address":"Canada","description":"Material Price (TSEK)","size":"0"}},{"type":"Feature","geometry":{"type":"Point","coordinates":[104.195397,35.861660000001]},"properties":{"title":"China: 587TSEK, 0%","placename":"China","address":"China","description":"Material Price (TSEK)","size":"0"}},{"type":"Feature","geometry":{"type":"Point","coordinates":[15.472962000003,49.817492]},"properties":{"title":"Czech Republic: 4229TSEK, 0.3%","placename":"Czech Republic","address":"Czech Republic","description":"Material Price (TSEK)","size":"0"}},{"type":"Feature","geometry":{"type":"Point","coordinates":[9.5017849999985,56.263920000001]},"properties":{"title":"Denmark: 1127TSEK, 0.1%","placename":"Denmark","address":"Denmark","description":"Material Price (TSEK)","size":"0"}},{"type":"Feature","geometry":{"type":"Point","coordinates":[25.013606999999,58.595272000001]},"properties":{"title":"Estonia: 3264TSEK, 0.3%","placename":"Estonia","address":"Estonia","description":"Material Price (TSEK)","size":"0"}},{"type":"Feature","geometry":{"type":"Point","coordinates":[25.748150999997,61.924109999999]},"properties":{"title":"Finland: 1156TSEK, 0.1%","placename":"Finland","address":"Finland","description":"Material Price (TSEK)","size":"0"}},{"type":"Feature","geometry":{"type":"Point","coordinates":[2.2137489999989,46.227638]},"properties":{"title":"France: 94167TSEK, 7.7%","placename":"France","address":"France","description":"Material Price (TSEK)","size":"8"}},{"type":"Feature","geometry":{"type":"Point","coordinates":[10.451526000003,51.165690999999]},"properties":{"title":"Germany: 89046TSEK, 7.3%","placename":"Germany","address":"Germany","description":"Material Price (TSEK)","size":"7"}},{"type":"Feature","geometry":{"type":"Point","coordinates":[19.503303999996,47.162493999998]},"properties":{"title":"Hungary: 4904TSEK, 0.4%","placename":"Hungary","address":"Hungary","description":"Material Price (TSEK)","size":"0"}},{"type":"Feature","geometry":{"type":"Point","coordinates":[78.962879999997,20.593684000004]},"properties":{"title":"India: 6203TSEK, 0.5%","placename":"India","address":"India","description":"Material Price (TSEK)","size":"1"}},{"type":"Feature","geometry":{"type":"Point","coordinates":[12.567380000004,41.871939999999]},"properties":{"title":"Italy: 8090TSEK, 0.7%","placename":"Italy","address":"Italy","description":"Material Price (TSEK)","size":"1"}},{"type":"Feature","geometry":{"type":"Point","coordinates":[127.766922,35.907756999999]},"properties":{"title":"South Korea: 398TSEK, 0%","placename":"South Korea","address":"South Korea","description":"Material Price (TSEK)","size":"0"}},{"type":"Feature","geometry":{"type":"Point","coordinates":[24.603189000003,56.879635000001]},"properties":{"title":"Latvia: 45TSEK, 0%","placename":"Latvia","address":"Latvia","description":"Material Price (TSEK)","size":"0"}},{"type":"Feature","geometry":{"type":"Point","coordinates":[23.881274999999,55.169437999999]},"properties":{"title":"Lithuania: 147TSEK, 0%","placename":"Lithuania","address":"Lithuania","description":"Material Price (TSEK)","size":"0"}},{"type":"Feature","geometry":{"type":"Point","coordinates":[6.129582999999,49.815273000002]},"properties":{"title":"Luxembourg: 3TSEK, 0%","placename":"Luxembourg","address":"Luxembourg","description":"Material Price (TSEK)","size":"0"}},{"type":"Feature","geometry":{"type":"Point","coordinates":[-102.552784,23.634501000001]},"properties":{"title":"Mexico: 656TSEK, 0.1%","placename":"Mexico","address":"Mexico","description":"Material Price (TSEK)","size":"0"}},{"type":"Feature","geometry":{"type":"Point","coordinates":[7.4246158000028,43.738417600001]},"properties":{"title":"Monaco: 562TSEK, 0%","placename":"Monaco","address":"Monaco","description":"Material Price (TSEK)","size":"0"}},{"type":"Feature","geometry":{"type":"Point","coordinates":[5.2912660000021,52.132633000001]},"properties":{"title":"Netherlands: 8546TSEK, 0.7%","placename":"The Netherlands","address":"Netherlands","description":"Material Price (TSEK)","size":"1"}},{"type":"Feature","geometry":{"type":"Point","coordinates":[8.4689460000024,60.472024]},"properties":{"title":"Norway: 13648TSEK, 1.1%","placename":"Norway","address":"Norway","description":"Material Price (TSEK)","size":"1"}},{"type":"Feature","geometry":{"type":"Point","coordinates":[19.145136,51.919437999998]},"properties":{"title":"Poland: 9972TSEK, 0.8%","placename":"Poland","address":"Poland","description":"Material Price (TSEK)","size":"1"}},{"type":"Feature","geometry":{"type":"Point","coordinates":[-8.2244540000027,39.399871999999]},"properties":{"title":"Portugal: 4360TSEK, 0.4%","placename":"Portugal","address":"Portugal","description":"Material Price (TSEK)","size":"0"}},{"type":"Feature","geometry":{"type":"Point","coordinates":[24.966760000001,45.943161000003]},"properties":{"title":"Romania: 377TSEK, 0%","placename":"Romania","address":"Romania","description":"Material Price (TSEK)","size":"0"}},{"type":"Feature","geometry":{"type":"Point","coordinates":[19.699023999996,48.669026]},"properties":{"title":"Slovakia: 538TSEK, 0%","placename":"Slovakia","address":"Slovakia","description":"Material Price (TSEK)","size":"0"}},{"type":"Feature","geometry":{"type":"Point","coordinates":[14.995462999997,46.151240999997]},"properties":{"title":"Slovenia: 253TSEK, 0%","placename":"Slovenia","address":"Slovenia","description":"Material Price (TSEK)","size":"0"}},{"type":"Feature","geometry":{"type":"Point","coordinates":[22.937506000003,-30.559481999999]},"properties":{"title":"South Africa: 449TSEK, 0%","placename":"South Africa","address":"South Africa","description":"Material Price (TSEK)","size":"0"}},{"type":"Feature","geometry":{"type":"Point","coordinates":[-3.7492200000004,40.463667000002]},"properties":{"title":"Spain: 8903TSEK, 0.7%","placename":"Spain","address":"Spain","description":"Material Price (TSEK)","size":"1"}},{"type":"Feature","geometry":{"type":"Point","coordinates":[18.643501000001,60.128160999999]},"properties":{"title":"Sweden: 96029TSEK, 7.9%","placename":"Sweden","address":"Sweden","description":"Material Price (TSEK)","size":"8"}},{"type":"Feature","geometry":{"type":"Point","coordinates":[8.2275120000041,46.818187999999]},"properties":{"title":"Switzerland: 34TSEK, 0%","placename":"Switzerland","address":"Switzerland","description":"Material Price (TSEK)","size":"0"}},{"type":"Feature","geometry":{"type":"Point","coordinates":[120.960515,23.697810000004]},"properties":{"title":"Taiwan: 653TSEK, 0.1%","placename":"Taiwan","address":"Taiwan","description":"Material Price (TSEK)","size":"0"}},{"type":"Feature","geometry":{"type":"Point","coordinates":[100.992541,15.870032]},"properties":{"title":"Thailand: 164TSEK, 0%","placename":"Thailand","address":"Thailand","description":"Material Price (TSEK)","size":"0"}},{"type":"Feature","geometry":{"type":"Point","coordinates":[35.243321999997,38.963745000001]},"properties":{"title":"Turkey: 2743TSEK, 0.2%","placename":"Turkey","address":"Turkey","description":"Material Price (TSEK)","size":"0"}},{"type":"Feature","geometry":{"type":"Point","coordinates":[-3.4359729999961,55.378051000001]},"properties":{"title":"United Kingdom: 34856TSEK, 2.8%","placename":"United Kingdom","address":"United Kingdom","description":"Material Price (TSEK)","size":"3"}},{"type":"Feature","geometry":{"type":"Point","coordinates":[-95.712890999999,37.090240000003]},"properties":{"title":"United States of America: 3648TSEK, 0.3%","placename":"United States","address":"United States of America","description":"Material Price (TSEK)","size":"0"}},{"type":"Feature","geometry":{"type":"Point","coordinates":[12.939818999999,57.721034999998]},"properties":{"title":"Boras: Material Purchasing Price - 3663 (MSEK)","placename":"Bor\u00e5s, Sweden","address":"Boras, Sweden","description":"Inbound (MEK)","size":"100"}},{"type":"Feature","geometry":{"type":"Point","coordinates":[133.775136,-25.274397999999]},"properties":{"title":"Australia: 13839TSEK, 0.38%","placename":"Australia","address":"Australia","description":"Material Price (TSEK)","size":"0.38"}},{"type":"Feature","geometry":{"type":"Point","coordinates":[14.550071999996,47.516230999997]},"properties":{"title":"Austria: 7931TSEK, 0.22%","placename":"Austria","address":"Austria","description":"Material Price (TSEK)","size":"0.22"}},{"type":"Feature","geometry":{"type":"Point","coordinates":[4.4699360000043,50.503887000001]},"properties":{"title":"Belgium: 204771TSEK, 5.59%","placename":"Belgium","address":"Belgium","description":"Material Price (TSEK)","size":"5.59"}},{"type":"Feature","geometry":{"type":"Point","coordinates":[-51.925279999999,-14.235004]},"properties":{"title":"Brazil: 32067TSEK, 0.88%","placename":"Brazil","address":"Brazil","description":"Material Price (TSEK)","size":"0.88"}},{"type":"Feature","geometry":{"type":"Point","coordinates":[104.195397,35.861660000001]},"properties":{"title":"China: 16787TSEK, 0.46%","placename":"China","address":"China","description":"Material Price (TSEK)","size":"0.46"}},{"type":"Feature","geometry":{"type":"Point","coordinates":[15.472962000003,49.817492]},"properties":{"title":"Czech Rep.: 16379TSEK, 0.45%","placename":"Czech Republic","address":"Czech Republic","description":"Material Price (TSEK)","size":"0.45"}},{"type":"Feature","geometry":{"type":"Point","coordinates":[9.5017849999985,56.263920000001]},"properties":{"title":"Denmark: 4907TSEK, 0.13%","placename":"Denmark","address":"Denmark","description":"Material Price (TSEK)","size":"0.13"}},{"type":"Feature","geometry":{"type":"Point","coordinates":[25.013606999999,58.595272000001]},"properties":{"title":"Estonia: 38201TSEK, 1.04%","placename":"Estonia","address":"Estonia","description":"Material Price (TSEK)","size":"1.04"}},{"type":"Feature","geometry":{"type":"Point","coordinates":[25.748150999997,61.924109999999]},"properties":{"title":"Finland: 41933TSEK, 1.14%","placename":"Finland","address":"Finland","description":"Material Price (TSEK)","size":"1.14"}},{"type":"Feature","geometry":{"type":"Point","coordinates":[2.2137489999989,46.227638]},"properties":{"title":"France: 115078TSEK, 3.14%","placename":"France","address":"France","description":"Material Price (TSEK)","size":"3.14"}},{"type":"Feature","geometry":{"type":"Point","coordinates":[10.451526000003,51.165690999999]},"properties":{"title":"Germany: 544251TSEK, 14.86%","placename":"Germany","address":"Germany","description":"Material Price (TSEK)","size":"14.86"}},{"type":"Feature","geometry":{"type":"Point","coordinates":[19.503303999996,47.162493999998]},"properties":{"title":"Hungary: 12205TSEK, 0.33%","placename":"Hungary","address":"Hungary","description":"Material Price (TSEK)","size":"0.33"}},{"type":"Feature","geometry":{"type":"Point","coordinates":[78.962879999997,20.593684000004]},"properties":{"title":"India: 9904TSEK, 0.27%","placename":"India","address":"India","description":"Material Price (TSEK)","size":"0.27"}},{"type":"Feature","geometry":{"type":"Point","coordinates":[12.567380000004,41.871939999999]},"properties":{"title":"Italy: 80629TSEK, 2.2%","placename":"Italy","address":"Italy","description":"Material Price (TSEK)","size":"2.2"}},{"type":"Feature","geometry":{"type":"Point","coordinates":[138.252924,36.204824000001]},"properties":{"title":"Japan: 41TSEK, 0%","placename":"Japan","address":"Japan","description":"Material Price (TSEK)","size":"0"}},{"type":"Feature","geometry":{"type":"Point","coordinates":[127.766922,35.907756999999]},"properties":{"title":"South Korea: 735TSEK, 0.02%","placename":"South Korea","address":"South Korea","description":"Material Price (TSEK)","size":"0.02"}},{"type":"Feature","geometry":{"type":"Point","coordinates":[24.603189000003,56.879635000001]},"properties":{"title":"Latvia: 8096TSEK, 0.22%","placename":"Latvia","address":"Latvia","description":"Material Price (TSEK)","size":"0.22"}},{"type":"Feature","geometry":{"type":"Point","coordinates":[23.881274999999,55.169437999999]},"properties":{"title":"Lithuania: 293630TSEK, 8.02%","placename":"Lithuania","address":"Lithuania","description":"Material Price (TSEK)","size":"8.02"}},{"type":"Feature","geometry":{"type":"Point","coordinates":[101.975766,4.2104840000023]},"properties":{"title":"Malaysia: 8039TSEK, 0.22%","placename":"Malaysia","address":"Malaysia","description":"Material Price (TSEK)","size":"0.22"}},{"type":"Feature","geometry":{"type":"Point","coordinates":[-102.552784,23.634501000001]},"properties":{"title":"Mexico: 76TSEK, 0%","placename":"Mexico","address":"Mexico","description":"Material Price (TSEK)","size":"0"}},{"type":"Feature","geometry":{"type":"Point","coordinates":[5.2912660000021,52.132633000001]},"properties":{"title":"Netherlands: 13218TSEK, 0.36%","placename":"The Netherlands","address":"Netherlands","description":"Material Price (TSEK)","size":"0.36"}},{"type":"Feature","geometry":{"type":"Point","coordinates":[8.4689460000024,60.472024]},"properties":{"title":"Norway: 16830TSEK, 0.46%","placename":"Norway","address":"Norway","description":"Material Price (TSEK)","size":"0.46"}},{"type":"Feature","geometry":{"type":"Point","coordinates":[19.145136,51.919437999998]},"properties":{"title":"Poland: 10140TSEK, 0.28%","placename":"Poland","address":"Poland","description":"Material Price (TSEK)","size":"0.28"}},{"type":"Feature","geometry":{"type":"Point","coordinates":[-8.2244540000027,39.399871999999]},"properties":{"title":"Portugal: 138TSEK, 0%","placename":"Portugal","address":"Portugal","description":"Material Price (TSEK)","size":"0"}},{"type":"Feature","geometry":{"type":"Point","coordinates":[24.966760000001,45.943161000003]},"properties":{"title":"Romania: 2828TSEK, 0.08%","placename":"Romania","address":"Romania","description":"Material Price (TSEK)","size":"0.08"}},{"type":"Feature","geometry":{"type":"Point","coordinates":[105.318756,61.52401]},"properties":{"title":"Russia: 9658TSEK, 0.26%","placename":"Russia","address":"Russia","description":"Material Price (TSEK)","size":"0.26"}},{"type":"Feature","geometry":{"type":"Point","coordinates":[103.819836,1.3520830000039]},"properties":{"title":"Singapore: 26TSEK, 0%","placename":"Singapore","address":"Singapore","description":"Material Price (TSEK)","size":"0"}},{"type":"Feature","geometry":{"type":"Point","coordinates":[14.995462999997,46.151240999997]},"properties":{"title":"Slovenia: 11317TSEK, 0.31%","placename":"Slovenia","address":"Slovenia","description":"Material Price (TSEK)","size":"0.31"}},{"type":"Feature","geometry":{"type":"Point","coordinates":[22.937506000003,-30.559481999999]},"properties":{"title":"South Africa: 54966TSEK, 1.5%","placename":"South Africa","address":"South Africa","description":"Material Price (TSEK)","size":"1.5"}},{"type":"Feature","geometry":{"type":"Point","coordinates":[-3.7492200000004,40.463667000002]},"properties":{"title":"Spain: 22306TSEK, 0.61%","placename":"Spain","address":"Spain","description":"Material Price (TSEK)","size":"0.61"}},{"type":"Feature","geometry":{"type":"Point","coordinates":[18.643501000001,60.128160999999]},"properties":{"title":"Sweden: 1922238TSEK, 52.48%","placename":"Sweden","address":"Sweden","description":"Material Price (TSEK)","size":"52.48"}},{"type":"Feature","geometry":{"type":"Point","coordinates":[8.2275120000041,46.818187999999]},"properties":{"title":"Switzerland: 1532TSEK, 0.04%","placename":"Switzerland","address":"Switzerland","description":"Material Price (TSEK)","size":"0.04"}},{"type":"Feature","geometry":{"type":"Point","coordinates":[120.960515,23.697810000004]},"properties":{"title":"Taiwan: 1677TSEK, 0.05%","placename":"Taiwan","address":"Taiwan","description":"Material Price (TSEK)","size":"0.05"}},{"type":"Feature","geometry":{"type":"Point","coordinates":[9.5374989999968,33.886917000001]},"properties":{"title":"Tunisia: 7075TSEK, 0.19%","placename":"Tunisia","address":"Tunisia","description":"Material Price (TSEK)","size":"0.19"}},{"type":"Feature","geometry":{"type":"Point","coordinates":[35.243321999997,38.963745000001]},"properties":{"title":"Turkey: 79382TSEK, 2.17%","placename":"Turkey","address":"Turkey","description":"Material Price (TSEK)","size":"2.17"}},{"type":"Feature","geometry":{"type":"Point","coordinates":[-3.4359729999961,55.378051000001]},"properties":{"title":"UK: 54613TSEK, 1.49%","placename":"United Kingdom","address":"United Kingdom","description":"Material Price (TSEK)","size":"1.49"}},{"type":"Feature","geometry":{"type":"Point","coordinates":[-95.712890999999,37.090240000003]},"properties":{"title":"USA: 5371TSEK, 0.15%","placename":"United States","address":"United States of America","description":"Material Price (TSEK)","size":"0.15"}},{"type":"Feature","geometry":{"type":"Point","coordinates":[77.594562700002,12.971598699996]},"properties":{"title":"Bangalore: Material Price - 212 (MSEK)","placename":"Bengaluru, Karnataka, India","address":"Bangalore, India","description":"Inbound (MEK)","size":"100"}},{"type":"Feature","geometry":{"type":"Point","coordinates":[4.4699360000043,50.503887000001]},"properties":{"title":"Belgium: 216TSEK, 0.1%","placename":"Belgium","address":"Belgium","description":"Material Price (TSEK)","size":"0"}},{"type":"Feature","geometry":{"type":"Point","coordinates":[104.195397,35.861660000001]},"properties":{"title":"China: 6897TSEK, 3.3%","placename":"China","address":"China","description":"Material Price (TSEK)","size":"3"}},{"type":"Feature","geometry":{"type":"Point","coordinates":[25.748150999997,61.924109999999]},"properties":{"title":"Finland: 929TSEK, 0.4%","placename":"Finland","address":"Finland","description":"Material Price (TSEK)","size":"0"}},{"type":"Feature","geometry":{"type":"Point","coordinates":[78.962879999997,20.593684000004]},"properties":{"title":"India: 203764TSEK, 96.1%","placename":"India","address":"India","description":"Material Price (TSEK)","size":"96"}},{"type":"Feature","geometry":{"type":"Point","coordinates":[18.643501000001,60.128160999999]},"properties":{"title":"Sweden: 298TSEK, 0.1%","placename":"Sweden","address":"Sweden","description":"Material Price (TSEK)","size":"0"}},{"type":"Feature","geometry":{"type":"Point","coordinates":[-3.4359729999961,55.378051000001]},"properties":{"title":"United Kingdom: 2TSEK, 0%","placename":"United Kingdom","address":"United Kingdom","description":"Material Price (TSEK)","size":"0"}},{"type":"Feature","geometry":{"type":"Point","coordinates":[-82.691542899999,42.435650400001]},"properties":{"title":"Prevost Bus: Material Price - 567MSEK","placename":"Lake St Clair","address":"St. Claire, Canada","description":"Inbound (MEK)","size":"100"}},{"type":"Feature","geometry":{"type":"Point","coordinates":[4.4699360000043,50.503887000001]},"properties":{"title":"Belgium: 256TSEK, 0.05%","placename":"Belgium","address":"Belgium","description":"Material Price (TSEK)","size":"0"}},{"type":"Feature","geometry":{"type":"Point","coordinates":[-51.925279999999,-14.235004]},"properties":{"title":"Brazil: 642TSEK, 0.11%","placename":"Brazil","address":"Brazil","description":"Material Price (TSEK)","size":"0"}},{"type":"Feature","geometry":{"type":"Point","coordinates":[-106.346771,56.130366000001]},"properties":{"title":"Canada: 354081TSEK, 62.43%","placename":"Canada","address":"Canada","description":"Material Price (TSEK)","size":"62"}},{"type":"Feature","geometry":{"type":"Point","coordinates":[104.195397,35.861660000001]},"properties":{"title":"China: 224TSEK, 0.04%","placename":"China","address":"China","description":"Material Price (TSEK)","size":"0"}},{"type":"Feature","geometry":{"type":"Point","coordinates":[15.472962000003,49.817492]},"properties":{"title":"Czech Rep.: 1TSEK, 0%","placename":"Czech Republic","address":"Czech Republic","description":"Material Price (TSEK)","size":"0"}},{"type":"Feature","geometry":{"type":"Point","coordinates":[25.748150999997,61.924109999999]},"properties":{"title":"Finland: 1058TSEK, 0.19%","placename":"Finland","address":"Finland","description":"Material Price (TSEK)","size":"0"}},{"type":"Feature","geometry":{"type":"Point","coordinates":[2.2137489999989,46.227638]},"properties":{"title":"France: 3462TSEK, 0.61%","placename":"France","address":"France","description":"Material Price (TSEK)","size":"1"}},{"type":"Feature","geometry":{"type":"Point","coordinates":[10.451526000003,51.165690999999]},"properties":{"title":"Germany: 23914TSEK, 4.22%","placename":"Germany","address":"Germany","description":"Material Price (TSEK)","size":"4"}},{"type":"Feature","geometry":{"type":"Point","coordinates":[19.503303999996,47.162493999998]},"properties":{"title":"Hungary: 845TSEK, 0.15%","placename":"Hungary","address":"Hungary","description":"Material Price (TSEK)","size":"0"}},{"type":"Feature","geometry":{"type":"Point","coordinates":[12.567380000004,41.871939999999]},"properties":{"title":"Italy: 3143TSEK, 0.55%","placename":"Italy","address":"Italy","description":"Material Price (TSEK)","size":"1"}},{"type":"Feature","geometry":{"type":"Point","coordinates":[-102.552784,23.634501000001]},"properties":{"title":"Mexico: 12825TSEK, 2.26%","placename":"Mexico","address":"Mexico","description":"Material Price (TSEK)","size":"2"}},{"type":"Feature","geometry":{"type":"Point","coordinates":[5.2912660000021,52.132633000001]},"properties":{"title":"Netherlands: 1795TSEK, 0.32%","placename":"The Netherlands","address":"Netherlands","description":"Material Price (TSEK)","size":"0"}},{"type":"Feature","geometry":{"type":"Point","coordinates":[19.145136,51.919437999998]},"properties":{"title":"Poland: 12TSEK, 0%","placename":"Poland","address":"Poland","description":"Material Price (TSEK)","size":"0"}},{"type":"Feature","geometry":{"type":"Point","coordinates":[-3.7492200000004,40.463667000002]},"properties":{"title":"Spain: 9681TSEK, 1.71%","placename":"Spain","address":"Spain","description":"Material Price (TSEK)","size":"2"}},{"type":"Feature","geometry":{"type":"Point","coordinates":[18.643501000001,60.128160999999]},"properties":{"title":"Sweden: 942TSEK, 0.17%","placename":"Sweden","address":"Sweden","description":"Material Price (TSEK)","size":"0"}},{"type":"Feature","geometry":{"type":"Point","coordinates":[8.2275120000041,46.818187999999]},"properties":{"title":"Switzerland: 237TSEK, 0.04%","placename":"Switzerland","address":"Switzerland","description":"Material Price (TSEK)","size":"0"}},{"type":"Feature","geometry":{"type":"Point","coordinates":[120.960515,23.697810000004]},"properties":{"title":"Taiwan: 1190TSEK, 0.21%","placename":"Taiwan","address":"Taiwan","description":"Material Price (TSEK)","size":"0"}},{"type":"Feature","geometry":{"type":"Point","coordinates":[-3.4359729999961,55.378051000001]},"properties":{"title":"UK: 1802TSEK, 0.32%","placename":"United Kingdom","address":"United Kingdom","description":"Material Price (TSEK)","size":"0"}},{"type":"Feature","geometry":{"type":"Point","coordinates":[-95.712890999999,37.090240000003]},"properties":{"title":"USA: 151028TSEK, 26.63%","placename":"United States","address":"United States of America","description":"Material Price (TSEK)","size":"27"}},{"type":"Feature","geometry":{"type":"Point","coordinates":[-73.887787999997,45.572764900001]},"properties":{"title":"St. Eustache: Material Price - 3.4MSEK","placename":"St-Eustache, QC J7P, Canada","address":"St. Eustache, Canada","description":"Inbound (MSEK)","size":"100"}},{"type":"Feature","geometry":{"type":"Point","coordinates":[-106.346771,56.130366000001]},"properties":{"title":"Canada: 1868TSEK, 55%","placename":"Canada","address":"Canada","description":"Material Price (TSEK)","size":"55"}},{"type":"Feature","geometry":{"type":"Point","coordinates":[-95.712890999999,37.090240000003]},"properties":{"title":"USA: 1325TSEK, 39%","placename":"United States","address":"United States of America","description":"Material Price (TSEK)","size":"39"}},{"type":"Feature","geometry":{"type":"Point","coordinates":[15.2551187,54.525961399999]},"properties":{"title":"EU: 204TSEK, 6%","placename":"Europe","address":"Europe","description":"Material Price (TSEK)","size":"6"}},{"type":"Feature","geometry":{"type":"Point","coordinates":[-73.452912400001,44.699487300001]},"properties":{"title":"Plattsburgh: Material Price - 9.8MSEK","placename":"Plattsburgh, NY, USA","address":"Plattsburgh, USA","description":"Inbound (MSEK)","size":"100"}},{"type":"Feature","geometry":{"type":"Point","coordinates":[-106.346771,56.130366000001]},"properties":{"title":"Canada: 3026TSEK, 31%","placename":"Canada","address":"Canada","description":"Material Price (TSEK)","size":"31"}},{"type":"Feature","geometry":{"type":"Point","coordinates":[-95.712890999999,37.090240000003]},"properties":{"title":"USA: 6149TSEK, 63%","placename":"United States","address":"United States of America","description":"Material Price (TSEK)","size":"63"}},{"type":"Feature","geometry":{"type":"Point","coordinates":[15.2551187,54.525961399999]},"properties":{"title":"EU: 586TSEK, 6%","placename":"Europe","address":"Europe","description":"Material Price (TSEK)","size":"6"}},{"type":"Feature","geometry":{"type":"Point","coordinates":[17.0385376,51.107885199999]},"properties":{"title":"Wrolcaw: Complete Bus - 925 Unit","placename":"Wroc\u0142aw, Poland","address":"Wroclaw, Poland","description":"Outbound (Unit)"}},{"type":"Feature","geometry":{"type":"Point","coordinates":[8.4689460000024,60.472024]},"properties":{"title":"Norway: 372, 40.22%","placename":"Norway","address":"Norway","description":"Complete Bus Sold (Unit)","size":"40"}},{"type":"Feature","geometry":{"type":"Point","coordinates":[18.643501000001,60.128160999999]},"properties":{"title":"Sweden: 111, 12%","placename":"Sweden","address":"Sweden","description":"Complete Bus Sold (Unit)","size":"12"}},{"type":"Feature","geometry":{"type":"Point","coordinates":[10.451526000003,51.165690999999]},"properties":{"title":"Germany: 89, 9.62%","placename":"Germany","address":"Germany","description":"Complete Bus Sold (Unit)","size":"10"}},{"type":"Feature","geometry":{"type":"Point","coordinates":[8.2275120000041,46.818187999999]},"properties":{"title":"Switzerland: 49, 5.3%","placename":"Switzerland","address":"Switzerland","description":"Complete Bus Sold (Unit)","size":"5"}},{"type":"Feature","geometry":{"type":"Point","coordinates":[14.550071999996,47.516230999997]},"properties":{"title":"Austria: 47, 5.08%","placename":"Austria","address":"Austria","description":"Complete Bus Sold (Unit)","size":"5"}},{"type":"Feature","geometry":{"type":"Point","coordinates":[12.567380000004,41.871939999999]},"properties":{"title":"Italy: 38, 4.11%","placename":"Italy","address":"Italy","description":"Complete Bus Sold (Unit)","size":"4"}},{"type":"Feature","geometry":{"type":"Point","coordinates":[5.2912660000021,52.132633000001]},"properties":{"title":"Netherlands: 34, 3.68%","placename":"The Netherlands","address":"Netherlands","description":"Complete Bus Sold (Unit)","size":"4"}},{"type":"Feature","geometry":{"type":"Point","coordinates":[2.2137489999989,46.227638]},"properties":{"title":"France: 34, 3.68%","placename":"France","address":"France","description":"Complete Bus Sold (Unit)","size":"4"}},{"type":"Feature","geometry":{"type":"Point","coordinates":[9.5017849999985,56.263920000001]},"properties":{"title":"Denmark: 30, 3.24%","placename":"Denmark","address":"Denmark","description":"Complete Bus Sold (Unit)","size":"3"}},{"type":"Feature","geometry":{"type":"Point","coordinates":[-102.552784,23.634501000001]},"properties":{"title":"Mexico: 28, 3.03%","placename":"Mexico","address":"Mexico","description":"Complete Bus Sold (Unit)","size":"3"}},{"type":"Feature","geometry":{"type":"Point","coordinates":[-3.4359729999961,55.378051000001]},"properties":{"title":"United Kingdom: 25, 2.7%","placename":"United Kingdom","address":"United Kingdom","description":"Complete Bus Sold (Unit)","size":"3"}},{"type":"Feature","geometry":{"type":"Point","coordinates":[25.748150999997,61.924109999999]},"properties":{"title":"Finland: 20, 2.16%","placename":"Finland","address":"Finland","description":"Complete Bus Sold (Unit)","size":"2"}},{"type":"Feature","geometry":{"type":"Point","coordinates":[-3.7492200000004,40.463667000002]},"properties":{"title":"Spain: 12, 1.3%","placename":"Spain","address":"Spain","description":"Complete Bus Sold (Unit)","size":"1"}},{"type":"Feature","geometry":{"type":"Point","coordinates":[4.4699360000043,50.503887000001]},"properties":{"title":"Belgium: 10, 1.08%","placename":"Belgium","address":"Belgium","description":"Complete Bus Sold (Unit)","size":"1"}},{"type":"Feature","geometry":{"type":"Point","coordinates":[15.472962000003,49.817492]},"properties":{"title":"Czech Republic: 8, 0.86%","placename":"Czech Republic","address":"Czech Republic","description":"Complete Bus Sold (Unit)","size":"1"}},{"type":"Feature","geometry":{"type":"Point","coordinates":[19.145136,51.919437999998]},"properties":{"title":"Poland: 6, 0.65%","placename":"Poland","address":"Poland","description":"Complete Bus Sold (Unit)","size":"1"}},{"type":"Feature","geometry":{"type":"Point","coordinates":[24.603189000003,56.879635000001]},"properties":{"title":"Latvia: 5, 0.54%","placename":"Latvia","address":"Latvia","description":"Complete Bus Sold (Unit)","size":"1"}},{"type":"Feature","geometry":{"type":"Point","coordinates":[15.200000000002,45.100000000003]},"properties":{"title":"Croatia: 3, 0.32%","placename":"Croatia","address":"Croatia","description":"Complete Bus Sold (Unit)","size":"0"}},{"type":"Feature","geometry":{"type":"Point","coordinates":[19.503303999996,47.162493999998]},"properties":{"title":"Hungary: 2, 0.22%","placename":"Hungary","address":"Hungary","description":"Complete Bus Sold (Unit)","size":"0"}},{"type":"Feature","geometry":{"type":"Point","coordinates":[24.966760000001,45.943161000003]},"properties":{"title":"Romania: 1, 0.11%","placename":"Romania","address":"Romania","description":"Complete Bus Sold (Unit)","size":"0"}},{"type":"Feature","geometry":{"type":"Point","coordinates":[25.013606999999,58.595272000001]},"properties":{"title":"Estonia: 1, 0.11%","placename":"Estonia","address":"Estonia","description":"Complete Bus Sold (Unit)","size":"0"}},{"type":"Feature","geometry":{"type":"Point","coordinates":[12.930107000004,59.132661]},"properties":{"title":"Saffle: 253 Unit","placename":"S\u00e4ffle, Sweden","address":"Saffle, Sweden","description":"Outbound (Unit)","size":"100"}},{"type":"Feature","geometry":{"type":"Point","coordinates":[9.5017849999985,56.263920000001]},"properties":{"title":"Denmark: 29, 12%","placename":"Denmark","address":"Denmark","description":"Complete Bus Sold (Unit)","size":"12"}},{"type":"Feature","geometry":{"type":"Point","coordinates":[8.4689460000024,60.472024]},"properties":{"title":"Norway: 67, 26%","placename":"Norway","address":"Norway","description":"Complete Bus Sold (Unit)","size":"26"}},{"type":"Feature","geometry":{"type":"Point","coordinates":[18.643501000001,60.128160999999]},"properties":{"title":"Sweden: 157, 62%","placename":"Sweden","address":"Sweden","description":"Complete Bus Sold (Unit)","size":"62"}},{"type":"Feature","geometry":{"type":"Point","coordinates":[-99.133208000003,19.4326077]},"properties":{"title":"Mexico City: Complete Bus - 799 Unit","placename":"Mexico City, Distrito Federal, Mexico","address":"Mexico City, Mexico","description":"Outbound (Unit)","size":"100"}},{"type":"Feature","geometry":{"type":"Point","coordinates":[-102.552784,23.634501000001]},"properties":{"title":"Mexico: 749, 93.7%","placename":"Mexico","address":"Mexico","description":"Complete Bus Sold (Unit)","size":"749"}},{"type":"Feature","geometry":{"type":"Point","coordinates":[-95.712890999999,37.090240000003]},"properties":{"title":"USA: 50, 6.3%","placename":"United States","address":"United States of America","description":"Complete Bus Sold (Unit)","size":"50"}},{"type":"Feature","geometry":{"type":"Point","coordinates":[-49.273251500001,-25.428356300003]},"properties":{"title":"Curitiba: Complete Bus - 2623 Unit","placename":"Curitiba - Paran\u00e1, Brazil","address":"Curitiba, Brazil","description":"Outbound (Unit)","size":"100"}},{"type":"Feature","geometry":{"type":"Point","coordinates":[-63.616672000003,-38.416096999997]},"properties":{"title":"Argentina: 85, 3.2%","placename":"Argentina","address":"Argentina","description":"Complete Bus Sold (Unit)","size":"3"}},{"type":"Feature","geometry":{"type":"Point","coordinates":[-51.925279999999,-14.235004]},"properties":{"title":"Brazil: 2030, 77.4%","placename":"Brazil","address":"Brazil","description":"Complete Bus Sold (Unit)","size":"77"}},{"type":"Feature","geometry":{"type":"Point","coordinates":[-71.542969,-35.675146999998]},"properties":{"title":"Chile: 100, 3.8%","placename":"Chile","address":"Chile","description":"Complete Bus Sold (Unit)","size":"4"}},{"type":"Feature","geometry":{"type":"Point","coordinates":[-74.297332999997,4.5708679999982]},"properties":{"title":"Colombia: 161, 6.1%","placename":"Colombia","address":"Colombia","description":"Complete Bus Sold (Unit)","size":"6"}},{"type":"Feature","geometry":{"type":"Point","coordinates":[-83.753427999999,9.7489169999974]},"properties":{"title":"Costa Rica: 2, 0.1%","placename":"Costa Rica","address":"Costa Rica","description":"Complete Bus Sold (Unit)","size":"0"}},{"type":"Feature","geometry":{"type":"Point","coordinates":[30.802498000002,26.820553000001]},"properties":{"title":"Egypt: 2, 0.1%","placename":"Egypt","address":"Egypt","description":"Complete Bus Sold (Unit)","size":"0"}},{"type":"Feature","geometry":{"type":"Point","coordinates":[-78.183406000002,-1.8312390000011]},"properties":{"title":"Equador: 80, 3%","placename":"Ecuador","address":"Equador","description":"Complete Bus Sold (Unit)","size":"3"}},{"type":"Feature","geometry":{"type":"Point","coordinates":[-90.230759000004,15.783470999998]},"properties":{"title":"Guatemala: 2, 0.1%","placename":"Guatemala","address":"Guatemala","description":"Complete Bus Sold (Unit)","size":"0"}},{"type":"Feature","geometry":{"type":"Point","coordinates":[-102.552784,23.634501000001]},"properties":{"title":"Mexico: 63, 2.4%","placename":"Mexico","address":"Mexico","description":"Complete Bus Sold (Unit)","size":"2"}},{"type":"Feature","geometry":{"type":"Point","coordinates":[-75.015152,-9.1899670000004]},"properties":{"title":"Peru: 38, 1.4%","placename":"Peru","address":"Peru","description":"Complete Bus Sold (Unit)","size":"1"}},{"type":"Feature","geometry":{"type":"Point","coordinates":[22.937506000003,-30.559481999999]},"properties":{"title":"South Africa: 28, 1.1%","placename":"South Africa","address":"South Africa","description":"Complete Bus Sold (Unit)","size":"1"}},{"type":"Feature","geometry":{"type":"Point","coordinates":[-55.765835000003,-32.522779000001]},"properties":{"title":"Uruguay: 32, 1.2%","placename":"Uruguay","address":"Uruguay","description":"Complete Bus Sold (Unit)","size":"1"}},{"type":"Feature","geometry":{"type":"Point","coordinates":[12.939818999999,57.721034999998]},"properties":{"title":"Boras: Complete Bus - 4029 Unit","placename":"Bor\u00e5s, Sweden","address":"Boras, Sweden","description":"Outbound (Unit)","size":"100"}},{"type":"Feature","geometry":{"type":"Point","coordinates":[133.775136,-25.274397999999]},"properties":{"title":"Australia: 495, 12.29%","placename":"Australia","address":"Australia","description":"Chassis Sold (Unit)","size":"12"}},{"type":"Feature","geometry":{"type":"Point","coordinates":[4.4699360000043,50.503887000001]},"properties":{"title":"Belgium: 143, 3.55%","placename":"Belgium","address":"Belgium","description":"Chassis Sold (Unit)","size":"4"}},{"type":"Feature","geometry":{"type":"Point","coordinates":[-51.925279999999,-14.235004]},"properties":{"title":"Brazil: 7, 0.17%","placename":"Brazil","address":"Brazil","description":"Chassis Sold (Unit)","size":"0"}},{"type":"Feature","geometry":{"type":"Point","coordinates":[-74.297332999997,4.5708679999982]},"properties":{"title":"Colombia: 945, 23.45%","placename":"Colombia","address":"Colombia","description":"Chassis Sold (Unit)","size":"23"}},{"type":"Feature","geometry":{"type":"Point","coordinates":[30.802498000002,26.820553000001]},"properties":{"title":"Egypt: 28, 0.69%","placename":"Egypt","address":"Egypt","description":"Chassis Sold (Unit)","size":"1"}},{"type":"Feature","geometry":{"type":"Point","coordinates":[25.748150999997,61.924109999999]},"properties":{"title":"Finland: 147, 3.65%","placename":"Finland","address":"Finland","description":"Chassis Sold (Unit)","size":"4"}},{"type":"Feature","geometry":{"type":"Point","coordinates":[114.109497,22.396428000004]},"properties":{"title":"Hong Kong: 2, 0.05%","placename":"Hong Kong","address":"Hong Kong","description":"Chassis Sold (Unit)","size":"0"}},{"type":"Feature","geometry":{"type":"Point","coordinates":[34.851612000002,31.046051]},"properties":{"title":"Israel: 170, 4.22%","placename":"Israel","address":"Israel","description":"Chassis Sold (Unit)","size":"4"}},{"type":"Feature","geometry":{"type":"Point","coordinates":[-7.0926199999983,31.791702]},"properties":{"title":"Morocco: 2, 0.05%","placename":"Morocco","address":"Morocco","description":"Chassis Sold (Unit)","size":"0"}},{"type":"Feature","geometry":{"type":"Point","coordinates":[5.2912660000021,52.132633000001]},"properties":{"title":"Netherlands: 1, 0.02%","placename":"The Netherlands","address":"Netherlands","description":"Chassis Sold (Unit)","size":"0"}},{"type":"Feature","geometry":{"type":"Point","coordinates":[174.885971,-40.900556999999]},"properties":{"title":"New Zealand: 3, 0.07%","placename":"New Zealand","address":"New Zealand","description":"Chassis Sold (Unit)","size":"0"}},{"type":"Feature","geometry":{"type":"Point","coordinates":[8.4689460000024,60.472024]},"properties":{"title":"Norway: 23, 0.57%","placename":"Norway","address":"Norway","description":"Chassis Sold (Unit)","size":"1"}},{"type":"Feature","geometry":{"type":"Point","coordinates":[-8.2244540000027,39.399871999999]},"properties":{"title":"Portugal: 256, 6.35%","placename":"Portugal","address":"Portugal","description":"Chassis Sold (Unit)","size":"6"}},{"type":"Feature","geometry":{"type":"Point","coordinates":[103.819836,1.3520830000039]},"properties":{"title":"Singapore: 233, 5.78%","placename":"Singapore","address":"Singapore","description":"Chassis Sold (Unit)","size":"6"}},{"type":"Feature","geometry":{"type":"Point","coordinates":[22.937506000003,-30.559481999999]},"properties":{"title":"South Africa: 8, 0.2%","placename":"South Africa","address":"South Africa","description":"Chassis Sold (Unit)","size":"0"}},{"type":"Feature","geometry":{"type":"Point","coordinates":[-3.7492200000004,40.463667000002]},"properties":{"title":"Spain: 440, 10.92%","placename":"Spain","address":"Spain","description":"Chassis Sold (Unit)","size":"11"}},{"type":"Feature","geometry":{"type":"Point","coordinates":[18.643501000001,60.128160999999]},"properties":{"title":"Sweden: 272, 6.75%","placename":"Sweden","address":"Sweden","description":"Chassis Sold (Unit)","size":"7"}},{"type":"Feature","geometry":{"type":"Point","coordinates":[120.960515,23.697810000004]},"properties":{"title":"Taiwan: 25, 0.62%","placename":"Taiwan","address":"Taiwan","description":"Chassis Sold (Unit)","size":"1"}},{"type":"Feature","geometry":{"type":"Point","coordinates":[100.992541,15.870032]},"properties":{"title":"Thailand: 1, 0.02%","placename":"Thailand","address":"Thailand","description":"Chassis Sold (Unit)","size":"0"}},{"type":"Feature","geometry":{"type":"Point","coordinates":[-3.4359729999961,55.378051000001]},"properties":{"title":"UK: 828, 20.55%","placename":"United Kingdom","address":"United Kingdom","description":"Chassis Sold (Unit)","size":"21"}},{"type":"Feature","geometry":{"type":"Point","coordinates":[12.939818999999,57.721034999998]},"properties":{"title":"Boras: CKD Kits - 3618 Unit","placename":"Bor\u00e5s, Sweden","address":"Boras, Sweden","description":"Outbound (Unit)","size":"100"}},{"type":"Feature","geometry":{"type":"Point","coordinates":[104.195397,35.861660000001]},"properties":{"title":"China: 37, 1.02%","placename":"China","address":"China","description":"Chassis as CKD (Unit)","size":"1"}},{"type":"Feature","geometry":{"type":"Point","coordinates":[78.962879999997,20.593684000004]},"properties":{"title":"India: 714, 19.73%","placename":"India","address":"India","description":"Chassis as CKD (Unit)","size":"20"}},{"type":"Feature","geometry":{"type":"Point","coordinates":[53.688046000001,32.427908000001]},"properties":{"title":"Iran: 800, 22.11%","placename":"Iran","address":"Iran","description":"Chassis as CKD (Unit)","size":"22"}},{"type":"Feature","geometry":{"type":"Point","coordinates":[-102.552784,23.634501000001]},"properties":{"title":"Mexico: 717, 19.82%","placename":"Mexico","address":"Mexico","description":"Chassis as CKD (Unit)","size":"20"}},{"type":"Feature","geometry":{"type":"Point","coordinates":[-7.0926199999983,31.791702]},"properties":{"title":"Morocco (CKD): 246, 6.8%","placename":"Morocco","address":"Morocco","description":"Chassis as CKD (Unit)","size":"7"}},{"type":"Feature","geometry":{"type":"Point","coordinates":[19.145136,51.919437999998]},"properties":{"title":"Poland: 849, 23.47%","placename":"Poland","address":"Poland","description":"Chassis as CKD (Unit)","size":"23"}},{"type":"Feature","geometry":{"type":"Point","coordinates":[22.937506000003,-30.559481999999]},"properties":{"title":"South Africa (CKD): 27, 0.75%","placename":"South Africa","address":"South Africa","description":"Chassis as CKD (Unit)","size":"1"}},{"type":"Feature","geometry":{"type":"Point","coordinates":[100.992541,15.870032]},"properties":{"title":"Thailand (CKD): 120, 3.32%","placename":"Thailand","address":"Thailand","description":"Chassis as CKD (Unit)","size":"3"}},{"type":"Feature","geometry":{"type":"Point","coordinates":[9.5374989999968,33.886917000001]},"properties":{"title":"Tunisia: 108, 2.99%","placename":"Tunisia","address":"Tunisia","description":"Chassis as CKD (Unit)","size":"3"}},{"type":"Feature","geometry":{"type":"Point","coordinates":[77.594562700002,12.971598699996]},"properties":{"title":"Bangalore: Complete Bus - 662 Unit","placename":"Bengaluru, Karnataka, India","address":"Bangalore, India","description":"","size":"100"}},{"type":"Feature","geometry":{"type":"Point","coordinates":[14.550071999996,47.516230999997]},"properties":{"title":"Austria: 4, 0.6%","placename":"Austria","address":"Austria","description":"Complete Bus Sold (Unit)","size":"1"}},{"type":"Feature","geometry":{"type":"Point","coordinates":[78.962879999997,20.593684000004]},"properties":{"title":"India: 651, 98.3%","placename":"India","address":"India","description":"Complete Bus Sold (Unit)","size":"98"}},{"type":"Feature","geometry":{"type":"Point","coordinates":[22.937506000003,-30.559481999999]},"properties":{"title":"South Africa: 1.1%","placename":"South Africa","address":"South Africa","description":"Complete Bus Sold (Unit)","size":"1"}},{"type":"Feature","geometry":{"type":"Point","coordinates":[-82.691542899999,42.435650400001]},"properties":{"title":"Prevost Bus: Complete Bus Sold - 533 Unit","placename":"Lake St Clair","address":"St. Claire, Canada","description":"Outbound (Unit)","size":"100"}},{"type":"Feature","geometry":{"type":"Point","coordinates":[-106.346771,56.130366000001]},"properties":{"title":"Canada: 114, 21%","placename":"Canada","address":"Canada","description":"Complete Bus Sold (Unit)","size":"21"}},{"type":"Feature","geometry":{"type":"Point","coordinates":[-95.712890999999,37.090240000003]},"properties":{"title":"USA: 419, 79%","placename":"United States","address":"United States of America","description":"Complete Bus Sold (Unit)","size":"79"}},{"type":"Feature","geometry":{"type":"Point","coordinates":[-73.887787999997,45.572764900001]},"properties":{"title":"St. Eustache: 40ft Bus Sold - 532","placename":"St-Eustache, QC J7P, Canada","address":"St. Eustache, Canada","description":"Outbound (Unit)","size":"100"}},{"type":"Feature","geometry":{"type":"Point","coordinates":[-106.346771,56.130366000001]},"properties":{"title":"Canada: 532, 100%","placename":"Canada","address":"Canada","description":"40ft Bus Sold (Unit)","size":"100"}},{"type":"Feature","geometry":{"type":"Point","coordinates":[-73.452912400001,44.699487300001]},"properties":{"title":"Plattsburgh: 60ft Bus Sold - 199","placename":"Plattsburgh, NY, USA","address":"Plattsburgh, USA","description":"","size":"100"}},{"type":"Feature","geometry":{"type":"Point","coordinates":[-95.712890999999,37.090240000003]},"properties":{"title":"USA: 199, 100%","placename":"United States","address":"United States of America","description":"60ft Bus Sold (Unit)","size":"100"}},{"type":"Feature","geometry":{"type":"LineString","coordinates":[[18.643501000001,60.128160999999],[17.0385376,51.107885199999]]},"properties":{"title":"Sweden: 406118.9, 43.69\uff05 to Wroclaw: Material Purchasing Price - 930 (MSEK)","distance":"1007.981801"}},{"type":"Feature","geometry":{"type":"LineString","coordinates":[[19.145136,51.919437999998],[17.0385376,51.107885199999]]},"properties":{"distance":"171.436565","title":"Poland: 258208.3, 27.77\uff05 to Wroclaw: Material Purchasing Price - 930 (MSEK)"}},{"type":"Feature","geometry":{"type":"LineString","coordinates":[[10.451526000003,51.165690999999],[17.0385376,51.107885199999]]},"properties":{"title":"Germany: 134142.4, 14.43\uff05 to Wroclaw: Material Purchasing Price - 930 (MSEK)","distance":"459.471940"}},{"type":"Feature","geometry":{"type":"LineString","coordinates":[[25.748150999997,61.924109999999],[17.0385376,51.107885199999]]},"properties":{"distance":"1313.368657","title":"Finland: 49413.2, 5.32\uff05 to Wroclaw: Material Purchasing Price - 930 (MSEK)"}},{"type":"Feature","geometry":{"type":"LineString","coordinates":[[12.567380000004,41.871939999999],[17.0385376,51.107885199999]]},"properties":{"distance":"1082.008255","title":"Italy: 15998.9, 1.72\uff05 to Wroclaw: Material Purchasing Price - 930 (MSEK)"}},{"type":"Feature","geometry":{"type":"LineString","coordinates":[[2.2137489999989,46.227638],[17.0385376,51.107885199999]]},"properties":{"distance":"1213.447377","title":"France: 12319.6, 1.33\uff05 to Wroclaw: Material Purchasing Price - 930 (MSEK)"}},{"type":"Feature","geometry":{"type":"LineString","coordinates":[[8.4689460000024,60.472024],[17.0385376,51.107885199999]]},"properties":{"distance":"1168.783700","title":"Norway: 12252.6, 1.32\uff05 to Wroclaw: Material Purchasing Price - 930 (MSEK)"}},{"type":"Feature","geometry":{"type":"LineString","coordinates":[[4.4699360000043,50.503887000001],[17.0385376,51.107885199999]]},"properties":{"distance":"884.655851","title":"Belgium: 11809.3, 1.27\uff05 to Wroclaw: Material Purchasing Price - 930 (MSEK)"}},{"type":"Feature","geometry":{"type":"LineString","coordinates":[[35.243321999997,38.963745000001],[17.0385376,51.107885199999]]},"properties":{"distance":"1957.133309","title":"Turkey: 4618.5, 0.5\uff05 to Wroclaw: Material Purchasing Price - 930 (MSEK)"}},{"type":"Feature","geometry":{"type":"LineString","coordinates":[[9.5017849999985,56.263920000001],[17.0385376,51.107885199999]]},"properties":{"distance":"757.427845","title":"Denmark: 4122.6, 0.44\uff05 to Wroclaw: Material Purchasing Price - 930 (MSEK)"}},{"type":"Feature","geometry":{"type":"LineString","coordinates":[[5.2912660000021,52.132633000001],[17.0385376,51.107885199999]]},"properties":{"distance":"818.042437","title":"Netherlands: 3922.7, 0.42\uff05 to Wroclaw: Material Purchasing Price - 930 (MSEK)"}},{"type":"Feature","geometry":{"type":"LineString","coordinates":[[19.503303999996,47.162493999998],[17.0385376,51.107885199999]]},"properties":{"title":"Hungary: 3879.1, 0.42\uff05 to Wroclaw: Material Purchasing Price - 930 (MSEK)","distance":"473.869647"}},{"type":"Feature","geometry":{"type":"LineString","coordinates":[[8.2275120000041,46.818187999999],[17.0385376,51.107885199999]]},"properties":{"distance":"799.914574","title":"Switzerland: 3564.3, 0.38\uff05 to Wroclaw: Material Purchasing Price - 930 (MSEK)"}},{"type":"Feature","geometry":{"type":"LineString","coordinates":[[-3.7492200000004,40.463667000002],[17.0385376,51.107885199999]]},"properties":{"distance":"1988.269701","title":"Spain: 2535.6, 0.27\uff05 to Wroclaw: Material Purchasing Price - 930 (MSEK)"}},{"type":"Feature","geometry":{"type":"LineString","coordinates":[[-3.4359729999961,55.378051000001],[17.0385376,51.107885199999]]},"properties":{"title":"Great Britain: 2262.1, 0.24\uff05 to Wroclaw: Material Purchasing Price - 930 (MSEK)","distance":"1436.468822"}},{"type":"Feature","geometry":{"type":"LineString","coordinates":[[14.550071999996,47.516230999997],[17.0385376,51.107885199999]]},"properties":{"distance":"438.160605","title":"Austria: 1290.4, 0.14\uff05 to Wroclaw: Material Purchasing Price - 930 (MSEK)"}},{"type":"Feature","geometry":{"type":"LineString","coordinates":[[104.195397,35.861660000001],[17.0385376,51.107885199999]]},"properties":{"title":"China: 935.2, 0.1\uff05 to Wroclaw: Material Purchasing Price - 930 (MSEK)","distance":"6809.095202"}},{"type":"Feature","geometry":{"type":"LineString","coordinates":[[6.129582999999,49.815273000002],[17.0385376,51.107885199999]]},"properties":{"distance":"784.696219","title":"Luxembourg: 874.8, 0.09\uff05 to Wroclaw: Material Purchasing Price - 930 (MSEK)"}},{"type":"Feature","geometry":{"type":"LineString","coordinates":[[25.013606999999,58.595272000001],[17.0385376,51.107885199999]]},"properties":{"distance":"975.134632","title":"Estonia: 429.5, 0.05\uff05 to Wroclaw: Material Purchasing Price - 930 (MSEK)"}},{"type":"Feature","geometry":{"type":"LineString","coordinates":[[15.472962000003,49.817492],[17.0385376,51.107885199999]]},"properties":{"distance":"181.288400","title":"Czech Republic: 313.2, 0.03\uff05 to Wroclaw: Material Purchasing Price - 930 (MSEK)"}},{"type":"Feature","geometry":{"type":"LineString","coordinates":[[78.962879999997,20.593684000004],[17.0385376,51.107885199999]]},"properties":{"distance":"6294.414828","title":"India: 242.2, 0.03\uff05 to Wroclaw: Material Purchasing Price - 930 (MSEK)"}},{"type":"Feature","geometry":{"type":"LineString","coordinates":[[101.975766,4.2104840000023],[17.0385376,51.107885199999]]},"properties":{"distance":"9289.911053","title":"Malaysia: 161.8, 0.02\uff05 to Wroclaw: Material Purchasing Price - 930 (MSEK)"}},{"type":"Feature","geometry":{"type":"LineString","coordinates":[[-8.2244540000027,39.399871999999],[17.0385376,51.107885199999]]},"properties":{"distance":"2349.063633","title":"Portugal: 127.6, 0.01\uff05 to Wroclaw: Material Purchasing Price - 930 (MSEK)"}},{"type":"Feature","geometry":{"type":"LineString","coordinates":[[-95.712890999999,37.090240000003],[17.0385376,51.107885199999]]},"properties":{"distance":"8228.009433","title":"United States of America: 75.5, 0.01\uff05 to Wroclaw: Material Purchasing Price - 930 (MSEK)"}},{"type":"Feature","geometry":{"type":"LineString","coordinates":[[24.966760000001,45.943161000003],[17.0385376,51.107885199999]]},"properties":{"distance":"818.093273","title":"Romania: 21, 0\uff05 to Wroclaw: Material Purchasing Price - 930 (MSEK)"}},{"type":"Feature","geometry":{"type":"LineString","coordinates":[[23.881274999999,55.169437999999],[17.0385376,51.107885199999]]},"properties":{"title":"Lithuania: 3.9, 0\uff05 to Wroclaw: Material Purchasing Price - 930 (MSEK)","distance":"641.550055"}},{"type":"Feature","geometry":{"type":"LineString","coordinates":[[10.451526000003,51.165690999999],[12.930107000004,59.132661]]},"properties":{"title":"Germany: 6900TSEK, 10% to Saffle: 69 MSEK","distance":"899.615931"}},{"type":"Feature","geometry":{"type":"LineString","coordinates":[[19.145136,51.919437999998],[12.930107000004,59.132661]]},"properties":{"title":"Poland: 41400TSEK, 60% to Saffle: 69 MSEK","distance":"891.485985"}},{"type":"Feature","geometry":{"type":"LineString","coordinates":[[18.643501000001,60.128160999999],[12.930107000004,59.132661]]},"properties":{"distance":"339.601329","title":"Sweden: 20700 TSEK, 30% to Saffle: 69 MSEK"}},{"type":"Feature","geometry":{"type":"LineString","coordinates":[[-63.616672000003,-38.416096999997],[-99.133208000003,19.4326077]]},"properties":{"distance":"7422.664346","title":"Argentina: 31TSEK, 0% to Mexico CIty: Material Price - 872 (MSEK)"}},{"type":"Feature","geometry":{"type":"LineString","coordinates":[[4.4699360000043,50.503887000001],[-99.133208000003,19.4326077]]},"properties":{"title":"Belgium: 82TSEK, 0% to Mexico CIty: Material Price - 872 (MSEK)","distance":"9268.998411"}},{"type":"Feature","geometry":{"type":"LineString","coordinates":[[-51.925279999999,-14.235004],[-99.133208000003,19.4326077]]},"properties":{"distance":"6379.650978","title":"Brazil: 26025TSEK, 3% to Mexico CIty: Material Price - 872 (MSEK)"}},{"type":"Feature","geometry":{"type":"LineString","coordinates":[[-106.346771,56.130366000001],[-99.133208000003,19.4326077]]},"properties":{"distance":"4124.747539","title":"Canada: 93TSEK, 0% to Mexico CIty: Material Price - 872 (MSEK)"}},{"type":"Feature","geometry":{"type":"LineString","coordinates":[[104.195397,35.861660000001],[-99.133208000003,19.4326077]]},"properties":{"distance":"13394.137141","title":"China: 201TSEK, 0% to Mexico CIty: Material Price - 872 (MSEK)"}},{"type":"Feature","geometry":{"type":"LineString","coordinates":[[9.5017849999985,56.263920000001],[-99.133208000003,19.4326077]]},"properties":{"distance":"9309.663679","title":"Denmark: 9TSEK, 0% to Mexico CIty: Material Price - 872 (MSEK)"}},{"type":"Feature","geometry":{"type":"LineString","coordinates":[[25.013606999999,58.595272000001],[-99.133208000003,19.4326077]]},"properties":{"distance":"9955.733047","title":"Estonia: 268TSEK, 0% to Mexico CIty: Material Price - 872 (MSEK)"}},{"type":"Feature","geometry":{"type":"LineString","coordinates":[[25.748150999997,61.924109999999],[-99.133208000003,19.4326077]]},"properties":{"distance":"9754.352718","title":"Finland: 18635TSEK, 2.1% to Mexico CIty: Material Price - 872 (MSEK)"}},{"type":"Feature","geometry":{"type":"LineString","coordinates":[[2.2137489999989,46.227638],[-99.133208000003,19.4326077]]},"properties":{"distance":"9293.245014","title":"France: 579TSEK, 0.1% to Mexico CIty: Material Price - 872 (MSEK)"}},{"type":"Feature","geometry":{"type":"LineString","coordinates":[[10.451526000003,51.165690999999],[-99.133208000003,19.4326077]]},"properties":{"distance":"9619.060883","title":"Germany: 17016TSEK, 2% to Mexico CIty: Material Price - 872 (MSEK)"}},{"type":"Feature","geometry":{"type":"LineString","coordinates":[[12.567380000004,41.871939999999],[-99.133208000003,19.4326077]]},"properties":{"distance":"10247.052183","title":"Italy: 3873TSEK, 0.4% to Mexico CIty: Material Price - 872 (MSEK)"}},{"type":"Feature","geometry":{"type":"LineString","coordinates":[[101.975766,4.2104840000023],[-99.133208000003,19.4326077]]},"properties":{"title":"Malaysia: 116TSEK, 0% to Mexico CIty: Material Price - 872 (MSEK)","distance":"16516.249756"}},{"type":"Feature","geometry":{"type":"LineString","coordinates":[[-102.552784,23.634501000001],[-99.133208000003,19.4326077]]},"properties":{"title":"Mexico: 383621TSEK, 44% to Mexico CIty: Material Price - 872 (MSEK)","distance":"585.934663"}},{"type":"Feature","geometry":{"type":"LineString","coordinates":[[8.4689460000024,60.472024],[-99.133208000003,19.4326077]]},"properties":{"distance":"9055.131472","title":"Norway: 136TSEK, 0% to Mexico CIty: Material Price - 872 (MSEK)"}},{"type":"Feature","geometry":{"type":"LineString","coordinates":[[19.145136,51.919437999998],[-99.133208000003,19.4326077]]},"properties":{"title":"Poland: 5622TSEK, 0.6% to Mexico CIty: Material Price - 872 (MSEK)","distance":"10094.643078"}},{"type":"Feature","geometry":{"type":"LineString","coordinates":[[-3.7492200000004,40.463667000002],[-99.133208000003,19.4326077]]},"properties":{"title":"Spain: 4073TSEK, 0.5% to Mexico CIty: Material Price - 872 (MSEK)","distance":"9057.366660"}},{"type":"Feature","geometry":{"type":"LineString","coordinates":[[18.643501000001,60.128160999999],[-99.133208000003,19.4326077]]},"properties":{"distance":"9563.708490","title":"Sweden: 364541TSEK, 41.8% to Mexico CIty: Material Price - 872 (MSEK)"}},{"type":"Feature","geometry":{"type":"LineString","coordinates":[[35.243321999997,38.963745000001],[-99.133208000003,19.4326077]]},"properties":{"distance":"11972.821856","title":"Turkey: 12423TSEK, 1.4% to Mexico CIty: Material Price - 872 (MSEK)"}},{"type":"Feature","geometry":{"type":"LineString","coordinates":[[-3.4359729999961,55.378051000001],[-99.133208000003,19.4326077]]},"properties":{"distance":"8590.482192","title":"UK: 19494TSEK, 2.2% to Mexico CIty: Material Price - 872 (MSEK)"}},{"type":"Feature","geometry":{"type":"LineString","coordinates":[[-95.712890999999,37.090240000003],[-99.133208000003,19.4326077]]},"properties":{"distance":"1991.390373","title":"USA: 14910TSEK, 1.7% to Mexico CIty: Material Price - 872 (MSEK)"}},{"type":"Feature","geometry":{"type":"LineString","coordinates":[[-63.616672000003,-38.416096999997],[-49.273251500001,-25.428356300003]]},"properties":{"distance":"1974.444883","title":"Argentina: 7603TSEK, 0.6% to Curitiba: Material Price - 1223 (MSEK)"}},{"type":"Feature","geometry":{"type":"LineString","coordinates":[[14.550071999996,47.516230999997],[-49.273251500001,-25.428356300003]]},"properties":{"distance":"10310.797555","title":"Austria: 1570TSEK, 0.1% to Curitiba: Material Price - 1223 (MSEK)"}},{"type":"Feature","geometry":{"type":"LineString","coordinates":[[4.4699360000043,50.503887000001],[-49.273251500001,-25.428356300003]]},"properties":{"distance":"9954.226298","title":"Belgium: 16978TSEK, 1.4% to Curitiba: Material Price - 1223 (MSEK)"}},{"type":"Feature","geometry":{"type":"LineString","coordinates":[[-51.925279999999,-14.235004],[-49.273251500001,-25.428356300003]]},"properties":{"distance":"1275.048549","title":"Brazil: 797195TSEK, 65.2% to Curitiba: Material Price - 1223 (MSEK)"}},{"type":"Feature","geometry":{"type":"LineString","coordinates":[[-106.346771,56.130366000001],[-49.273251500001,-25.428356300003]]},"properties":{"distance":"10536.537488","title":"Canada: 143TSEK, 0% to Curitiba: Material Price - 1223 (MSEK)"}},{"type":"Feature","geometry":{"type":"LineString","coordinates":[[104.195397,35.861660000001],[-49.273251500001,-25.428356300003]]},"properties":{"title":"China: 587TSEK, 0% to Curitiba: Material Price - 1223 (MSEK)","distance":"17236.419967"}},{"type":"Feature","geometry":{"type":"LineString","coordinates":[[15.472962000003,49.817492],[-49.273251500001,-25.428356300003]]},"properties":{"distance":"10514.197737","title":"Czech Republic: 4229TSEK, 0.3% to Curitiba: Material Price - 1223 (MSEK)"}},{"type":"Feature","geometry":{"type":"LineString","coordinates":[[9.5017849999985,56.263920000001],[-49.273251500001,-25.428356300003]]},"properties":{"distance":"10626.917496","title":"Denmark: 1127TSEK, 0.1% to Curitiba: Material Price - 1223 (MSEK)"}},{"type":"Feature","geometry":{"type":"LineString","coordinates":[[25.013606999999,58.595272000001],[-49.273251500001,-25.428356300003]]},"properties":{"title":"Estonia: 3264TSEK, 0.3% to Curitiba: Material Price - 1223 (MSEK)","distance":"11545.308924"}},{"type":"Feature","geometry":{"type":"LineString","coordinates":[[25.748150999997,61.924109999999],[-49.273251500001,-25.428356300003]]},"properties":{"title":"Finland: 1156TSEK, 0.1% to Curitiba: Material Price - 1223 (MSEK)","distance":"11742.700632"}},{"type":"Feature","geometry":{"type":"LineString","coordinates":[[2.2137489999989,46.227638],[-49.273251500001,-25.428356300003]]},"properties":{"distance":"9503.781278","title":"France: 94167TSEK, 7.7% to Curitiba: Material Price - 1223 (MSEK)"}},{"type":"Feature","geometry":{"type":"LineString","coordinates":[[10.451526000003,51.165690999999],[-49.273251500001,-25.428356300003]]},"properties":{"distance":"10319.587352","title":"Germany: 89046TSEK, 7.3% to Curitiba: Material Price - 1223 (MSEK)"}},{"type":"Feature","geometry":{"type":"LineString","coordinates":[[19.503303999996,47.162493999998],[-49.273251500001,-25.428356300003]]},"properties":{"distance":"10598.144162","title":"Hungary: 4904TSEK, 0.4% to Curitiba: Material Price - 1223 (MSEK)"}},{"type":"Feature","geometry":{"type":"LineString","coordinates":[[78.962879999997,20.593684000004],[-49.273251500001,-25.428356300003]]},"properties":{"distance":"14721.832628","title":"India: 6203TSEK, 0.5% to Curitiba: Material Price - 1223 (MSEK)"}},{"type":"Feature","geometry":{"type":"LineString","coordinates":[[12.567380000004,41.871939999999],[-49.273251500001,-25.428356300003]]},"properties":{"distance":"9811.468940","title":"Italy: 8090TSEK, 0.7% to Curitiba: Material Price - 1223 (MSEK)"}},{"type":"Feature","geometry":{"type":"LineString","coordinates":[[127.766922,35.907756999999],[-49.273251500001,-25.428356300003]]},"properties":{"distance":"18816.130881","title":"South Korea: 398TSEK, 0% to Curitiba: Material Price - 1223 (MSEK)"}},{"type":"Feature","geometry":{"type":"LineString","coordinates":[[24.603189000003,56.879635000001],[-49.273251500001,-25.428356300003]]},"properties":{"distance":"11437.563988","title":"Latvia: 45TSEK, 0% to Curitiba: Material Price - 1223 (MSEK)"}},{"type":"Feature","geometry":{"type":"LineString","coordinates":[[23.881274999999,55.169437999999],[-49.273251500001,-25.428356300003]]},"properties":{"distance":"11309.750535","title":"Lithuania: 147TSEK, 0% to Curitiba: Material Price - 1223 (MSEK)"}},{"type":"Feature","geometry":{"type":"LineString","coordinates":[[6.129582999999,49.815273000002],[-49.273251500001,-25.428356300003]]},"properties":{"distance":"9989.389861","title":"Luxembourg: 3TSEK, 0% to Curitiba: Material Price - 1223 (MSEK)"}},{"type":"Feature","geometry":{"type":"LineString","coordinates":[[-102.552784,23.634501000001],[-49.273251500001,-25.428356300003]]},"properties":{"title":"Mexico: 656TSEK, 0.1% to Curitiba: Material Price - 1223 (MSEK)","distance":"7915.134294"}},{"type":"Feature","geometry":{"type":"LineString","coordinates":[[7.4246158000028,43.738417600001],[-49.273251500001,-25.428356300003]]},"properties":{"distance":"9616.102851","title":"Monaco: 562TSEK, 0% to Curitiba: Material Price - 1223 (MSEK)"}},{"type":"Feature","geometry":{"type":"LineString","coordinates":[[5.2912660000021,52.132633000001],[-49.273251500001,-25.428356300003]]},"properties":{"distance":"10119.382213","title":"Netherlands: 8546TSEK, 0.7% to Curitiba: Material Price - 1223 (MSEK)"}},{"type":"Feature","geometry":{"type":"LineString","coordinates":[[8.4689460000024,60.472024],[-49.273251500001,-25.428356300003]]},"properties":{"distance":"10876.997517","title":"Norway: 13648TSEK, 1.1% to Curitiba: Material Price - 1223 (MSEK)"}},{"type":"Feature","geometry":{"type":"LineString","coordinates":[[19.145136,51.919437999998],[-49.273251500001,-25.428356300003]]},"properties":{"distance":"10858.046782","title":"Poland: 9972TSEK, 0.8% to Curitiba: Material Price - 1223 (MSEK)"}},{"type":"Feature","geometry":{"type":"LineString","coordinates":[[-8.2244540000027,39.399871999999],[-49.273251500001,-25.428356300003]]},"properties":{"title":"Portugal: 4360TSEK, 0.4% to Curitiba: Material Price - 1223 (MSEK)","distance":"8372.955518"}},{"type":"Feature","geometry":{"type":"LineString","coordinates":[[24.966760000001,45.943161000003],[-49.273251500001,-25.428356300003]]},"properties":{"distance":"10889.581965","title":"Romania: 377TSEK, 0% to Curitiba: Material Price - 1223 (MSEK)"}},{"type":"Feature","geometry":{"type":"LineString","coordinates":[[19.699023999996,48.669026],[-49.273251500001,-25.428356300003]]},"properties":{"distance":"10699.619502","title":"Slovakia: 538TSEK, 0% to Curitiba: Material Price - 1223 (MSEK)"}},{"type":"Feature","geometry":{"type":"LineString","coordinates":[[14.995462999997,46.151240999997],[-49.273251500001,-25.428356300003]]},"properties":{"distance":"10249.913770","title":"Slovenia: 253TSEK, 0% to Curitiba: Material Price - 1223 (MSEK)"}},{"type":"Feature","geometry":{"type":"LineString","coordinates":[[22.937506000003,-30.559481999999],[-49.273251500001,-25.428356300003]]},"properties":{"distance":"6991.574897","title":"South Africa: 449TSEK, 0% to Curitiba: Material Price - 1223 (MSEK)"}},{"type":"Feature","geometry":{"type":"LineString","coordinates":[[-3.7492200000004,40.463667000002],[-49.273251500001,-25.428356300003]]},"properties":{"distance":"8706.849919","title":"Spain: 8903TSEK, 0.7% to Curitiba: Material Price - 1223 (MSEK)"}},{"type":"Feature","geometry":{"type":"LineString","coordinates":[[18.643501000001,60.128160999999],[-49.273251500001,-25.428356300003]]},"properties":{"distance":"11311.386673","title":"Sweden: 96029TSEK, 7.9% to Curitiba: Material Price - 1223 (MSEK)"}},{"type":"Feature","geometry":{"type":"LineString","coordinates":[[8.2275120000041,46.818187999999],[-49.273251500001,-25.428356300003]]},"properties":{"distance":"9886.766422","title":"Switzerland: 34TSEK, 0% to Curitiba: Material Price - 1223 (MSEK)"}},{"type":"Feature","geometry":{"type":"LineString","coordinates":[[120.960515,23.697810000004],[-49.273251500001,-25.428356300003]]},"properties":{"distance":"19009.098347","title":"Taiwan: 653TSEK, 0.1% to Curitiba: Material Price - 1223 (MSEK)"}},{"type":"Feature","geometry":{"type":"LineString","coordinates":[[100.992541,15.870032],[-49.273251500001,-25.428356300003]]},"properties":{"title":"Thailand: 164TSEK, 0% to Curitiba: Material Price - 1223 (MSEK)","distance":"16752.793877"}},{"type":"Feature","geometry":{"type":"LineString","coordinates":[[35.243321999997,38.963745000001],[-49.273251500001,-25.428356300003]]},"properties":{"title":"Turkey: 2743TSEK, 0.2% to Curitiba: Material Price - 1223 (MSEK)","distance":"11309.292053"}},{"type":"Feature","geometry":{"type":"LineString","coordinates":[[-3.4359729999961,55.378051000001],[-49.273251500001,-25.428356300003]]},"properties":{"title":"United Kingdom: 34856TSEK, 2.8% to Curitiba: Material Price - 1223 (MSEK)","distance":"9981.157731"}},{"type":"Feature","geometry":{"type":"LineString","coordinates":[[-95.712890999999,37.090240000003],[-49.273251500001,-25.428356300003]]},"properties":{"co2e":"0","distance":"8479.840662","title":"United States of America: 3648TSEK, 0.3% to Curitiba: Material Price - 1223 (MSEK)"}},{"type":"Feature","geometry":{"type":"LineString","coordinates":[[133.775136,-25.274397999999],[12.939818999999,57.721034999998]]},"properties":{"title":"Australia: 13839TSEK, 0.38% to Boras: Material Purchasing Price - 3663 (MSEK)","distance":"14175.277221"}},{"type":"Feature","geometry":{"type":"LineString","coordinates":[[14.550071999996,47.516230999997],[12.939818999999,57.721034999998]]},"properties":{"title":"Austria: 7931TSEK, 0.22% to Boras: Material Purchasing Price - 3663 (MSEK)","distance":"1139.832969"}},{"type":"Feature","geometry":{"type":"LineString","coordinates":[[4.4699360000043,50.503887000001],[12.939818999999,57.721034999998]]},"properties":{"distance":"972.492396","title":"Belgium: 204771TSEK, 5.59% to Boras: Material Purchasing Price - 3663 (MSEK)"}},{"type":"Feature","geometry":{"type":"LineString","coordinates":[[-51.925279999999,-14.235004],[12.939818999999,57.721034999998]]},"properties":{"distance":"9931.266857","title":"Brazil: 32067TSEK, 0.88% to Boras: Material Purchasing Price - 3663 (MSEK)"}},{"type":"Feature","geometry":{"type":"LineString","coordinates":[[104.195397,35.861660000001],[12.939818999999,57.721034999998]]},"properties":{"distance":"6775.593472","title":"China: 16787TSEK, 0.46% to Boras: Material Purchasing Price - 3663 (MSEK)"}},{"type":"Feature","geometry":{"type":"LineString","coordinates":[[15.472962000003,49.817492],[12.939818999999,57.721034999998]]},"properties":{"distance":"894.299461","title":"Czech Rep.: 16379TSEK, 0.45% to Boras: Material Purchasing Price - 3663 (MSEK)"}},{"type":"Feature","geometry":{"type":"LineString","coordinates":[[9.5017849999985,56.263920000001],[12.939818999999,57.721034999998]]},"properties":{"distance":"263.804856","title":"Denmark: 4907TSEK, 0.13% to Boras: Material Purchasing Price - 3663 (MSEK)"}},{"type":"Feature","geometry":{"type":"LineString","coordinates":[[25.013606999999,58.595272000001],[12.939818999999,57.721034999998]]},"properties":{"distance":"713.936794","title":"Estonia: 38201TSEK, 1.04% to Boras: Material Purchasing Price - 3663 (MSEK)"}},{"type":"Feature","geometry":{"type":"LineString","coordinates":[[25.748150999997,61.924109999999],[12.939818999999,57.721034999998]]},"properties":{"distance":"852.711446","title":"Finland: 41933TSEK, 1.14% to Boras: Material Purchasing Price - 3663 (MSEK)"}},{"type":"Feature","geometry":{"type":"LineString","coordinates":[[2.2137489999989,46.227638],[12.939818999999,57.721034999998]]},"properties":{"distance":"1470.174323","title":"France: 115078TSEK, 3.14% to Boras: Material Purchasing Price - 3663 (MSEK)"}},{"type":"Feature","geometry":{"type":"LineString","coordinates":[[10.451526000003,51.165690999999],[12.939818999999,57.721034999998]]},"properties":{"title":"Germany: 544251TSEK, 14.86% to Boras: Material Purchasing Price - 3663 (MSEK)","distance":"746.335048"}},{"type":"Feature","geometry":{"type":"LineString","coordinates":[[19.503303999996,47.162493999998],[12.939818999999,57.721034999998]]},"properties":{"distance":"1254.105055","title":"Hungary: 12205TSEK, 0.33% to Boras: Material Purchasing Price - 3663 (MSEK)"}},{"type":"Feature","geometry":{"type":"LineString","coordinates":[[78.962879999997,20.593684000004],[12.939818999999,57.721034999998]]},"properties":{"distance":"6667.793528","title":"India: 9904TSEK, 0.27% to Boras: Material Purchasing Price - 3663 (MSEK)"}},{"type":"Feature","geometry":{"type":"LineString","coordinates":[[12.567380000004,41.871939999999],[12.939818999999,57.721034999998]]},"properties":{"distance":"1762.534935","title":"Italy: 80629TSEK, 2.2% to Boras: Material Purchasing Price - 3663 (MSEK)"}},{"type":"Feature","geometry":{"type":"LineString","coordinates":[[138.252924,36.204824000001],[12.939818999999,57.721034999998]]},"properties":{"distance":"8395.766681","title":"Japan: 41TSEK, 0% to Boras: Material Purchasing Price - 3663 (MSEK)"}},{"type":"Feature","geometry":{"type":"LineString","coordinates":[[127.766922,35.907756999999],[12.939818999999,57.721034999998]]},"properties":{"title":"South Korea: 735TSEK, 0.02% to Boras: Material Purchasing Price - 3663 (MSEK)","distance":"7971.118741"}},{"type":"Feature","geometry":{"type":"LineString","coordinates":[[24.603189000003,56.879635000001],[12.939818999999,57.721034999998]]},"properties":{"distance":"705.953038","title":"Latvia: 8096TSEK, 0.22% to Boras: Material Purchasing Price - 3663 (MSEK)"}},{"type":"Feature","geometry":{"type":"LineString","coordinates":[[23.881274999999,55.169437999999],[12.939818999999,57.721034999998]]},"properties":{"distance":"728.823530","title":"Lithuania: 293630TSEK, 8.02% to Boras: Material Purchasing Price - 3663 (MSEK)"}},{"type":"Feature","geometry":{"type":"LineString","coordinates":[[101.975766,4.2104840000023],[12.939818999999,57.721034999998]]},"properties":{"distance":"9554.596897","title":"Malaysia: 8039TSEK, 0.22% to Boras: Material Purchasing Price - 3663 (MSEK)"}},{"type":"Feature","geometry":{"type":"LineString","coordinates":[[-102.552784,23.634501000001],[12.939818999999,57.721034999998]]},"properties":{"distance":"9187.400872","title":"Mexico: 76TSEK, 0% to Boras: Material Purchasing Price - 3663 (MSEK)"}},{"type":"Feature","geometry":{"type":"LineString","coordinates":[[5.2912660000021,52.132633000001],[12.939818999999,57.721034999998]]},"properties":{"distance":"789.552577","title":"Netherlands: 13218TSEK, 0.36% to Boras: Material Purchasing Price - 3663 (MSEK)"}},{"type":"Feature","geometry":{"type":"LineString","coordinates":[[8.4689460000024,60.472024],[12.939818999999,57.721034999998]]},"properties":{"distance":"398.274368","title":"Norway: 16830TSEK, 0.46% to Boras: Material Purchasing Price - 3663 (MSEK)"}},{"type":"Feature","geometry":{"type":"LineString","coordinates":[[19.145136,51.919437999998],[12.939818999999,57.721034999998]]},"properties":{"distance":"757.065321","title":"Poland: 10140TSEK, 0.28% to Boras: Material Purchasing Price - 3663 (MSEK)"}},{"type":"Feature","geometry":{"type":"LineString","coordinates":[[-8.2244540000027,39.399871999999],[12.939818999999,57.721034999998]]},"properties":{"distance":"2541.630016","title":"Portugal: 138TSEK, 0% to Boras: Material Purchasing Price - 3663 (MSEK)"}},{"type":"Feature","geometry":{"type":"LineString","coordinates":[[24.966760000001,45.943161000003],[12.939818999999,57.721034999998]]},"properties":{"title":"Romania: 2828TSEK, 0.08% to Boras: Material Purchasing Price - 3663 (MSEK)","distance":"1543.528777"}},{"type":"Feature","geometry":{"type":"LineString","coordinates":[[105.318756,61.52401],[12.939818999999,57.721034999998]]},"properties":{"distance":"4769.701753","title":"Russia: 9658TSEK, 0.26% to Boras: Material Purchasing Price - 3663 (MSEK)"}},{"type":"Feature","geometry":{"type":"LineString","coordinates":[[103.819836,1.3520830000039],[12.939818999999,57.721034999998]]},"properties":{"distance":"9932.684526","title":"Singapore: 26TSEK, 0% to Boras: Material Purchasing Price - 3663 (MSEK)"}},{"type":"Feature","geometry":{"type":"LineString","coordinates":[[14.995462999997,46.151240999997],[12.939818999999,57.721034999998]]},"properties":{"title":"Slovenia: 11317TSEK, 0.31% to Boras: Material Purchasing Price - 3663 (MSEK)","distance":"1294.043533"}},{"type":"Feature","geometry":{"type":"LineString","coordinates":[[22.937506000003,-30.559481999999],[12.939818999999,57.721034999998]]},"properties":{"distance":"9860.851012","title":"South Africa: 54966TSEK, 1.5% to Boras: Material Purchasing Price - 3663 (MSEK)"}},{"type":"Feature","geometry":{"type":"LineString","coordinates":[[-3.7492200000004,40.463667000002],[12.939818999999,57.721034999998]]},"properties":{"distance":"2257.658862","title":"Spain: 22306TSEK, 0.61% to Boras: Material Purchasing Price - 3663 (MSEK)"}},{"type":"Feature","geometry":{"type":"LineString","coordinates":[[18.643501000001,60.128160999999],[12.939818999999,57.721034999998]]},"properties":{"title":"Sweden: 1922238TSEK, 52.48% to Boras: Material Purchasing Price - 3663 (MSEK)","distance":"422.608059"}},{"type":"Feature","geometry":{"type":"LineString","coordinates":[[8.2275120000041,46.818187999999],[12.939818999999,57.721034999998]]},"properties":{"distance":"1253.268673","title":"Switzerland: 1532TSEK, 0.04% to Boras: Material Purchasing Price - 3663 (MSEK)"}},{"type":"Feature","geometry":{"type":"LineString","coordinates":[[120.960515,23.697810000004],[12.939818999999,57.721034999998]]},"properties":{"distance":"8799.253139","title":"Taiwan: 1677TSEK, 0.05% to Boras: Material Purchasing Price - 3663 (MSEK)"}},{"type":"Feature","geometry":{"type":"LineString","coordinates":[[9.5374989999968,33.886917000001],[12.939818999999,57.721034999998]]},"properties":{"distance":"2662.525958","title":"Tunisia: 7075TSEK, 0.19% to Boras: Material Purchasing Price - 3663 (MSEK)"}},{"type":"Feature","geometry":{"type":"LineString","coordinates":[[35.243321999997,38.963745000001],[12.939818999999,57.721034999998]]},"properties":{"distance":"2632.766805","title":"Turkey: 79382TSEK, 2.17% to Boras: Material Purchasing Price - 3663 (MSEK)"}},{"type":"Feature","geometry":{"type":"LineString","coordinates":[[-3.4359729999961,55.378051000001],[12.939818999999,57.721034999998]]},"properties":{"distance":"1034.133548","title":"UK: 54613TSEK, 1.49% to Boras: Material Purchasing Price - 3663 (MSEK)"}},{"type":"Feature","geometry":{"type":"LineString","coordinates":[[-95.712890999999,37.090240000003],[12.939818999999,57.721034999998]]},"properties":{"distance":"7568.000801","title":"USA: 5371TSEK, 0.15% to Boras: Material Purchasing Price - 3663 (MSEK)"}},{"type":"Feature","geometry":{"type":"LineString","coordinates":[[4.4699360000043,50.503887000001],[77.594562700002,12.971598699996]]},"properties":{"distance":"7708.117945","title":"Belgium: 216TSEK, 0.1% to Bangalore: Material Price - 212 (MSEK)"}},{"type":"Feature","geometry":{"type":"LineString","coordinates":[[104.195397,35.861660000001],[77.594562700002,12.971598699996]]},"properties":{"distance":"3681.286485","title":"China: 6897TSEK, 3.3% to Bangalore: Material Price - 212 (MSEK)"}},{"type":"Feature","geometry":{"type":"LineString","coordinates":[[25.748150999997,61.924109999999],[77.594562700002,12.971598699996]]},"properties":{"title":"Finland: 929TSEK, 0.4% to Bangalore: Material Price - 212 (MSEK)","distance":"6807.826210"}},{"type":"Feature","geometry":{"type":"LineString","coordinates":[[78.962879999997,20.593684000004],[77.594562700002,12.971598699996]]},"properties":{"distance":"859.941262","title":"India: 203764TSEK, 96.1% to Bangalore: Material Price - 212 (MSEK)"}},{"type":"Feature","geometry":{"type":"LineString","coordinates":[[18.643501000001,60.128160999999],[77.594562700002,12.971598699996]]},"properties":{"distance":"7069.576576","title":"Sweden: 298TSEK, 0.1% to Bangalore: Material Price - 212 (MSEK)"}},{"type":"Feature","geometry":{"type":"LineString","coordinates":[[-3.4359729999961,55.378051000001],[77.594562700002,12.971598699996]]},"properties":{"title":"United Kingdom: 2TSEK, 0% to Bangalore: Material Price - 212 (MSEK)","distance":"8258.880003"}},{"type":"Feature","geometry":{"type":"LineString","coordinates":[[4.4699360000043,50.503887000001],[-82.691542899999,42.435650400001]]},"properties":{"distance":"6343.437628","title":"Belgium: 256TSEK, 0.05% to Prevost Bus: Material Price - 567MSEK"}},{"type":"Feature","geometry":{"type":"LineString","coordinates":[[-51.925279999999,-14.235004],[-82.691542899999,42.435650400001]]},"properties":{"title":"Brazil: 642TSEK, 0.11% to Prevost Bus: Material Price - 567MSEK","distance":"7042.553967"}},{"type":"Feature","geometry":{"type":"LineString","coordinates":[[-106.346771,56.130366000001],[-82.691542899999,42.435650400001]]},"properties":{"distance":"2273.322040","title":"Canada: 354081TSEK, 62.43% to Prevost Bus: Material Price - 567MSEK"}},{"type":"Feature","geometry":{"type":"LineString","coordinates":[[104.195397,35.861660000001],[-82.691542899999,42.435650400001]]},"properties":{"distance":"11280.756956","title":"China: 224TSEK, 0.04% to Prevost Bus: Material Price - 567MSEK"}},{"type":"Feature","geometry":{"type":"LineString","coordinates":[[15.472962000003,49.817492],[-82.691542899999,42.435650400001]]},"properties":{"distance":"7048.857087","title":"Czech Rep.: 1TSEK, 0% to Prevost Bus: Material Price - 567MSEK"}},{"type":"Feature","geometry":{"type":"LineString","coordinates":[[25.748150999997,61.924109999999],[-82.691542899999,42.435650400001]]},"properties":{"distance":"6777.931356","title":"Finland: 1058TSEK, 0.19% to Prevost Bus: Material Price - 567MSEK"}},{"type":"Feature","geometry":{"type":"LineString","coordinates":[[2.2137489999989,46.227638],[-82.691542899999,42.435650400001]]},"properties":{"distance":"6429.288584","title":"France: 3462TSEK, 0.61% to Prevost Bus: Material Price - 567MSEK"}},{"type":"Feature","geometry":{"type":"LineString","coordinates":[[10.451526000003,51.165690999999],[-82.691542899999,42.435650400001]]},"properties":{"distance":"6669.936447","title":"Germany: 23914TSEK, 4.22% to Prevost Bus: Material Price - 567MSEK"}},{"type":"Feature","geometry":{"type":"LineString","coordinates":[[19.503303999996,47.162493999998],[-82.691542899999,42.435650400001]]},"properties":{"distance":"7463.470864","title":"Hungary: 845TSEK, 0.15% to Prevost Bus: Material Price - 567MSEK"}},{"type":"Feature","geometry":{"type":"LineString","coordinates":[[12.567380000004,41.871939999999],[-82.691542899999,42.435650400001]]},"properties":{"distance":"7385.699451","title":"Italy: 3143TSEK, 0.55% to Prevost Bus: Material Price - 567MSEK"}},{"type":"Feature","geometry":{"type":"LineString","coordinates":[[-102.552784,23.634501000001],[-82.691542899999,42.435650400001]]},"properties":{"title":"Mexico: 12825TSEK, 2.26% to Prevost Bus: Material Price - 567MSEK","distance":"2778.100728"}},{"type":"Feature","geometry":{"type":"LineString","coordinates":[[5.2912660000021,52.132633000001],[-82.691542899999,42.435650400001]]},"properties":{"title":"Netherlands: 1795TSEK, 0.32% to Prevost Bus: Material Price - 567MSEK","distance":"6307.775169"}},{"type":"Feature","geometry":{"type":"LineString","coordinates":[[19.145136,51.919437999998],[-82.691542899999,42.435650400001]]},"properties":{"title":"Poland: 12TSEK, 0% to Prevost Bus: Material Price - 567MSEK","distance":"7120.781372"}},{"type":"Feature","geometry":{"type":"LineString","coordinates":[[-3.7492200000004,40.463667000002],[-82.691542899999,42.435650400001]]},"properties":{"distance":"6330.858972","title":"Spain: 9681TSEK, 1.71% to Prevost Bus: Material Price - 567MSEK"}},{"type":"Feature","geometry":{"type":"LineString","coordinates":[[18.643501000001,60.128160999999],[-82.691542899999,42.435650400001]]},"properties":{"distance":"6576.630737","title":"Sweden: 942TSEK, 0.17% to Prevost Bus: Material Price - 567MSEK"}},{"type":"Feature","geometry":{"type":"LineString","coordinates":[[8.2275120000041,46.818187999999],[-82.691542899999,42.435650400001]]},"properties":{"title":"Switzerland: 237TSEK, 0.04% to Prevost Bus: Material Price - 567MSEK","distance":"6789.326555"}},{"type":"Feature","geometry":{"type":"LineString","coordinates":[[120.960515,23.697810000004],[-82.691542899999,42.435650400001]]},"properties":{"distance":"12270.939263","title":"Taiwan: 1190TSEK, 0.21% to Prevost Bus: Material Price - 567MSEK"}},{"type":"Feature","geometry":{"type":"LineString","coordinates":[[-3.4359729999961,55.378051000001],[-82.691542899999,42.435650400001]]},"properties":{"distance":"5637.033282","title":"UK: 1802TSEK, 0.32% to Prevost Bus: Material Price - 567MSEK"}},{"type":"Feature","geometry":{"type":"LineString","coordinates":[[-95.712890999999,37.090240000003],[-82.691542899999,42.435650400001]]},"properties":{"distance":"1259.806756","title":"USA: 151028TSEK, 26.63% to Prevost Bus: Material Price - 567MSEK"}},{"type":"Feature","geometry":{"type":"LineString","coordinates":[[-106.346771,56.130366000001],[-73.887787999997,45.572764900001]]},"properties":{"distance":"2530.922778","title":"Canada: 1868TSEK, 55% to St. Eustache: Material Price - 3.4MSEK"}},{"type":"Feature","geometry":{"type":"LineString","coordinates":[[-95.712890999999,37.090240000003],[-73.887787999997,45.572764900001]]},"properties":{"distance":"2042.720647","title":"USA: 1325TSEK, 39% to St. Eustache: Material Price - 3.4MSEK"}},{"type":"Feature","geometry":{"type":"LineString","coordinates":[[15.2551187,54.525961399999],[-73.887787999997,45.572764900001]]},"properties":{"distance":"6005.535888","title":"EU: 204TSEK, 6% to St. Eustache: Material Price - 3.4MSEK"}},{"type":"Feature","geometry":{"type":"LineString","coordinates":[[-106.346771,56.130366000001],[-73.452912400001,44.699487300001]]},"properties":{"distance":"2619.540968","title":"Canada: 3026TSEK, 31% to Plattsburgh: Material Price - 9.8MSEK"}},{"type":"Feature","geometry":{"type":"LineString","coordinates":[[-95.712890999999,37.090240000003],[-73.452912400001,44.699487300001]]},"properties":{"distance":"2044.730530","title":"USA: 6149TSEK, 63% to Plattsburgh: Material Price - 9.8MSEK"}},{"type":"Feature","geometry":{"type":"LineString","coordinates":[[15.2551187,54.525961399999],[-73.452912400001,44.699487300001]]},"properties":{"distance":"6048.986447","title":"EU: 586TSEK, 6% to Plattsburgh: Material Price - 9.8MSEK"}},{"type":"Feature","geometry":{"type":"LineString","coordinates":[[17.0385376,51.107885199999],[8.4689460000024,60.472024]]},"properties":{"title":"Wrolcaw: Complete Bus - 925 Unit to Norway: 372, 40.22%","distance":"1168.783700"}},{"type":"Feature","geometry":{"type":"LineString","coordinates":[[17.0385376,51.107885199999],[18.643501000001,60.128160999999]]},"properties":{"title":"Wrolcaw: Complete Bus - 925 Unit to Sweden: 111, 12%","distance":"1007.981801"}},{"type":"Feature","geometry":{"type":"LineString","coordinates":[[17.0385376,51.107885199999],[10.451526000003,51.165690999999]]},"properties":{"distance":"459.471940","title":"Wrolcaw: Complete Bus - 925 Unit to Germany: 89, 9.62%"}},{"type":"Feature","geometry":{"type":"LineString","coordinates":[[17.0385376,51.107885199999],[8.2275120000041,46.818187999999]]},"properties":{"title":"Wrolcaw: Complete Bus - 925 Unit to Switzerland: 49, 5.3%","distance":"799.914574"}},{"type":"Feature","geometry":{"type":"LineString","coordinates":[[17.0385376,51.107885199999],[14.550071999996,47.516230999997]]},"properties":{"title":"Wrolcaw: Complete Bus - 925 Unit to Austria: 47, 5.08%","distance":"438.160605"}},{"type":"Feature","geometry":{"type":"LineString","coordinates":[[17.0385376,51.107885199999],[12.567380000004,41.871939999999]]},"properties":{"distance":"1082.008255","title":"Wrolcaw: Complete Bus - 925 Unit to Italy: 38, 4.11%"}},{"type":"Feature","geometry":{"type":"LineString","coordinates":[[17.0385376,51.107885199999],[5.2912660000021,52.132633000001]]},"properties":{"distance":"818.042437","title":"Wrolcaw: Complete Bus - 925 Unit to Netherlands: 34, 3.68%"}},{"type":"Feature","geometry":{"type":"LineString","coordinates":[[17.0385376,51.107885199999],[2.2137489999989,46.227638]]},"properties":{"distance":"1213.447377","title":"Wrolcaw: Complete Bus - 925 Unit to France: 34, 3.68%"}},{"type":"Feature","geometry":{"type":"LineString","coordinates":[[17.0385376,51.107885199999],[9.5017849999985,56.263920000001]]},"properties":{"distance":"757.427845","title":"Wrolcaw: Complete Bus - 925 Unit to Denmark: 30, 3.24%"}},{"type":"Feature","geometry":{"type":"LineString","coordinates":[[17.0385376,51.107885199999],[-102.552784,23.634501000001]]},"properties":{"distance":"9829.150613","title":"Wrolcaw: Complete Bus - 925 Unit to Mexico: 28, 3.03%"}},{"type":"Feature","geometry":{"type":"LineString","coordinates":[[17.0385376,51.107885199999],[-3.4359729999961,55.378051000001]]},"properties":{"distance":"1436.468822","title":"Wrolcaw: Complete Bus - 925 Unit to United Kingdom: 25, 2.7%"}},{"type":"Feature","geometry":{"type":"LineString","coordinates":[[17.0385376,51.107885199999],[25.748150999997,61.924109999999]]},"properties":{"distance":"1313.368657","title":"Wrolcaw: Complete Bus - 925 Unit to Finland: 20, 2.16%"}},{"type":"Feature","geometry":{"type":"LineString","coordinates":[[17.0385376,51.107885199999],[-3.7492200000004,40.463667000002]]},"properties":{"distance":"1988.269701","title":"Wrolcaw: Complete Bus - 925 Unit to Spain: 12, 1.3%"}},{"type":"Feature","geometry":{"type":"LineString","coordinates":[[17.0385376,51.107885199999],[4.4699360000043,50.503887000001]]},"properties":{"distance":"884.655851","title":"Wrolcaw: Complete Bus - 925 Unit to Belgium: 10, 1.08%"}},{"type":"Feature","geometry":{"type":"LineString","coordinates":[[17.0385376,51.107885199999],[15.472962000003,49.817492]]},"properties":{"title":"Wrolcaw: Complete Bus - 925 Unit to Czech Republic: 8, 0.86%","distance":"181.288400"}},{"type":"Feature","geometry":{"type":"LineString","coordinates":[[17.0385376,51.107885199999],[19.145136,51.919437999998]]},"properties":{"distance":"171.436565","title":"Wrolcaw: Complete Bus - 925 Unit to Poland: 6, 0.65%"}},{"type":"Feature","geometry":{"type":"LineString","coordinates":[[17.0385376,51.107885199999],[24.603189000003,56.879635000001]]},"properties":{"title":"Wrolcaw: Complete Bus - 925 Unit to Latvia: 5, 0.54%","distance":"809.197013"}},{"type":"Feature","geometry":{"type":"LineString","coordinates":[[17.0385376,51.107885199999],[15.200000000002,45.100000000003]]},"properties":{"title":"Wrolcaw: Complete Bus - 925 Unit to Croatia: 3, 0.32%","distance":"681.792915"}},{"type":"Feature","geometry":{"type":"LineString","coordinates":[[17.0385376,51.107885199999],[19.503303999996,47.162493999998]]},"properties":{"distance":"473.869647","title":"Wrolcaw: Complete Bus - 925 Unit to Hungary: 2, 0.22%"}},{"type":"Feature","geometry":{"type":"LineString","coordinates":[[17.0385376,51.107885199999],[24.966760000001,45.943161000003]]},"properties":{"title":"Wrolcaw: Complete Bus - 925 Unit to Romania: 1, 0.11%","distance":"818.093273"}},{"type":"Feature","geometry":{"type":"LineString","coordinates":[[17.0385376,51.107885199999],[25.013606999999,58.595272000001]]},"properties":{"distance":"975.134632","title":"Wrolcaw: Complete Bus - 925 Unit to Estonia: 1, 0.11%"}},{"type":"Feature","geometry":{"type":"LineString","coordinates":[[12.930107000004,59.132661],[9.5017849999985,56.263920000001]]},"properties":{"distance":"378.377998","title":"Saffle: 253 Unit to Denmark: 29, 12%"}},{"type":"Feature","geometry":{"type":"LineString","coordinates":[[12.930107000004,59.132661],[8.4689460000024,60.472024]]},"properties":{"distance":"290.489154","title":"Saffle: 253 Unit to Norway: 67, 26%"}},{"type":"Feature","geometry":{"type":"LineString","coordinates":[[12.930107000004,59.132661],[18.643501000001,60.128160999999]]},"properties":{"distance":"339.601329","title":"Saffle: 253 Unit to Sweden: 157, 62%"}},{"type":"Feature","geometry":{"type":"LineString","coordinates":[[-99.133208000003,19.4326077],[-102.552784,23.634501000001]]},"properties":{"distance":"585.934663","title":"Mexico City: Complete Bus - 799 Unit to Mexico: 749, 93.7%"}},{"type":"Feature","geometry":{"type":"LineString","coordinates":[[-99.133208000003,19.4326077],[-95.712890999999,37.090240000003]]},"properties":{"distance":"1991.390373","title":"Mexico City: Complete Bus - 799 Unit to USA: 50, 6.3%"}},{"type":"Feature","geometry":{"type":"LineString","coordinates":[[-49.273251500001,-25.428356300003],[-63.616672000003,-38.416096999997]]},"properties":{"distance":"1974.444883","title":"Curitiba: Complete Bus - 2623 Unit to Argentina: 85, 3.2%"}},{"type":"Feature","geometry":{"type":"LineString","coordinates":[[-49.273251500001,-25.428356300003],[-51.925279999999,-14.235004]]},"properties":{"distance":"1275.048549","title":"Curitiba: Complete Bus - 2623 Unit to Brazil: 2030, 77.4%"}},{"type":"Feature","geometry":{"type":"LineString","coordinates":[[-49.273251500001,-25.428356300003],[-71.542969,-35.675146999998]]},"properties":{"distance":"2409.550316","title":"Curitiba: Complete Bus - 2623 Unit to Chile: 100, 3.8%"}},{"type":"Feature","geometry":{"type":"LineString","coordinates":[[-49.273251500001,-25.428356300003],[-74.297332999997,4.5708679999982]]},"properties":{"title":"Curitiba: Complete Bus - 2623 Unit to Colombia: 161, 6.1%","distance":"4292.070512"}},{"type":"Feature","geometry":{"type":"LineString","coordinates":[[-49.273251500001,-25.428356300003],[-83.753427999999,9.7489169999974]]},"properties":{"title":"Curitiba: Complete Bus - 2623 Unit to Costa Rica: 2, 0.1%","distance":"5406.671645"}},{"type":"Feature","geometry":{"type":"LineString","coordinates":[[-49.273251500001,-25.428356300003],[30.802498000002,26.820553000001]]},"properties":{"distance":"10357.045394","title":"Curitiba: Complete Bus - 2623 Unit to Egypt: 2, 0.1%"}},{"type":"Feature","geometry":{"type":"LineString","coordinates":[[-49.273251500001,-25.428356300003],[-78.183406000002,-1.8312390000011]]},"properties":{"title":"Curitiba: Complete Bus - 2623 Unit to Equador: 80, 3%","distance":"4058.236863"}},{"type":"Feature","geometry":{"type":"LineString","coordinates":[[-49.273251500001,-25.428356300003],[-90.230759000004,15.783470999998]]},"properties":{"title":"Curitiba: Complete Bus - 2623 Unit to Guatemala: 2, 0.1%","distance":"6376.871664"}},{"type":"Feature","geometry":{"type":"LineString","coordinates":[[-49.273251500001,-25.428356300003],[-102.552784,23.634501000001]]},"properties":{"distance":"7915.134294","title":"Curitiba: Complete Bus - 2623 Unit to Mexico: 63, 2.4%"}},{"type":"Feature","geometry":{"type":"LineString","coordinates":[[-49.273251500001,-25.428356300003],[-75.015152,-9.1899670000004]]},"properties":{"distance":"3263.716024","title":"Curitiba: Complete Bus - 2623 Unit to Peru: 38, 1.4%"}},{"type":"Feature","geometry":{"type":"LineString","coordinates":[[-49.273251500001,-25.428356300003],[22.937506000003,-30.559481999999]]},"properties":{"distance":"6991.574897","title":"Curitiba: Complete Bus - 2623 Unit to South Africa: 28, 1.1%"}},{"type":"Feature","geometry":{"type":"LineString","coordinates":[[-49.273251500001,-25.428356300003],[-55.765835000003,-32.522779000001]]},"properties":{"distance":"1010.006147","title":"Curitiba: Complete Bus - 2623 Unit to Uruguay: 32, 1.2%"}},{"type":"Feature","geometry":{"type":"LineString","coordinates":[[12.939818999999,57.721034999998],[133.775136,-25.274397999999]]},"properties":{"distance":"14175.277221","title":"Boras: Complete Bus - 4029 Unit to Australia: 495, 12.29%"}},{"type":"Feature","geometry":{"type":"LineString","coordinates":[[12.939818999999,57.721034999998],[4.4699360000043,50.503887000001]]},"properties":{"distance":"972.492396","title":"Boras: Complete Bus - 4029 Unit to Belgium: 143, 3.55%"}},{"type":"Feature","geometry":{"type":"LineString","coordinates":[[12.939818999999,57.721034999998],[-51.925279999999,-14.235004]]},"properties":{"distance":"9931.266857","title":"Boras: Complete Bus - 4029 Unit to Brazil: 7, 0.17%"}},{"type":"Feature","geometry":{"type":"LineString","coordinates":[[12.939818999999,57.721034999998],[-74.297332999997,4.5708679999982]]},"properties":{"distance":"9413.950047","title":"Boras: Complete Bus - 4029 Unit to Colombia: 945, 23.45%"}},{"type":"Feature","geometry":{"type":"LineString","coordinates":[[12.939818999999,57.721034999998],[30.802498000002,26.820553000001]]},"properties":{"distance":"3711.151367","title":"Boras: Complete Bus - 4029 Unit to Egypt: 28, 0.69%"}},{"type":"Feature","geometry":{"type":"LineString","coordinates":[[12.939818999999,57.721034999998],[25.748150999997,61.924109999999]]},"properties":{"title":"Boras: Complete Bus - 4029 Unit to Finland: 147, 3.65%","distance":"852.711446"}},{"type":"Feature","geometry":{"type":"LineString","coordinates":[[12.939818999999,57.721034999998],[114.109497,22.396428000004]]},"properties":{"distance":"8551.999835","title":"Boras: Complete Bus - 4029 Unit to Hong Kong: 2, 0.05%"}},{"type":"Feature","geometry":{"type":"LineString","coordinates":[[12.939818999999,57.721034999998],[34.851612000002,31.046051]]},"properties":{"distance":"3405.412672","title":"Boras: Complete Bus - 4029 Unit to Israel: 170, 4.22%"}},{"type":"Feature","geometry":{"type":"LineString","coordinates":[[12.939818999999,57.721034999998],[-7.0926199999983,31.791702]]},"properties":{"title":"Boras: Complete Bus - 4029 Unit to Morocco: 2, 0.05%","distance":"3260.586442"}},{"type":"Feature","geometry":{"type":"LineString","coordinates":[[12.939818999999,57.721034999998],[5.2912660000021,52.132633000001]]},"properties":{"title":"Boras: Complete Bus - 4029 Unit to Netherlands: 1, 0.02%","distance":"789.552577"}},{"type":"Feature","geometry":{"type":"LineString","coordinates":[[12.939818999999,57.721034999998],[174.885971,-40.900556999999]]},"properties":{"title":"Boras: Complete Bus - 4029 Unit to New Zealand: 3, 0.07%","distance":"17747.816472"}},{"type":"Feature","geometry":{"type":"LineString","coordinates":[[12.939818999999,57.721034999998],[8.4689460000024,60.472024]]},"properties":{"distance":"398.274368","title":"Boras: Complete Bus - 4029 Unit to Norway: 23, 0.57%"}},{"type":"Feature","geometry":{"type":"LineString","coordinates":[[12.939818999999,57.721034999998],[-8.2244540000027,39.399871999999]]},"properties":{"distance":"2541.630016","title":"Boras: Complete Bus - 4029 Unit to Portugal: 256, 6.35%"}},{"type":"Feature","geometry":{"type":"LineString","coordinates":[[12.939818999999,57.721034999998],[103.819836,1.3520830000039]]},"properties":{"distance":"9932.684526","title":"Boras: Complete Bus - 4029 Unit to Singapore: 233, 5.78%"}},{"type":"Feature","geometry":{"type":"LineString","coordinates":[[12.939818999999,57.721034999998],[22.937506000003,-30.559481999999]]},"properties":{"distance":"9860.851012","title":"Boras: Complete Bus - 4029 Unit to South Africa: 8, 0.2%"}},{"type":"Feature","geometry":{"type":"LineString","coordinates":[[12.939818999999,57.721034999998],[-3.7492200000004,40.463667000002]]},"properties":{"distance":"2257.658862","title":"Boras: Complete Bus - 4029 Unit to Spain: 440, 10.92%"}},{"type":"Feature","geometry":{"type":"LineString","coordinates":[[12.939818999999,57.721034999998],[18.643501000001,60.128160999999]]},"properties":{"distance":"422.608059","title":"Boras: Complete Bus - 4029 Unit to Sweden: 272, 6.75%"}},{"type":"Feature","geometry":{"type":"LineString","coordinates":[[12.939818999999,57.721034999998],[120.960515,23.697810000004]]},"properties":{"distance":"8799.253139","title":"Boras: Complete Bus - 4029 Unit to Taiwan: 25, 0.62%"}},{"type":"Feature","geometry":{"type":"LineString","coordinates":[[12.939818999999,57.721034999998],[100.992541,15.870032]]},"properties":{"distance":"8406.594307","title":"Boras: Complete Bus - 4029 Unit to Thailand: 1, 0.02%"}},{"type":"Feature","geometry":{"type":"LineString","coordinates":[[12.939818999999,57.721034999998],[-3.4359729999961,55.378051000001]]},"properties":{"title":"Boras: Complete Bus - 4029 Unit to UK: 828, 20.55%","distance":"1034.133548"}},{"type":"Feature","geometry":{"type":"LineString","coordinates":[[12.939818999999,57.721034999998],[104.195397,35.861660000001]]},"properties":{"distance":"6775.593472","title":"Boras: CKD Kits - 3618 Unit to China: 37, 1.02%"}},{"type":"Feature","geometry":{"type":"LineString","coordinates":[[12.939818999999,57.721034999998],[78.962879999997,20.593684000004]]},"properties":{"title":"Boras: CKD Kits - 3618 Unit to India: 714, 19.73%","distance":"6667.793528"}},{"type":"Feature","geometry":{"type":"LineString","coordinates":[[12.939818999999,57.721034999998],[53.688046000001,32.427908000001]]},"properties":{"distance":"4154.003911","title":"Boras: CKD Kits - 3618 Unit to Iran: 800, 22.11%"}},{"type":"Feature","geometry":{"type":"LineString","coordinates":[[12.939818999999,57.721034999998],[-102.552784,23.634501000001]]},"properties":{"distance":"9187.400872","title":"Boras: CKD Kits - 3618 Unit to Mexico: 717, 19.82%"}},{"type":"Feature","geometry":{"type":"LineString","coordinates":[[12.939818999999,57.721034999998],[-7.0926199999983,31.791702]]},"properties":{"title":"Boras: CKD Kits - 3618 Unit to Morocco (CKD): 246, 6.8%","distance":"3260.586442"}},{"type":"Feature","geometry":{"type":"LineString","coordinates":[[12.939818999999,57.721034999998],[19.145136,51.919437999998]]},"properties":{"distance":"757.065321","title":"Boras: CKD Kits - 3618 Unit to Poland: 849, 23.47%"}},{"type":"Feature","geometry":{"type":"LineString","coordinates":[[12.939818999999,57.721034999998],[22.937506000003,-30.559481999999]]},"properties":{"distance":"9860.851012","title":"Boras: CKD Kits - 3618 Unit to South Africa (CKD): 27, 0.75%"}},{"type":"Feature","geometry":{"type":"LineString","coordinates":[[12.939818999999,57.721034999998],[100.992541,15.870032]]},"properties":{"distance":"8406.594307","title":"Boras: CKD Kits - 3618 Unit to Thailand (CKD): 120, 3.32%"}},{"type":"Feature","geometry":{"type":"LineString","coordinates":[[12.939818999999,57.721034999998],[9.5374989999968,33.886917000001]]},"properties":{"distance":"2662.525958","title":"Boras: CKD Kits - 3618 Unit to Tunisia: 108, 2.99%"}},{"type":"Feature","geometry":{"type":"LineString","coordinates":[[77.594562700002,12.971598699996],[14.550071999996,47.516230999997]]},"properties":{"distance":"6934.400524","title":"Bangalore: Complete Bus - 662 Unit to Austria: 4, 0.6%"}},{"type":"Feature","geometry":{"type":"LineString","coordinates":[[77.594562700002,12.971598699996],[78.962879999997,20.593684000004]]},"properties":{"distance":"859.941262","title":"Bangalore: Complete Bus - 662 Unit to India: 651, 98.3%"}},{"type":"Feature","geometry":{"type":"LineString","coordinates":[[77.594562700002,12.971598699996],[22.937506000003,-30.559481999999]]},"properties":{"distance":"7584.078552","title":"Bangalore: Complete Bus - 662 Unit to South Africa: 1.1%"}},{"type":"Feature","geometry":{"type":"LineString","coordinates":[[-82.691542899999,42.435650400001],[-106.346771,56.130366000001]]},"properties":{"distance":"2273.322040","title":"Prevost Bus: Complete Bus Sold - 533 Unit to Canada: 114, 21%"}},{"type":"Feature","geometry":{"type":"LineString","coordinates":[[-82.691542899999,42.435650400001],[-95.712890999999,37.090240000003]]},"properties":{"title":"Prevost Bus: Complete Bus Sold - 533 Unit to USA: 419, 79%","distance":"1259.806756"}},{"type":"Feature","geometry":{"type":"LineString","coordinates":[[-73.887787999997,45.572764900001],[-106.346771,56.130366000001]]},"properties":{"distance":"2530.922778","title":"St. Eustache: 40ft Bus Sold - 532 to Canada: 532, 100%"}},{"type":"Feature","geometry":{"type":"LineString","coordinates":[[-73.452912400001,44.699487300001],[-95.712890999999,37.090240000003]]},"properties":{"distance":"2044.730530","title":"Plattsburgh: 60ft Bus Sold - 199 to USA: 199, 100%"}}],"properties":{"description":"","tags":"","title":"all2","sm:ui:weight":"1"}}