{"supplychain":{"category":18,"created":1338614704,"enable_comments":true,"flags":0,"id":3202,"modified":1338614707,"other_perms":1,"passcode":null,"user_featured":false,"usergroup_id":null,"usergroup_perms":0,"user_id":2276,"owner":{"id":2276,"name":"luisdans","avatar":"http:\/\/free.sourcemap.com\/assets\/images\/default-user.png","banner_url":null,"display_name":null},"taxonomy":[{"description":"Miscellaneous\n","id":18,"left":33,"name":"miscellaneous","right":34,"title":"Miscellaneous"}],"attributes":{"title":"Tech Communities","description":"Influencers for some communities","tags":"it"},"stops":[{"local_stop_id":297,"id":297,"geometry":"POINT(-382490.764739 7435586.530983)","attributes":{"address":"United Kingdom","placename":"United Kingdom","title":"Adam Sparey"}},{"local_stop_id":296,"id":296,"geometry":"POINT(497590.999399 6534001.856289)","attributes":{"address":"Belgium","placename":"Belgium","title":"Bob Goossens"}},{"local_stop_id":295,"id":295,"geometry":"POINT(-382490.764739 7435586.530983)","attributes":{"address":"United Kingdom","placename":"United Kingdom","title":"Brian Stalley"}},{"local_stop_id":294,"id":294,"geometry":"POINT(-10654710.288472 4451692.554811)","attributes":{"address":"United States","placename":"United States","title":"John Caux"}},{"local_stop_id":293,"id":293,"geometry":"POINT(-10654710.288472 4451692.554811)","attributes":{"address":"United States","placename":"United States","title":"Complex Events Processing Forum"}},{"local_stop_id":292,"id":292,"geometry":"POINT(-10654710.288472 4451692.554811)","attributes":{"address":"United States","placename":"United States","title":"Complex Events Processing"}},{"local_stop_id":291,"id":291,"geometry":"POINT(-10654710.288472 4451692.554811)","attributes":{"address":"United States","placename":"United States","title":"MS-SQLServer"}},{"local_stop_id":290,"id":290,"geometry":"POINT(915882.446336 5912448.054871)","attributes":{"address":"Switzerland","placename":"Switzerland","title":"Dieter Steiger"}},{"local_stop_id":289,"id":289,"geometry":"POINT(915882.446336 5912448.054871)","attributes":{"address":"Switzerland","placename":"Switzerland","title":"Alexej Freund"}},{"local_stop_id":288,"id":288,"geometry":"POINT(-382490.764739 7435586.530983)","attributes":{"address":"United Kingdom","placename":"United Kingdom","title":"SAP ABAP Online Magazine"}},{"local_stop_id":287,"id":287,"geometry":"POINT(1163458.552333 6650655.041174)","attributes":{"address":"Germany","placename":"Germany","title":"Bernd Eckenfels"}},{"local_stop_id":286,"id":286,"geometry":"POINT(1163458.552333 6650655.041174)","attributes":{"address":"Germany","placename":"Germany","title":"Bernd Eckenfels SAP blog"}},{"local_stop_id":285,"id":285,"geometry":"POINT(1163458.552333 6650655.041174)","attributes":{"address":"Germany","placename":"Germany","title":"Bernd Eckenfels"}},{"local_stop_id":284,"id":284,"geometry":"POINT(-382490.764739 7435586.530983)","attributes":{"address":"United Kingdom","placename":"United Kingdom","title":"Peoplesource Consulting's Business Intelligence, ETL and Data Warehousing Group"}},{"local_stop_id":283,"id":283,"geometry":"POINT(589021.036772 6824142.821624)","attributes":{"address":"Netherlands","placename":"The Netherlands","title":"IDPP NL ICT Vacatures"}},{"local_stop_id":282,"id":282,"geometry":"POINT(497590.999399 6534001.856289)","attributes":{"address":"Belgium","placename":"Belgium","title":"Belgian Business Intelligence Network [subgroup of Belgian IT Network]"}},{"local_stop_id":281,"id":281,"geometry":"POINT(-382490.764739 7435586.530983)","attributes":{"address":"United Kingdom","placename":"United Kingdom","title":"Daylight Business Intelligence & Data Warehousing Professionals"}},{"local_stop_id":280,"id":280,"geometry":"POINT(1163458.552333 6650655.041174)","attributes":{"address":"Germany","placename":"Germany","title":"SAP"}},{"local_stop_id":279,"id":279,"geometry":"POINT(-5780295.728898 -1601191.813438)","attributes":{"address":"Brazil","placename":"Brazil","title":"Miguel Carbone"}},{"local_stop_id":278,"id":278,"geometry":"POINT(-10654710.288472 4451692.554811)","attributes":{"address":"United States","placename":"United States","title":"Gregory C. Swanson"}},{"local_stop_id":277,"id":277,"geometry":"POINT(1619706.606045 6026746.974644)","attributes":{"address":"Austria","placename":"Austria","title":"Azure Deep Dive - HANDS ON Workshop (Wien, 08. - 09.02.2011)"}},{"local_stop_id":276,"id":276,"geometry":"POINT(1619706.606045 6026746.974644)","attributes":{"address":"Austria","placename":"Austria","title":"Cloud Computing mit Windows Azure - HANDS ON Workshop"}},{"local_stop_id":275,"id":275,"geometry":"POINT(11557171.277761 150527.162641)","attributes":{"address":"Singapore","placename":"Singapore","title":"Find out what's new in Microsoft SQL Server 2008"}},{"local_stop_id":274,"id":274,"geometry":"POINT(-382490.764739 7435586.530983)","attributes":{"address":"United Kingdom","placename":"United Kingdom","title":"Marlon Ribunal"}},{"local_stop_id":273,"id":273,"geometry":"POINT(-10654710.288472 4451692.554811)","attributes":{"address":"United States","placename":"United States","title":"Bally Social27"}},{"local_stop_id":272,"id":272,"geometry":"POINT(-382490.764739 7435586.530983)","attributes":{"address":"United Kingdom","placename":"United Kingdom","title":"Cloud Computing World Forum"}},{"local_stop_id":271,"id":271,"geometry":"POINT(-10654710.288472 4451692.554811)","attributes":{"address":"United States","placename":"United States","title":"Nicholas Weaver"}},{"local_stop_id":270,"id":270,"geometry":"POINT(-382490.764739 7435586.530983)","attributes":{"address":"United Kingdom","placename":"United Kingdom","title":"The Storage Architect"}},{"local_stop_id":269,"id":269,"geometry":"POINT(-11838468.395229 7584411.732747)","attributes":{"address":"Canada","placename":"Canada","title":"CComputing Eqentia"}},{"local_stop_id":268,"id":268,"geometry":"POINT(-10654710.288472 4451692.554811)","attributes":{"address":"United States","placename":"United States","title":"Jason Massie"}},{"local_stop_id":267,"id":267,"geometry":"POINT(-10654710.288472 4451692.554811)","attributes":{"address":"United States","placename":"United States","title":"Chris Havrilla"}},{"local_stop_id":266,"id":266,"geometry":"POINT(-382490.764739 7435586.530983)","attributes":{"address":"United Kingdom","placename":"United Kingdom","title":"Information Technology (IT) Managers & Professionals"}},{"local_stop_id":265,"id":265,"geometry":"POINT(-10654710.288472 4451692.554811)","attributes":{"address":"United States","placename":"United States","title":"Quest Software Inc. questsoftware's Channel"}},{"local_stop_id":264,"id":264,"geometry":"POINT(8595990.557556 3317524.080496)","attributes":{"address":"undefined","placename":"Dentistry Redefined, Khirki, Panchshila Park North, New Delhi, Delhi 110017, India","title":"Dataminers"}},{"local_stop_id":263,"id":263,"geometry":"POINT(8595990.557556 3317524.080496)","attributes":{"address":"undefined","placename":"Dentistry Redefined, Khirki, Panchshila Park North, New Delhi, Delhi 110017, India","title":"SQL Server 2005 Data Warehouse Best Practices"}},{"local_stop_id":262,"id":262,"geometry":"POINT(-10654710.288472 4451692.554811)","attributes":{"address":"United States","placename":"United States","title":"Linked DBA"}},{"local_stop_id":261,"id":261,"geometry":"POINT(915882.446336 5912448.054871)","attributes":{"address":"Switzerland","placename":"Switzerland","title":"triBLOG - home of the trivadians"}},{"local_stop_id":260,"id":260,"geometry":"POINT(915882.446336 5912448.054871)","attributes":{"address":"Switzerland","placename":"Switzerland","title":"Kai\u00a0Borgolte"}},{"local_stop_id":259,"id":259,"geometry":"POINT(915882.446336 5912448.054871)","attributes":{"address":"Switzerland","placename":"Switzerland","title":"Code Forum"}},{"local_stop_id":258,"id":258,"geometry":"POINT(915882.446336 5912448.054871)","attributes":{"address":"Switzerland","placename":"Switzerland","title":"Simon Krenger"}},{"local_stop_id":257,"id":257,"geometry":"POINT(1163458.552333 6650655.041174)","attributes":{"address":"Germany","placename":"Germany","title":"EMS Database Management Solutions blog"}},{"local_stop_id":256,"id":256,"geometry":"POINT(1163458.552333 6650655.041174)","attributes":{"address":"Germany","placename":"Germany","title":"Entwickler-Forum"}},{"local_stop_id":255,"id":255,"geometry":"POINT(1163458.552333 6650655.041174)","attributes":{"address":"Germany","placename":"Germany","title":"Oliver Jakoubek"}},{"local_stop_id":254,"id":254,"geometry":"POINT(1163458.552333 6650655.041174)","attributes":{"address":"Germany","placename":"Germany","title":"Online PC Magazin"}},{"local_stop_id":253,"id":253,"geometry":"POINT(1163458.552333 6650655.041174)","attributes":{"address":"Germany","placename":"Germany","title":"Angel on the web"}},{"local_stop_id":252,"id":252,"geometry":"POINT(1163458.552333 6650655.041174)","attributes":{"address":"Germany","placename":"Germany","title":"Forum Fachinformatiker.de > Datenbanken"}},{"local_stop_id":251,"id":251,"geometry":"POINT(0 -0)","attributes":{"title":"Datastage & Datawarehousing"}},{"local_stop_id":250,"id":250,"geometry":"POINT(-13595464.672485 6047948.062341)","attributes":{"address":"1 microsoft way, redmond WA 98052","placename":"157th Ave NE, WA, USA","title":"Microsoft"}},{"local_stop_id":249,"id":249,"geometry":"POINT(-417361.261272 4933551.652462)","attributes":{"address":"Spain","placename":"Spain","title":"Templarios de San Oracle"}},{"local_stop_id":248,"id":248,"geometry":"POINT(0 -0)","attributes":{"title":"LAOUC - Latin American Oracle Usergroups Council"}},{"local_stop_id":247,"id":247,"geometry":"POINT(0 -0)","attributes":{"title":"JDeveloperLA"}},{"local_stop_id":246,"id":246,"geometry":"POINT(-10654710.288472 4451692.554811)","attributes":{"address":"United States","placename":"United States","title":"Juan Camilo Ruiz"}},{"local_stop_id":245,"id":245,"geometry":"POINT(-11416123.694313 2708933.292233)","attributes":{"address":"Mexico","placename":"Mexico","title":"Comunidad Oracle Hispana"}},{"local_stop_id":244,"id":244,"geometry":"POINT(0 -0)","attributes":{"title":"Grupo de Usuarios de Aplicaciones de Oracle para Latinoam\u00e9rica"}},{"local_stop_id":243,"id":243,"geometry":"POINT(-11416123.694313 2708933.292233)","attributes":{"address":"Mexico","placename":"Mexico","title":"Comunidad SOA M\u00e9xico"}},{"local_stop_id":242,"id":242,"geometry":"POINT(-11416123.694313 2708933.292233)","attributes":{"address":"Mexico","placename":"Mexico","title":"Rolando Carrasco"}},{"local_stop_id":241,"id":241,"geometry":"POINT(-11416123.694313 2708933.292233)","attributes":{"address":"Mexico","placename":"Mexico","title":"Oracle Radio"}},{"local_stop_id":240,"id":240,"geometry":"POINT(-11416123.694313 2708933.292233)","attributes":{"address":"Mexico","placename":"Mexico","title":"Oracle Mania Latin America community"}},{"local_stop_id":239,"id":239,"geometry":"POINT(-11416123.694313 2708933.292233)","attributes":{"address":"Mexico","placename":"Mexico","title":"Grupo de Usuarios Oracle de Mexico (GUOM)"}},{"local_stop_id":238,"id":238,"geometry":"POINT(-11416123.694313 2708933.292233)","attributes":{"address":"Mexico","placename":"Mexico","title":"Grupo de Usuarios JDEdwards Mexico (GUJDEM)"}},{"local_stop_id":237,"id":237,"geometry":"POINT(-5780295.728898 -1601191.813438)","attributes":{"address":"Brazil","placename":"Brazil","title":"Grupo de Usuarios de Tecn. Oracle do Brasil (GUOB)"}},{"local_stop_id":236,"id":236,"geometry":"POINT(-5780295.728898 -1601191.813438)","attributes":{"address":"Brazil","placename":"Brazil","title":"Grupo de Usuarios de App. Oracle Brasil (ORAUG-BR)"}},{"local_stop_id":235,"id":235,"geometry":"POINT(0 -0)","attributes":{"title":"Oracle Community"}},{"local_stop_id":234,"id":234,"geometry":"POINT(-10654710.288472 4451692.554811)","attributes":{"address":"United States","placename":"United States","title":"John Spencer"}},{"local_stop_id":233,"id":233,"geometry":"POINT(-10654710.288472 4451692.554811)","attributes":{"address":"United States","placename":"United States","title":"Barbara Boehmer"}},{"local_stop_id":232,"id":232,"geometry":"POINT(-10654710.288472 4451692.554811)","attributes":{"address":"United States","placename":"United States","title":"Werner Puschitz"}},{"local_stop_id":231,"id":231,"geometry":"POINT(-10654710.288472 4451692.554811)","attributes":{"address":"United States","placename":"United States","title":"Vince Salvato"}},{"local_stop_id":230,"id":230,"geometry":"POINT(-10654710.288472 4451692.554811)","attributes":{"address":"United States","placename":"United States","title":"Tracy McMullen"}},{"local_stop_id":229,"id":229,"geometry":"POINT(-10654710.288472 4451692.554811)","attributes":{"address":"United States","placename":"United States","title":"Todd Sheetz"}},{"local_stop_id":228,"id":228,"geometry":"POINT(-10654710.288472 4451692.554811)","attributes":{"address":"United States","placename":"United States","title":"Todd Edge"}},{"local_stop_id":227,"id":227,"geometry":"POINT(-10654710.288472 4451692.554811)","attributes":{"address":"United States","placename":"United States","title":"Todd Barry"}},{"local_stop_id":226,"id":226,"geometry":"POINT(-10654710.288472 4451692.554811)","attributes":{"address":"United States","placename":"United States","title":"Tim Tow"}},{"local_stop_id":225,"id":225,"geometry":"POINT(-10654710.288472 4451692.554811)","attributes":{"address":"United States","placename":"United States","title":"Tim Gorman"}},{"local_stop_id":224,"id":224,"geometry":"POINT(-10654710.288472 4451692.554811)","attributes":{"address":"United States","placename":"United States","title":"Tariq Farooq"}},{"local_stop_id":223,"id":223,"geometry":"POINT(-10654710.288472 4451692.554811)","attributes":{"address":"United States","placename":"United States","title":"Sunil S. Ranka"}},{"local_stop_id":222,"id":222,"geometry":"POINT(-10654710.288472 4451692.554811)","attributes":{"address":"United States","placename":"United States","title":"Steven Feuerstein"}},{"local_stop_id":221,"id":221,"geometry":"POINT(-10654710.288472 4451692.554811)","attributes":{"address":"United States","placename":"United States","title":"Steve Romeo"}},{"local_stop_id":220,"id":220,"geometry":"POINT(-10654710.288472 4451692.554811)","attributes":{"address":"United States","placename":"United States","title":"Steve Karam"}},{"local_stop_id":219,"id":219,"geometry":"POINT(-10654710.288472 4451692.554811)","attributes":{"address":"United States","placename":"United States","title":"Srini Chavali"}},{"local_stop_id":218,"id":218,"geometry":"POINT(-10654710.288472 4451692.554811)","attributes":{"address":"United States","placename":"United States","title":"Sheeri Cabral"}},{"local_stop_id":217,"id":217,"geometry":"POINT(-10654710.288472 4451692.554811)","attributes":{"address":"United States","placename":"United States","title":"Scott Spendolini"}},{"local_stop_id":216,"id":216,"geometry":"POINT(-10654710.288472 4451692.554811)","attributes":{"address":"United States","placename":"United States","title":"Scott Spadafore"}},{"local_stop_id":215,"id":215,"geometry":"POINT(-10654710.288472 4451692.554811)","attributes":{"address":"United States","placename":"United States","title":"Sandra Vucinic"}},{"local_stop_id":214,"id":214,"geometry":"POINT(-10654710.288472 4451692.554811)","attributes":{"address":"United States","placename":"United States","title":"Ronald Bradford"}},{"local_stop_id":213,"id":213,"geometry":"POINT(-10654710.288472 4451692.554811)","attributes":{"address":"United States","placename":"United States","title":"Ron Hardman"}},{"local_stop_id":212,"id":212,"geometry":"POINT(-10654710.288472 4451692.554811)","attributes":{"address":"United States","placename":"United States","title":"Ron (Raman) Batra"}},{"local_stop_id":211,"id":211,"geometry":"POINT(-10654710.288472 4451692.554811)","attributes":{"address":"United States","placename":"United States","title":"Robert Freeman"}},{"local_stop_id":210,"id":210,"geometry":"POINT(-10654710.288472 4451692.554811)","attributes":{"address":"United States","placename":"United States","title":"Riyaj Shamsudeen"}},{"local_stop_id":209,"id":209,"geometry":"POINT(-10654710.288472 4451692.554811)","attributes":{"address":"United States","placename":"United States","title":"Richard Neimiec"}},{"local_stop_id":208,"id":208,"geometry":"POINT(-10654710.288472 4451692.554811)","attributes":{"address":"United States","placename":"United States","title":"Raymond R. Payne"}},{"local_stop_id":207,"id":207,"geometry":"POINT(-10654710.288472 4451692.554811)","attributes":{"address":"United States","placename":"United States","title":"Raj Mattamal"}},{"local_stop_id":206,"id":206,"geometry":"POINT(-10654710.288472 4451692.554811)","attributes":{"address":"United States","placename":"United States","title":"Peter Koletzke"}},{"local_stop_id":205,"id":205,"geometry":"POINT(-10654710.288472 4451692.554811)","attributes":{"address":"United States","placename":"United States","title":"Peter Fugere"}},{"local_stop_id":204,"id":204,"geometry":"POINT(-10654710.288472 4451692.554811)","attributes":{"address":"United States","placename":"United States","title":"Paul Dorsey"}},{"local_stop_id":203,"id":203,"geometry":"POINT(-10654710.288472 4451692.554811)","attributes":{"address":"United States","placename":"United States","title":"Patricia Dues"}},{"local_stop_id":202,"id":202,"geometry":"POINT(-10654710.288472 4451692.554811)","attributes":{"address":"United States","placename":"United States","title":"Nicholas Goodman"}},{"local_stop_id":201,"id":201,"geometry":"POINT(-10654710.288472 4451692.554811)","attributes":{"address":"United States","placename":"United States","title":"Mike Riley"}},{"local_stop_id":200,"id":200,"geometry":"POINT(-10654710.288472 4451692.554811)","attributes":{"address":"United States","placename":"United States","title":"Mike Ault"}},{"local_stop_id":199,"id":199,"geometry":"POINT(-10654710.288472 4451692.554811)","attributes":{"address":"United States","placename":"United States","title":"Michelle Malcher"}},{"local_stop_id":198,"id":198,"geometry":"POINT(-10654710.288472 4451692.554811)","attributes":{"address":"United States","placename":"United States","title":"Michael Taylor"}},{"local_stop_id":197,"id":197,"geometry":"POINT(-10654710.288472 4451692.554811)","attributes":{"address":"United States","placename":"United States","title":"Michael Rulf"}},{"local_stop_id":196,"id":196,"geometry":"POINT(-10654710.288472 4451692.554811)","attributes":{"address":"United States","placename":"United States","title":"Michael McLaughlin"}},{"local_stop_id":195,"id":195,"geometry":"POINT(-10654710.288472 4451692.554811)","attributes":{"address":"United States","placename":"United States","title":"Michael Fons"}},{"local_stop_id":194,"id":194,"geometry":"POINT(-10654710.288472 4451692.554811)","attributes":{"address":"United States","placename":"United States","title":"Michael Armstrong-Smith"}},{"local_stop_id":193,"id":193,"geometry":"POINT(-10654710.288472 4451692.554811)","attributes":{"address":"United States","placename":"United States","title":"Melanie Cameron"}},{"local_stop_id":192,"id":192,"geometry":"POINT(-10654710.288472 4451692.554811)","attributes":{"address":"United States","placename":"United States","title":"Mark Farnham"}},{"local_stop_id":191,"id":191,"geometry":"POINT(-10654710.288472 4451692.554811)","attributes":{"address":"United States","placename":"United States","title":"Mark Bobak"}},{"local_stop_id":190,"id":190,"geometry":"POINT(-10654710.288472 4451692.554811)","attributes":{"address":"United States","placename":"United States","title":"MK Rizwan"}},{"local_stop_id":189,"id":189,"geometry":"POINT(-10654710.288472 4451692.554811)","attributes":{"address":"United States","placename":"United States","title":"Lon White"}},{"local_stop_id":188,"id":188,"geometry":"POINT(-10654710.288472 4451692.554811)","attributes":{"address":"United States","placename":"United States","title":"Lewis Cunningham"}},{"local_stop_id":187,"id":187,"geometry":"POINT(-10654710.288472 4451692.554811)","attributes":{"address":"United States","placename":"United States","title":"Lee Kroon"}},{"local_stop_id":186,"id":186,"geometry":"POINT(-10654710.288472 4451692.554811)","attributes":{"address":"United States","placename":"United States","title":"Kimberly Floss"}},{"local_stop_id":185,"id":185,"geometry":"POINT(-10654710.288472 4451692.554811)","attributes":{"address":"United States","placename":"United States","title":"Kevin Creel"}},{"local_stop_id":184,"id":184,"geometry":"POINT(-10654710.288472 4451692.554811)","attributes":{"address":"United States","placename":"United States","title":"Kent Graziano"}},{"local_stop_id":183,"id":183,"geometry":"POINT(-10654710.288472 4451692.554811)","attributes":{"address":"United States","placename":"United States","title":"Karen Morton"}},{"local_stop_id":182,"id":182,"geometry":"POINT(-10654710.288472 4451692.554811)","attributes":{"address":"United States","placename":"United States","title":"Karen Brownfield"}},{"local_stop_id":181,"id":181,"geometry":"POINT(-10654710.288472 4451692.554811)","attributes":{"address":"United States","placename":"United States","title":"Kannan Mani"}},{"local_stop_id":180,"id":180,"geometry":"POINT(-10654710.288472 4451692.554811)","attributes":{"address":"United States","placename":"United States","title":"Kamal Kishore"}},{"local_stop_id":179,"id":179,"geometry":"POINT(-10654710.288472 4451692.554811)","attributes":{"address":"United States","placename":"United States","title":"Kai Yu"}},{"local_stop_id":178,"id":178,"geometry":"POINT(-10654710.288472 4451692.554811)","attributes":{"address":"United States","placename":"United States","title":"Justin Lokitz"}},{"local_stop_id":177,"id":177,"geometry":"POINT(-10654710.288472 4451692.554811)","attributes":{"address":"United States","placename":"United States","title":"Justin Cave"}},{"local_stop_id":176,"id":176,"geometry":"POINT(-10654710.288472 4451692.554811)","attributes":{"address":"United States","placename":"United States","title":"Judi Doolittle"}},{"local_stop_id":175,"id":175,"geometry":"POINT(-10654710.288472 4451692.554811)","attributes":{"address":"United States","placename":"United States","title":"Juan Carlos (John Charles) Olamendy"}},{"local_stop_id":174,"id":174,"geometry":"POINT(-10654710.288472 4451692.554811)","attributes":{"address":"United States","placename":"United States","title":"Jordan Braunstein"}},{"local_stop_id":173,"id":173,"geometry":"POINT(-10654710.288472 4451692.554811)","attributes":{"address":"United States","placename":"United States","title":"Jon Emmons"}},{"local_stop_id":172,"id":172,"geometry":"POINT(-10654710.288472 4451692.554811)","attributes":{"address":"United States","placename":"United States","title":"John Stouffer"}},{"local_stop_id":171,"id":171,"geometry":"POINT(-10654710.288472 4451692.554811)","attributes":{"address":"United States","placename":"United States","title":"John Stegeman"}},{"local_stop_id":170,"id":170,"geometry":"POINT(-10654710.288472 4451692.554811)","attributes":{"address":"United States","placename":"United States","title":"John Kanagaraj"}},{"local_stop_id":169,"id":169,"geometry":"POINT(-10654710.288472 4451692.554811)","attributes":{"address":"United States","placename":"United States","title":"John Flack"}},{"local_stop_id":168,"id":168,"geometry":"POINT(-10654710.288472 4451692.554811)","attributes":{"address":"United States","placename":"United States","title":"John King"}},{"local_stop_id":167,"id":167,"geometry":"POINT(-10654710.288472 4451692.554811)","attributes":{"address":"United States","placename":"United States","title":"Joan Lawson"}},{"local_stop_id":166,"id":166,"geometry":"POINT(-10654710.288472 4451692.554811)","attributes":{"address":"United States","placename":"United States","title":"Jesus Rodriguez"}},{"local_stop_id":165,"id":165,"geometry":"POINT(-10654710.288472 4451692.554811)","attributes":{"address":"United States","placename":"United States","title":"Jerry Ireland"}},{"local_stop_id":164,"id":164,"geometry":"POINT(-10654710.288472 4451692.554811)","attributes":{"address":"United States","placename":"United States","title":"Jeremy Schneider"}},{"local_stop_id":163,"id":163,"geometry":"POINT(-10654710.288472 4451692.554811)","attributes":{"address":"United States","placename":"United States","title":"Jeffrey M. Hunter"}},{"local_stop_id":162,"id":162,"geometry":"POINT(-10654710.288472 4451692.554811)","attributes":{"address":"United States","placename":"United States","title":"Jayaprakash Tedla"}},{"local_stop_id":161,"id":161,"geometry":"POINT(-10654710.288472 4451692.554811)","attributes":{"address":"United States","placename":"United States","title":"Jason Sharp"}},{"local_stop_id":160,"id":160,"geometry":"POINT(-10654710.288472 4451692.554811)","attributes":{"address":"United States","placename":"United States","title":"Jason Jones"}},{"local_stop_id":159,"id":159,"geometry":"POINT(-10654710.288472 4451692.554811)","attributes":{"address":"United States","placename":"United States","title":"Jared Still"}},{"local_stop_id":158,"id":158,"geometry":"POINT(-10654710.288472 4451692.554811)","attributes":{"address":"United States","placename":"United States","title":"Isaac P. Gresham"}},{"local_stop_id":157,"id":157,"geometry":"POINT(-10654710.288472 4451692.554811)","attributes":{"address":"United States","placename":"United States","title":"Iggy Fernandez"}},{"local_stop_id":156,"id":156,"geometry":"POINT(-10654710.288472 4451692.554811)","attributes":{"address":"United States","placename":"United States","title":"Glenn Schwartzberg"}},{"local_stop_id":155,"id":155,"geometry":"POINT(-10654710.288472 4451692.554811)","attributes":{"address":"United States","placename":"United States","title":"George J. Trujillo"}},{"local_stop_id":154,"id":154,"geometry":"POINT(-10654710.288472 4451692.554811)","attributes":{"address":"United States","placename":"United States","title":"Geoff Garcia"}},{"local_stop_id":153,"id":153,"geometry":"POINT(-10654710.288472 4451692.554811)","attributes":{"address":"United States","placename":"United States","title":"Gary Crisci"}},{"local_stop_id":152,"id":152,"geometry":"POINT(-10654710.288472 4451692.554811)","attributes":{"address":"United States","placename":"United States","title":"Floyd Teter"}},{"local_stop_id":151,"id":151,"geometry":"POINT(-10654710.288472 4451692.554811)","attributes":{"address":"United States","placename":"United States","title":"Eric Helmer"}},{"local_stop_id":150,"id":150,"geometry":"POINT(-10654710.288472 4451692.554811)","attributes":{"address":"United States","placename":"United States","title":"Elke Phelps"}},{"local_stop_id":149,"id":149,"geometry":"POINT(-10654710.288472 4451692.554811)","attributes":{"address":"United States","placename":"United States","title":"Edward Roske"}},{"local_stop_id":148,"id":148,"geometry":"POINT(-10654710.288472 4451692.554811)","attributes":{"address":"United States","placename":"United States","title":"Eddie Awad"}},{"local_stop_id":147,"id":147,"geometry":"POINT(-10654710.288472 4451692.554811)","attributes":{"address":"United States","placename":"United States","title":"Debu Panda"}},{"local_stop_id":146,"id":146,"geometry":"POINT(-10654710.288472 4451692.554811)","attributes":{"address":"United States","placename":"United States","title":"David Rudzinsky"}},{"local_stop_id":145,"id":145,"geometry":"POINT(-10654710.288472 4451692.554811)","attributes":{"address":"United States","placename":"United States","title":"David Browne"}},{"local_stop_id":144,"id":144,"geometry":"POINT(-10654710.288472 4451692.554811)","attributes":{"address":"United States","placename":"United States","title":"David Aldridge"}},{"local_stop_id":143,"id":143,"geometry":"POINT(-10654710.288472 4451692.554811)","attributes":{"address":"United States","placename":"United States","title":"Dave Moore"}},{"local_stop_id":142,"id":142,"geometry":"POINT(-10654710.288472 4451692.554811)","attributes":{"address":"United States","placename":"United States","title":"Daniel Morgan"}},{"local_stop_id":141,"id":141,"geometry":"POINT(-10654710.288472 4451692.554811)","attributes":{"address":"United States","placename":"United States","title":"Daniel Atwood"}},{"local_stop_id":140,"id":140,"geometry":"POINT(-10654710.288472 4451692.554811)","attributes":{"address":"United States","placename":"United States","title":"Dan Vlamis"}},{"local_stop_id":139,"id":139,"geometry":"POINT(-10654710.288472 4451692.554811)","attributes":{"address":"United States","placename":"United States","title":"Dan Hotka"}},{"local_stop_id":138,"id":138,"geometry":"POINT(-10654710.288472 4451692.554811)","attributes":{"address":"United States","placename":"United States","title":"Curt Smith"}},{"local_stop_id":137,"id":137,"geometry":"POINT(-10654710.288472 4451692.554811)","attributes":{"address":"United States","placename":"United States","title":"Craig Shallahamer"}},{"local_stop_id":136,"id":136,"geometry":"POINT(-10654710.288472 4451692.554811)","attributes":{"address":"United States","placename":"United States","title":"Christopher Lawson"}},{"local_stop_id":135,"id":135,"geometry":"POINT(-10654710.288472 4451692.554811)","attributes":{"address":"United States","placename":"United States","title":"Christopher Foot"}},{"local_stop_id":134,"id":134,"geometry":"POINT(-10654710.288472 4451692.554811)","attributes":{"address":"United States","placename":"United States","title":"Chris Ostrowski"}},{"local_stop_id":133,"id":133,"geometry":"POINT(-10654710.288472 4451692.554811)","attributes":{"address":"United States","placename":"United States","title":"Chris Judson"}},{"local_stop_id":132,"id":132,"geometry":"POINT(-10654710.288472 4451692.554811)","attributes":{"address":"United States","placename":"United States","title":"Chris Bucchere"}},{"local_stop_id":131,"id":131,"geometry":"POINT(-10654710.288472 4451692.554811)","attributes":{"address":"United States","placename":"United States","title":"Chris Barbieri"}},{"local_stop_id":130,"id":130,"geometry":"POINT(-10654710.288472 4451692.554811)","attributes":{"address":"United States","placename":"United States","title":"Chet Justice"}},{"local_stop_id":129,"id":129,"geometry":"POINT(-10654710.288472 4451692.554811)","attributes":{"address":"United States","placename":"United States","title":"Chen Shapira"}},{"local_stop_id":128,"id":128,"geometry":"POINT(-10654710.288472 4451692.554811)","attributes":{"address":"United States","placename":"United States","title":"Charles Kim"}},{"local_stop_id":127,"id":127,"geometry":"POINT(-10654710.288472 4451692.554811)","attributes":{"address":"United States","placename":"United States","title":"Cary Millsap"}},{"local_stop_id":126,"id":126,"geometry":"POINT(-10654710.288472 4451692.554811)","attributes":{"address":"United States","placename":"United States","title":"Cameron Lackpour"}},{"local_stop_id":125,"id":125,"geometry":"POINT(-10654710.288472 4451692.554811)","attributes":{"address":"United States","placename":"United States","title":"Brian Carr"}},{"local_stop_id":124,"id":124,"geometry":"POINT(-10654710.288472 4451692.554811)","attributes":{"address":"United States","placename":"United States","title":"Brian 'Bex' Huff"}},{"local_stop_id":123,"id":123,"geometry":"POINT(-10654710.288472 4451692.554811)","attributes":{"address":"United States","placename":"United States","title":"Bradley Brown"}},{"local_stop_id":122,"id":122,"geometry":"POINT(-10654710.288472 4451692.554811)","attributes":{"address":"United States","placename":"United States","title":"Billy Cripe"}},{"local_stop_id":121,"id":121,"geometry":"POINT(-10654710.288472 4451692.554811)","attributes":{"address":"United States","placename":"United States","title":"Bill Gfroehrer"}},{"local_stop_id":120,"id":120,"geometry":"POINT(-10654710.288472 4451692.554811)","attributes":{"address":"United States","placename":"United States","title":"Bill Field"}},{"local_stop_id":119,"id":119,"geometry":"POINT(-10654710.288472 4451692.554811)","attributes":{"address":"United States","placename":"United States","title":"Bill Burke"}},{"local_stop_id":118,"id":118,"geometry":"POINT(-10654710.288472 4451692.554811)","attributes":{"address":"United States","placename":"United States","title":"Bert Scalzo"}},{"local_stop_id":117,"id":117,"geometry":"POINT(-10654710.288472 4451692.554811)","attributes":{"address":"United States","placename":"United States","title":"Ben Prusinski"}},{"local_stop_id":116,"id":116,"geometry":"POINT(-10654710.288472 4451692.554811)","attributes":{"address":"United States","placename":"United States","title":"Basheer Khan"}},{"local_stop_id":115,"id":115,"geometry":"POINT(-10654710.288472 4451692.554811)","attributes":{"address":"United States","placename":"United States","title":"Avrom Roy-Faderman"}},{"local_stop_id":114,"id":114,"geometry":"POINT(-10654710.288472 4451692.554811)","attributes":{"address":"United States","placename":"United States","title":"Arup Nanda"}},{"local_stop_id":113,"id":113,"geometry":"POINT(-10654710.288472 4451692.554811)","attributes":{"address":"United States","placename":"United States","title":"Arun Kumar"}},{"local_stop_id":112,"id":112,"geometry":"POINT(-10654710.288472 4451692.554811)","attributes":{"address":"United States","placename":"United States","title":"Aris Prassinos"}},{"local_stop_id":111,"id":111,"geometry":"POINT(-10654710.288472 4451692.554811)","attributes":{"address":"United States","placename":"United States","title":"Anton Nielsen"}},{"local_stop_id":110,"id":110,"geometry":"POINT(-10654710.288472 4451692.554811)","attributes":{"address":"United States","placename":"United States","title":"Andy Jorgensen"}},{"local_stop_id":109,"id":109,"geometry":"POINT(-10654710.288472 4451692.554811)","attributes":{"address":"United States","placename":"United States","title":"Andrew Kerber"}},{"local_stop_id":108,"id":108,"geometry":"POINT(-10654710.288472 4451692.554811)","attributes":{"address":"United States","placename":"United States","title":"Anant Kadiyala"}},{"local_stop_id":107,"id":107,"geometry":"POINT(-10654710.288472 4451692.554811)","attributes":{"address":"United States","placename":"United States","title":"Ameed Taylor"}},{"local_stop_id":106,"id":106,"geometry":"POINT(-10654710.288472 4451692.554811)","attributes":{"address":"United States","placename":"United States","title":"Allen Jacot"}},{"local_stop_id":105,"id":105,"geometry":"POINT(-10654710.288472 4451692.554811)","attributes":{"address":"United States","placename":"United States","title":"Aleksandar Seovi\u0107"}},{"local_stop_id":104,"id":104,"geometry":"POINT(-10654710.288472 4451692.554811)","attributes":{"address":"United States","placename":"United States","title":"Ahmed Alomari"}},{"local_stop_id":103,"id":103,"geometry":"POINT(-382490.764739 7435586.530983)","attributes":{"address":"United Kingdom","placename":"United Kingdom","title":"John Goodwin"}},{"local_stop_id":102,"id":102,"geometry":"POINT(-382490.764739 7435586.530983)","attributes":{"address":"United Kingdom","placename":"United Kingdom","title":"Tim Warner"}},{"local_stop_id":101,"id":101,"geometry":"POINT(-382490.764739 7435586.530983)","attributes":{"address":"United Kingdom","placename":"United Kingdom","title":"Robert Geier"}},{"local_stop_id":100,"id":100,"geometry":"POINT(-382490.764739 7435586.530983)","attributes":{"address":"United Kingdom","placename":"United Kingdom","title":"Mike Killeen"}},{"local_stop_id":99,"id":99,"geometry":"POINT(-382490.764739 7435586.530983)","attributes":{"address":"United Kingdom","placename":"United Kingdom","title":"Bob Mycroft"}},{"local_stop_id":98,"id":98,"geometry":"POINT(-382490.764739 7435586.530983)","attributes":{"address":"United Kingdom","placename":"United Kingdom","title":"Debra Lilley"}},{"local_stop_id":97,"id":97,"geometry":"POINT(-382490.764739 7435586.530983)","attributes":{"address":"United Kingdom","placename":"United Kingdom","title":"David Kurtz"}},{"local_stop_id":96,"id":96,"geometry":"POINT(-382490.764739 7435586.530983)","attributes":{"address":"United Kingdom","placename":"United Kingdom","title":"Robert Varga"}},{"local_stop_id":95,"id":95,"geometry":"POINT(-382490.764739 7435586.530983)","attributes":{"address":"United Kingdom","placename":"United Kingdom","title":"Mark  Ramsay"}},{"local_stop_id":94,"id":94,"geometry":"POINT(-382490.764739 7435586.530983)","attributes":{"address":"United Kingdom","placename":"United Kingdom","title":"Jonathan  Lewis"}},{"local_stop_id":93,"id":93,"geometry":"POINT(-382490.764739 7435586.530983)","attributes":{"address":"United Kingdom","placename":"United Kingdom","title":"Julian Dyke"}},{"local_stop_id":92,"id":92,"geometry":"POINT(-382490.764739 7435586.530983)","attributes":{"address":"United Kingdom","placename":"United Kingdom","title":"James Morle"}},{"local_stop_id":91,"id":91,"geometry":"POINT(-382490.764739 7435586.530983)","attributes":{"address":"United Kingdom","placename":"United Kingdom","title":"Duncan Davies"}},{"local_stop_id":90,"id":90,"geometry":"POINT(-382490.764739 7435586.530983)","attributes":{"address":"United Kingdom","placename":"United Kingdom","title":"Simon Haslam"}},{"local_stop_id":89,"id":89,"geometry":"POINT(-382490.764739 7435586.530983)","attributes":{"address":"United Kingdom","placename":"United Kingdom","title":"William Robertson"}},{"local_stop_id":88,"id":88,"geometry":"POINT(-382490.764739 7435586.530983)","attributes":{"address":"United Kingdom","placename":"United Kingdom","title":"Adrian Billington"}},{"local_stop_id":87,"id":87,"geometry":"POINT(915882.446336 5912448.054871)","attributes":{"address":"Switzerland","placename":"Switzerland","title":"Laurent Schneider"}},{"local_stop_id":86,"id":86,"geometry":"POINT(915882.446336 5912448.054871)","attributes":{"address":"Switzerland","placename":"Switzerland","title":"Lutz Hartmann"}},{"local_stop_id":85,"id":85,"geometry":"POINT(915882.446336 5912448.054871)","attributes":{"address":"Switzerland","placename":"Switzerland","title":"Guido Schmutz"}},{"local_stop_id":84,"id":84,"geometry":"POINT(11557171.277761 150527.162641)","attributes":{"address":"Singapore","placename":"Singapore","title":"Hemant Chitale"}},{"local_stop_id":83,"id":83,"geometry":"POINT(942758.756276 8505587.038689)","attributes":{"address":"Norway","placename":"Norway","title":"Eirik Lygre"}},{"local_stop_id":82,"id":82,"geometry":"POINT(-10654710.288472 4451692.554811)","attributes":{"address":"United States","placename":"United States","title":"Francisco Munoz Alvarez"}},{"local_stop_id":81,"id":81,"geometry":"POINT(589021.036772 6824142.821624)","attributes":{"address":"Netherlands","placename":"The Netherlands","title":"Marco Gralike"}},{"local_stop_id":80,"id":80,"geometry":"POINT(589021.036772 6824142.821624)","attributes":{"address":"Netherlands","placename":"The Netherlands","title":"Lucas Jellema"}},{"local_stop_id":79,"id":79,"geometry":"POINT(589021.036772 6824142.821624)","attributes":{"address":"Netherlands","placename":"The Netherlands","title":"Alex Nuijten"}},{"local_stop_id":78,"id":78,"geometry":"POINT(589021.036772 6824142.821624)","attributes":{"address":"Netherlands","placename":"The Netherlands","title":"Andreas Chatziantoniou"}},{"local_stop_id":77,"id":77,"geometry":"POINT(589021.036772 6824142.821624)","attributes":{"address":"Netherlands","placename":"The Netherlands","title":"Ronald van Luttikhuizen"}},{"local_stop_id":76,"id":76,"geometry":"POINT(589021.036772 6824142.821624)","attributes":{"address":"Netherlands","placename":"The Netherlands","title":"Lonneke Dikmans"}},{"local_stop_id":75,"id":75,"geometry":"POINT(589021.036772 6824142.821624)","attributes":{"address":"Netherlands","placename":"The Netherlands","title":"Rob van Wijk"}},{"local_stop_id":74,"id":74,"geometry":"POINT(589021.036772 6824142.821624)","attributes":{"address":"Netherlands","placename":"The Netherlands","title":"Leon  Smiers"}},{"local_stop_id":73,"id":73,"geometry":"POINT(589021.036772 6824142.821624)","attributes":{"address":"Netherlands","placename":"The Netherlands","title":"Wilfred van der Deijl"}},{"local_stop_id":72,"id":72,"geometry":"POINT(589021.036772 6824142.821624)","attributes":{"address":"Netherlands","placename":"The Netherlands","title":"Anjo Kolk"}},{"local_stop_id":71,"id":71,"geometry":"POINT(589021.036772 6824142.821624)","attributes":{"address":"Netherlands","placename":"The Netherlands","title":"Eric Elzinga"}},{"local_stop_id":70,"id":70,"geometry":"POINT(589021.036772 6824142.821624)","attributes":{"address":"Netherlands","placename":"The Netherlands","title":"Mike van Alst"}},{"local_stop_id":69,"id":69,"geometry":"POINT(589021.036772 6824142.821624)","attributes":{"address":"Netherlands","placename":"The Netherlands","title":"Learco Brizzi"}},{"local_stop_id":68,"id":68,"geometry":"POINT(589021.036772 6824142.821624)","attributes":{"address":"Netherlands","placename":"The Netherlands","title":"Roel Hartman"}},{"local_stop_id":67,"id":67,"geometry":"POINT(589021.036772 6824142.821624)","attributes":{"address":"Netherlands","placename":"The Netherlands","title":"Toon Koppelaars"}},{"local_stop_id":66,"id":66,"geometry":"POINT(589021.036772 6824142.821624)","attributes":{"address":"Netherlands","placename":"The Netherlands","title":"Frits Hoogland"}},{"local_stop_id":65,"id":65,"geometry":"POINT(589021.036772 6824142.821624)","attributes":{"address":"Netherlands","placename":"The Netherlands","title":"Edwin Biemond"}},{"local_stop_id":64,"id":64,"geometry":"POINT(589021.036772 6824142.821624)","attributes":{"address":"Netherlands","placename":"The Netherlands","title":"Douwe Pieter  van den Bos"}},{"local_stop_id":63,"id":63,"geometry":"POINT(589021.036772 6824142.821624)","attributes":{"address":"Netherlands","placename":"The Netherlands","title":"Rob Zoeteweij"}},{"local_stop_id":62,"id":62,"geometry":"POINT(589021.036772 6824142.821624)","attributes":{"address":"Netherlands","placename":"The Netherlands","title":"Jacco Landlust"}},{"local_stop_id":61,"id":61,"geometry":"POINT(589021.036772 6824142.821624)","attributes":{"address":"Netherlands","placename":"The Netherlands","title":"Arno van der Kolk"}},{"local_stop_id":60,"id":60,"geometry":"POINT(-11416123.694313 2708933.292233)","attributes":{"address":"Mexico","placename":"Mexico","title":"Hector Rivera Madrid"}},{"local_stop_id":59,"id":59,"geometry":"POINT(1398994.342206 5141815.937641)","attributes":{"address":"Italy","placename":"Italy","title":"Paolo Marotti"}},{"local_stop_id":58,"id":58,"geometry":"POINT(-917705.636956 7059743.327002)","attributes":{"address":"Ireland","placename":"Ireland","title":"Marcin Przepiorowski"}},{"local_stop_id":57,"id":57,"geometry":"POINT(1163458.552333 6650655.041174)","attributes":{"address":"Germany","placename":"Germany","title":"Hajo Normann"}},{"local_stop_id":56,"id":56,"geometry":"POINT(1163458.552333 6650655.041174)","attributes":{"address":"Germany","placename":"Germany","title":"Markus Eisele"}},{"local_stop_id":55,"id":55,"geometry":"POINT(1163458.552333 6650655.041174)","attributes":{"address":"Germany","placename":"Germany","title":"Torsten Winterberg"}},{"local_stop_id":54,"id":54,"geometry":"POINT(1163458.552333 6650655.041174)","attributes":{"address":"Germany","placename":"Germany","title":"Bj\u00f6rn Br\u00f6hl"}},{"local_stop_id":53,"id":53,"geometry":"POINT(1163458.552333 6650655.041174)","attributes":{"address":"Germany","placename":"Germany","title":"Torsten Schlautmann"}},{"local_stop_id":52,"id":52,"geometry":"POINT(1163458.552333 6650655.041174)","attributes":{"address":"Germany","placename":"Germany","title":"Christian Trieb"}},{"local_stop_id":51,"id":51,"geometry":"POINT(1163458.552333 6650655.041174)","attributes":{"address":"Germany","placename":"Germany","title":"Paul McCullagh"}},{"local_stop_id":50,"id":50,"geometry":"POINT(1163458.552333 6650655.041174)","attributes":{"address":"Germany","placename":"Germany","title":"Randolf Geist"}},{"local_stop_id":49,"id":49,"geometry":"POINT(1163458.552333 6650655.041174)","attributes":{"address":"Germany","placename":"Germany","title":"Jens Petersen"}},{"local_stop_id":48,"id":48,"geometry":"POINT(1163458.552333 6650655.041174)","attributes":{"address":"Germany","placename":"Germany","title":"Denes Kubicek"}},{"local_stop_id":47,"id":47,"geometry":"POINT(246433.411424 5816903.713427)","attributes":{"address":"France","placename":"France","title":"Tugduall Grall"}},{"local_stop_id":46,"id":46,"geometry":"POINT(246433.411424 5816903.713427)","attributes":{"address":"France","placename":"France","title":"Nicolas Gasparotto"}},{"local_stop_id":45,"id":45,"geometry":"POINT(246433.411424 5816903.713427)","attributes":{"address":"France","placename":"France","title":"Julien Gabel"}},{"local_stop_id":44,"id":44,"geometry":"POINT(246433.411424 5816903.713427)","attributes":{"address":"France","placename":"France","title":"Fran\u00e7ois Degrelle"}},{"local_stop_id":43,"id":43,"geometry":"POINT(-382490.764739 7435586.530983)","attributes":{"address":"United Kingdom","placename":"United Kingdom","title":"John Scott"}},{"local_stop_id":42,"id":42,"geometry":"POINT(-382490.764739 7435586.530983)","attributes":{"address":"United Kingdom","placename":"United Kingdom","title":"Anil Passi"}},{"local_stop_id":41,"id":41,"geometry":"POINT(-382490.764739 7435586.530983)","attributes":{"address":"United Kingdom","placename":"United Kingdom","title":"Atul Kumar"}},{"local_stop_id":40,"id":40,"geometry":"POINT(-382490.764739 7435586.530983)","attributes":{"address":"United Kingdom","placename":"United Kingdom","title":"Mark Simpson"}},{"local_stop_id":39,"id":39,"geometry":"POINT(-382490.764739 7435586.530983)","attributes":{"address":"United Kingdom","placename":"United Kingdom","title":"Andrew Clarke"}},{"local_stop_id":38,"id":38,"geometry":"POINT(-382490.764739 7435586.530983)","attributes":{"address":"United Kingdom","placename":"United Kingdom","title":"Martin Bach"}},{"local_stop_id":37,"id":37,"geometry":"POINT(-382490.764739 7435586.530983)","attributes":{"address":"United Kingdom","placename":"United Kingdom","title":"Mark Rittman"}},{"local_stop_id":36,"id":36,"geometry":"POINT(-382490.764739 7435586.530983)","attributes":{"address":"United Kingdom","placename":"United Kingdom","title":"Carl Dudley"}},{"local_stop_id":35,"id":35,"geometry":"POINT(-382490.764739 7435586.530983)","attributes":{"address":"United Kingdom","placename":"United Kingdom","title":"Timothy S. Hall"}},{"local_stop_id":34,"id":34,"geometry":"POINT(-11838468.395229 7584411.732747)","attributes":{"address":"Canada","placename":"Canada","title":"Sue Shaw"}},{"local_stop_id":33,"id":33,"geometry":"POINT(-11838468.395229 7584411.732747)","attributes":{"address":"Canada","placename":"Canada","title":"Hans Forbrich"}},{"local_stop_id":32,"id":32,"geometry":"POINT(-11838468.395229 7584411.732747)","attributes":{"address":"Canada","placename":"Canada","title":"Deepak Vohra"}},{"local_stop_id":31,"id":31,"geometry":"POINT(-11838468.395229 7584411.732747)","attributes":{"address":"Canada","placename":"Canada","title":"Greg Rekounas"}},{"local_stop_id":30,"id":30,"geometry":"POINT(-11838468.395229 7584411.732747)","attributes":{"address":"Canada","placename":"Canada","title":"Christo Kutrovsky"}},{"local_stop_id":29,"id":29,"geometry":"POINT(-11838468.395229 7584411.732747)","attributes":{"address":"Canada","placename":"Canada","title":"Alex Gorbachev"}},{"local_stop_id":28,"id":28,"geometry":"POINT(-11838468.395229 7584411.732747)","attributes":{"address":"Canada","placename":"Canada","title":"Hussein Sawwan"}},{"local_stop_id":27,"id":27,"geometry":"POINT(-11838468.395229 7584411.732747)","attributes":{"address":"Canada","placename":"Canada","title":"Dmitri Khanine"}},{"local_stop_id":26,"id":26,"geometry":"POINT(-11838468.395229 7584411.732747)","attributes":{"address":"Canada","placename":"Canada","title":"Ian Abramson"}},{"local_stop_id":25,"id":25,"geometry":"POINT(-11838468.395229 7584411.732747)","attributes":{"address":"Canada","placename":"Canada","title":"John Spencer"}},{"local_stop_id":24,"id":24,"geometry":"POINT(-11838468.395229 7584411.732747)","attributes":{"address":"Canada","placename":"Canada","title":"Eric Marcoux"}},{"local_stop_id":23,"id":23,"geometry":"POINT(-11838468.395229 7584411.732747)","attributes":{"address":"Canada","placename":"Canada","title":"Alex Antonatos"}},{"local_stop_id":22,"id":22,"geometry":"POINT(-5780295.728898 -1601191.813438)","attributes":{"address":"Brazil","placename":"Brazil","title":"Rodrigo Mufalani"}},{"local_stop_id":21,"id":21,"geometry":"POINT(-5780295.728898 -1601191.813438)","attributes":{"address":"Brazil","placename":"Brazil","title":"Rodrigo Almeida"}},{"local_stop_id":20,"id":20,"geometry":"POINT(-5780295.728898 -1601191.813438)","attributes":{"address":"Brazil","placename":"Brazil","title":"Marcus Vinicius  Miguel Pedro"}},{"local_stop_id":19,"id":19,"geometry":"POINT(-5780295.728898 -1601191.813438)","attributes":{"address":"Brazil","placename":"Brazil","title":"Neto, Antonio Jose Rodrigues"}},{"local_stop_id":18,"id":18,"geometry":"POINT(-5780295.728898 -1601191.813438)","attributes":{"address":"Brazil","placename":"Brazil","title":"Ricardo Portilho Proni"}},{"local_stop_id":17,"id":17,"geometry":"POINT(497590.999399 6534001.856289)","attributes":{"address":"Belgium","placename":"Belgium","title":"Dmitri Gielis"}},{"local_stop_id":16,"id":16,"geometry":"POINT(497590.999399 6534001.856289)","attributes":{"address":"Belgium","placename":"Belgium","title":"Piet de Visser"}},{"local_stop_id":15,"id":15,"geometry":"POINT(497590.999399 6534001.856289)","attributes":{"address":"Belgium","placename":"Belgium","title":"Nathalie Roman"}},{"local_stop_id":14,"id":14,"geometry":"POINT(1619706.606045 6026746.974644)","attributes":{"address":"Austria","placename":"Austria","title":"Christian Pfundtner"}},{"local_stop_id":13,"id":13,"geometry":"POINT(14891780.020321 -2909486.054997)","attributes":{"address":"Australia","placename":"Australia","title":"Richard Foote"}},{"local_stop_id":12,"id":12,"geometry":"POINT(14891780.020321 -2909486.054997)","attributes":{"address":"Australia","placename":"Australia","title":"Steve Adams"}},{"local_stop_id":11,"id":11,"geometry":"POINT(14891780.020321 -2909486.054997)","attributes":{"address":"Australia","placename":"Australia","title":"Dennis Remmer"}},{"local_stop_id":10,"id":10,"geometry":"POINT(14891780.020321 -2909486.054997)","attributes":{"address":"Australia","placename":"Australia","title":"Marcelle Kratochvil"}},{"local_stop_id":9,"id":9,"geometry":"POINT(14891780.020321 -2909486.054997)","attributes":{"address":"Australia","placename":"Australia","title":"Guy Harrison"}},{"local_stop_id":8,"id":8,"geometry":"POINT(14891780.020321 -2909486.054997)","attributes":{"address":"Australia","placename":"Australia","title":"Penny Cookson"}},{"local_stop_id":7,"id":7,"geometry":"POINT(14891780.020321 -2909486.054997)","attributes":{"address":"Australia","placename":"Australia","title":"Chris Muir"}},{"local_stop_id":6,"id":6,"geometry":"POINT(14891780.020321 -2909486.054997)","attributes":{"address":"Australia","placename":"Australia","title":"Mark Lancaster"}},{"local_stop_id":5,"id":5,"geometry":"POINT(14891780.020321 -2909486.054997)","attributes":{"address":"Australia","placename":"Australia","title":"Tony Jambu"}},{"local_stop_id":4,"id":4,"geometry":"POINT(14891780.020321 -2909486.054997)","attributes":{"address":"Australia","placename":"Australia","title":"Martin Power"}},{"local_stop_id":3,"id":3,"geometry":"POINT(14891780.020321 -2909486.054997)","attributes":{"address":"Australia","placename":"Australia","title":"Connor McDonald"}},{"local_stop_id":2,"id":2,"geometry":"POINT(2553391.487988 -3575670.675527)","attributes":{"address":"South Africa","placename":"South Africa","title":"Billy Verreynne"}},{"local_stop_id":1,"id":1,"geometry":"POINT(-13610190.938679 4513243.448178)","attributes":{"address":"500 Oracle Parkway Redwood Shores, CA 94065","placename":"500 Oracle Pkwy, Redwood City, CA 94065, USA","title":"Oracle"}}],"hops":[{"from_stop_id":2,"to_stop_id":1,"geometry":"MULTILINESTRING((2553391.487988 -3575670.675527,-13610190.938679 4513243.448178))","attributes":{}},{"from_stop_id":3,"to_stop_id":1,"geometry":"MULTILINESTRING((14891780.020321 -2909486.054997,-13610190.938679 4513243.448178))","attributes":{}},{"from_stop_id":4,"to_stop_id":1,"geometry":"MULTILINESTRING((14891780.020321 -2909486.054997,-13610190.938679 4513243.448178))","attributes":{}},{"from_stop_id":5,"to_stop_id":1,"geometry":"MULTILINESTRING((14891780.020321 -2909486.054997,-13610190.938679 4513243.448178))","attributes":{}},{"from_stop_id":6,"to_stop_id":1,"geometry":"MULTILINESTRING((14891780.020321 -2909486.054997,-13610190.938679 4513243.448178))","attributes":{}},{"from_stop_id":7,"to_stop_id":1,"geometry":"MULTILINESTRING((14891780.020321 -2909486.054997,-13610190.938679 4513243.448178))","attributes":{}},{"from_stop_id":8,"to_stop_id":1,"geometry":"MULTILINESTRING((14891780.020321 -2909486.054997,-13610190.938679 4513243.448178))","attributes":{}},{"from_stop_id":9,"to_stop_id":1,"geometry":"MULTILINESTRING((14891780.020321 -2909486.054997,-13610190.938679 4513243.448178))","attributes":{}},{"from_stop_id":10,"to_stop_id":1,"geometry":"MULTILINESTRING((14891780.020321 -2909486.054997,-13610190.938679 4513243.448178))","attributes":{}},{"from_stop_id":11,"to_stop_id":1,"geometry":"MULTILINESTRING((14891780.020321 -2909486.054997,-13610190.938679 4513243.448178))","attributes":{}},{"from_stop_id":12,"to_stop_id":1,"geometry":"MULTILINESTRING((14891780.020321 -2909486.054997,-13610190.938679 4513243.448178))","attributes":{}},{"from_stop_id":13,"to_stop_id":1,"geometry":"MULTILINESTRING((14891780.020321 -2909486.054997,-13610190.938679 4513243.448178))","attributes":{}},{"from_stop_id":14,"to_stop_id":1,"geometry":"MULTILINESTRING((1619706.606045 6026746.974644,-13610190.938679 4513243.448178))","attributes":{}},{"from_stop_id":15,"to_stop_id":1,"geometry":"MULTILINESTRING((497590.999399 6534001.856289,-13610190.938679 4513243.448178))","attributes":{}},{"from_stop_id":16,"to_stop_id":1,"geometry":"MULTILINESTRING((497590.999399 6534001.856289,-13610190.938679 4513243.448178))","attributes":{}},{"from_stop_id":17,"to_stop_id":1,"geometry":"MULTILINESTRING((497590.999399 6534001.856289,-13610190.938679 4513243.448178))","attributes":{}},{"from_stop_id":18,"to_stop_id":1,"geometry":"MULTILINESTRING((-5780295.728898 -1601191.813438,-13610190.938679 4513243.448178))","attributes":{}},{"from_stop_id":19,"to_stop_id":1,"geometry":"MULTILINESTRING((-5780295.728898 -1601191.813438,-13610190.938679 4513243.448178))","attributes":{}},{"from_stop_id":20,"to_stop_id":1,"geometry":"MULTILINESTRING((-5780295.728898 -1601191.813438,-13610190.938679 4513243.448178))","attributes":{}},{"from_stop_id":21,"to_stop_id":1,"geometry":"MULTILINESTRING((-5780295.728898 -1601191.813438,-13610190.938679 4513243.448178))","attributes":{}},{"from_stop_id":22,"to_stop_id":1,"geometry":"MULTILINESTRING((-5780295.728898 -1601191.813438,-13610190.938679 4513243.448178))","attributes":{}},{"from_stop_id":23,"to_stop_id":1,"geometry":"MULTILINESTRING((-11838468.395229 7584411.732747,-13610190.938679 4513243.448178))","attributes":{}},{"from_stop_id":24,"to_stop_id":1,"geometry":"MULTILINESTRING((-11838468.395229 7584411.732747,-13610190.938679 4513243.448178))","attributes":{}},{"from_stop_id":25,"to_stop_id":1,"geometry":"MULTILINESTRING((-11838468.395229 7584411.732747,-13610190.938679 4513243.448178))","attributes":{}},{"from_stop_id":26,"to_stop_id":1,"geometry":"MULTILINESTRING((-11838468.395229 7584411.732747,-13610190.938679 4513243.448178))","attributes":{}},{"from_stop_id":27,"to_stop_id":1,"geometry":"MULTILINESTRING((-11838468.395229 7584411.732747,-13610190.938679 4513243.448178))","attributes":{}},{"from_stop_id":28,"to_stop_id":1,"geometry":"MULTILINESTRING((-11838468.395229 7584411.732747,-13610190.938679 4513243.448178))","attributes":{}},{"from_stop_id":29,"to_stop_id":1,"geometry":"MULTILINESTRING((-11838468.395229 7584411.732747,-13610190.938679 4513243.448178))","attributes":{}},{"from_stop_id":30,"to_stop_id":1,"geometry":"MULTILINESTRING((-11838468.395229 7584411.732747,-13610190.938679 4513243.448178))","attributes":{}},{"from_stop_id":31,"to_stop_id":1,"geometry":"MULTILINESTRING((-11838468.395229 7584411.732747,-13610190.938679 4513243.448178))","attributes":{}},{"from_stop_id":32,"to_stop_id":1,"geometry":"MULTILINESTRING((-11838468.395229 7584411.732747,-13610190.938679 4513243.448178))","attributes":{}},{"from_stop_id":33,"to_stop_id":1,"geometry":"MULTILINESTRING((-11838468.395229 7584411.732747,-13610190.938679 4513243.448178))","attributes":{}},{"from_stop_id":34,"to_stop_id":1,"geometry":"MULTILINESTRING((-11838468.395229 7584411.732747,-13610190.938679 4513243.448178))","attributes":{}},{"from_stop_id":35,"to_stop_id":1,"geometry":"MULTILINESTRING((-382490.764739 7435586.530983,-13610190.938679 4513243.448178))","attributes":{}},{"from_stop_id":36,"to_stop_id":1,"geometry":"MULTILINESTRING((-382490.764739 7435586.530983,-13610190.938679 4513243.448178))","attributes":{}},{"from_stop_id":37,"to_stop_id":1,"geometry":"MULTILINESTRING((-382490.764739 7435586.530983,-13610190.938679 4513243.448178))","attributes":{}},{"from_stop_id":38,"to_stop_id":1,"geometry":"MULTILINESTRING((-382490.764739 7435586.530983,-13610190.938679 4513243.448178))","attributes":{}},{"from_stop_id":39,"to_stop_id":1,"geometry":"MULTILINESTRING((-382490.764739 7435586.530983,-13610190.938679 4513243.448178))","attributes":{}},{"from_stop_id":40,"to_stop_id":1,"geometry":"MULTILINESTRING((-382490.764739 7435586.530983,-13610190.938679 4513243.448178))","attributes":{}},{"from_stop_id":41,"to_stop_id":1,"geometry":"MULTILINESTRING((-382490.764739 7435586.530983,-13610190.938679 4513243.448178))","attributes":{}},{"from_stop_id":42,"to_stop_id":1,"geometry":"MULTILINESTRING((-382490.764739 7435586.530983,-13610190.938679 4513243.448178))","attributes":{}},{"from_stop_id":43,"to_stop_id":1,"geometry":"MULTILINESTRING((-382490.764739 7435586.530983,-13610190.938679 4513243.448178))","attributes":{}},{"from_stop_id":44,"to_stop_id":1,"geometry":"MULTILINESTRING((246433.411424 5816903.713427,-13610190.938679 4513243.448178))","attributes":{}},{"from_stop_id":45,"to_stop_id":1,"geometry":"MULTILINESTRING((246433.411424 5816903.713427,-13610190.938679 4513243.448178))","attributes":{}},{"from_stop_id":46,"to_stop_id":1,"geometry":"MULTILINESTRING((246433.411424 5816903.713427,-13610190.938679 4513243.448178))","attributes":{}},{"from_stop_id":47,"to_stop_id":1,"geometry":"MULTILINESTRING((246433.411424 5816903.713427,-13610190.938679 4513243.448178))","attributes":{}},{"from_stop_id":48,"to_stop_id":1,"geometry":"MULTILINESTRING((1163458.552333 6650655.041174,-13610190.938679 4513243.448178))","attributes":{}},{"from_stop_id":49,"to_stop_id":1,"geometry":"MULTILINESTRING((1163458.552333 6650655.041174,-13610190.938679 4513243.448178))","attributes":{}},{"from_stop_id":50,"to_stop_id":1,"geometry":"MULTILINESTRING((1163458.552333 6650655.041174,-13610190.938679 4513243.448178))","attributes":{}},{"from_stop_id":51,"to_stop_id":1,"geometry":"MULTILINESTRING((1163458.552333 6650655.041174,-13610190.938679 4513243.448178))","attributes":{}},{"from_stop_id":52,"to_stop_id":1,"geometry":"MULTILINESTRING((1163458.552333 6650655.041174,-13610190.938679 4513243.448178))","attributes":{}},{"from_stop_id":53,"to_stop_id":1,"geometry":"MULTILINESTRING((1163458.552333 6650655.041174,-13610190.938679 4513243.448178))","attributes":{}},{"from_stop_id":54,"to_stop_id":1,"geometry":"MULTILINESTRING((1163458.552333 6650655.041174,-13610190.938679 4513243.448178))","attributes":{}},{"from_stop_id":55,"to_stop_id":1,"geometry":"MULTILINESTRING((1163458.552333 6650655.041174,-13610190.938679 4513243.448178))","attributes":{}},{"from_stop_id":56,"to_stop_id":1,"geometry":"MULTILINESTRING((1163458.552333 6650655.041174,-13610190.938679 4513243.448178))","attributes":{}},{"from_stop_id":57,"to_stop_id":1,"geometry":"MULTILINESTRING((1163458.552333 6650655.041174,-13610190.938679 4513243.448178))","attributes":{}},{"from_stop_id":58,"to_stop_id":1,"geometry":"MULTILINESTRING((-917705.636956 7059743.327002,-13610190.938679 4513243.448178))","attributes":{}},{"from_stop_id":59,"to_stop_id":1,"geometry":"MULTILINESTRING((1398994.342206 5141815.937641,-13610190.938679 4513243.448178))","attributes":{}},{"from_stop_id":60,"to_stop_id":1,"geometry":"MULTILINESTRING((-11416123.694313 2708933.292233,-13610190.938679 4513243.448178))","attributes":{}},{"from_stop_id":61,"to_stop_id":1,"geometry":"MULTILINESTRING((589021.036772 6824142.821624,-13610190.938679 4513243.448178))","attributes":{}},{"from_stop_id":62,"to_stop_id":1,"geometry":"MULTILINESTRING((589021.036772 6824142.821624,-13610190.938679 4513243.448178))","attributes":{}},{"from_stop_id":63,"to_stop_id":1,"geometry":"MULTILINESTRING((589021.036772 6824142.821624,-13610190.938679 4513243.448178))","attributes":{}},{"from_stop_id":64,"to_stop_id":1,"geometry":"MULTILINESTRING((589021.036772 6824142.821624,-13610190.938679 4513243.448178))","attributes":{}},{"from_stop_id":65,"to_stop_id":1,"geometry":"MULTILINESTRING((589021.036772 6824142.821624,-13610190.938679 4513243.448178))","attributes":{}},{"from_stop_id":66,"to_stop_id":1,"geometry":"MULTILINESTRING((589021.036772 6824142.821624,-13610190.938679 4513243.448178))","attributes":{}},{"from_stop_id":67,"to_stop_id":1,"geometry":"MULTILINESTRING((589021.036772 6824142.821624,-13610190.938679 4513243.448178))","attributes":{}},{"from_stop_id":68,"to_stop_id":1,"geometry":"MULTILINESTRING((589021.036772 6824142.821624,-13610190.938679 4513243.448178))","attributes":{}},{"from_stop_id":69,"to_stop_id":1,"geometry":"MULTILINESTRING((589021.036772 6824142.821624,-13610190.938679 4513243.448178))","attributes":{}},{"from_stop_id":70,"to_stop_id":1,"geometry":"MULTILINESTRING((589021.036772 6824142.821624,-13610190.938679 4513243.448178))","attributes":{}},{"from_stop_id":71,"to_stop_id":1,"geometry":"MULTILINESTRING((589021.036772 6824142.821624,-13610190.938679 4513243.448178))","attributes":{}},{"from_stop_id":72,"to_stop_id":1,"geometry":"MULTILINESTRING((589021.036772 6824142.821624,-13610190.938679 4513243.448178))","attributes":{}},{"from_stop_id":73,"to_stop_id":1,"geometry":"MULTILINESTRING((589021.036772 6824142.821624,-13610190.938679 4513243.448178))","attributes":{}},{"from_stop_id":74,"to_stop_id":1,"geometry":"MULTILINESTRING((589021.036772 6824142.821624,-13610190.938679 4513243.448178))","attributes":{}},{"from_stop_id":75,"to_stop_id":1,"geometry":"MULTILINESTRING((589021.036772 6824142.821624,-13610190.938679 4513243.448178))","attributes":{}},{"from_stop_id":76,"to_stop_id":1,"geometry":"MULTILINESTRING((589021.036772 6824142.821624,-13610190.938679 4513243.448178))","attributes":{}},{"from_stop_id":77,"to_stop_id":1,"geometry":"MULTILINESTRING((589021.036772 6824142.821624,-13610190.938679 4513243.448178))","attributes":{}},{"from_stop_id":78,"to_stop_id":1,"geometry":"MULTILINESTRING((589021.036772 6824142.821624,-13610190.938679 4513243.448178))","attributes":{}},{"from_stop_id":79,"to_stop_id":1,"geometry":"MULTILINESTRING((589021.036772 6824142.821624,-13610190.938679 4513243.448178))","attributes":{}},{"from_stop_id":80,"to_stop_id":1,"geometry":"MULTILINESTRING((589021.036772 6824142.821624,-13610190.938679 4513243.448178))","attributes":{}},{"from_stop_id":81,"to_stop_id":1,"geometry":"MULTILINESTRING((589021.036772 6824142.821624,-13610190.938679 4513243.448178))","attributes":{}},{"from_stop_id":82,"to_stop_id":1,"geometry":"MULTILINESTRING((-10654710.288472 4451692.554811,-13610190.938679 4513243.448178))","attributes":{}},{"from_stop_id":83,"to_stop_id":1,"geometry":"MULTILINESTRING((942758.756276 8505587.038689,-13610190.938679 4513243.448178))","attributes":{}},{"from_stop_id":84,"to_stop_id":1,"geometry":"MULTILINESTRING((11557171.277761 150527.162641,-13610190.938679 4513243.448178))","attributes":{}},{"from_stop_id":85,"to_stop_id":1,"geometry":"MULTILINESTRING((915882.446336 5912448.054871,-13610190.938679 4513243.448178))","attributes":{}},{"from_stop_id":86,"to_stop_id":1,"geometry":"MULTILINESTRING((915882.446336 5912448.054871,-13610190.938679 4513243.448178))","attributes":{}},{"from_stop_id":87,"to_stop_id":1,"geometry":"MULTILINESTRING((915882.446336 5912448.054871,-13610190.938679 4513243.448178))","attributes":{}},{"from_stop_id":88,"to_stop_id":1,"geometry":"MULTILINESTRING((-382490.764739 7435586.530983,-13610190.938679 4513243.448178))","attributes":{}},{"from_stop_id":89,"to_stop_id":1,"geometry":"MULTILINESTRING((-382490.764739 7435586.530983,-13610190.938679 4513243.448178))","attributes":{}},{"from_stop_id":90,"to_stop_id":1,"geometry":"MULTILINESTRING((-382490.764739 7435586.530983,-13610190.938679 4513243.448178))","attributes":{}},{"from_stop_id":91,"to_stop_id":1,"geometry":"MULTILINESTRING((-382490.764739 7435586.530983,-13610190.938679 4513243.448178))","attributes":{}},{"from_stop_id":92,"to_stop_id":1,"geometry":"MULTILINESTRING((-382490.764739 7435586.530983,-13610190.938679 4513243.448178))","attributes":{}},{"from_stop_id":93,"to_stop_id":1,"geometry":"MULTILINESTRING((-382490.764739 7435586.530983,-13610190.938679 4513243.448178))","attributes":{}},{"from_stop_id":94,"to_stop_id":1,"geometry":"MULTILINESTRING((-382490.764739 7435586.530983,-13610190.938679 4513243.448178))","attributes":{}},{"from_stop_id":95,"to_stop_id":1,"geometry":"MULTILINESTRING((-382490.764739 7435586.530983,-13610190.938679 4513243.448178))","attributes":{}},{"from_stop_id":96,"to_stop_id":1,"geometry":"MULTILINESTRING((-382490.764739 7435586.530983,-13610190.938679 4513243.448178))","attributes":{}},{"from_stop_id":97,"to_stop_id":1,"geometry":"MULTILINESTRING((-382490.764739 7435586.530983,-13610190.938679 4513243.448178))","attributes":{}},{"from_stop_id":98,"to_stop_id":1,"geometry":"MULTILINESTRING((-382490.764739 7435586.530983,-13610190.938679 4513243.448178))","attributes":{}},{"from_stop_id":99,"to_stop_id":1,"geometry":"MULTILINESTRING((-382490.764739 7435586.530983,-13610190.938679 4513243.448178))","attributes":{}},{"from_stop_id":100,"to_stop_id":1,"geometry":"MULTILINESTRING((-382490.764739 7435586.530983,-13610190.938679 4513243.448178))","attributes":{}},{"from_stop_id":101,"to_stop_id":1,"geometry":"MULTILINESTRING((-382490.764739 7435586.530983,-13610190.938679 4513243.448178))","attributes":{}},{"from_stop_id":102,"to_stop_id":1,"geometry":"MULTILINESTRING((-382490.764739 7435586.530983,-13610190.938679 4513243.448178))","attributes":{}},{"from_stop_id":103,"to_stop_id":1,"geometry":"MULTILINESTRING((-382490.764739 7435586.530983,-13610190.938679 4513243.448178))","attributes":{}},{"from_stop_id":104,"to_stop_id":1,"geometry":"MULTILINESTRING((-10654710.288472 4451692.554811,-13610190.938679 4513243.448178))","attributes":{}},{"from_stop_id":105,"to_stop_id":1,"geometry":"MULTILINESTRING((-10654710.288472 4451692.554811,-13610190.938679 4513243.448178))","attributes":{}},{"from_stop_id":106,"to_stop_id":1,"geometry":"MULTILINESTRING((-10654710.288472 4451692.554811,-13610190.938679 4513243.448178))","attributes":{}},{"from_stop_id":107,"to_stop_id":1,"geometry":"MULTILINESTRING((-10654710.288472 4451692.554811,-13610190.938679 4513243.448178))","attributes":{}},{"from_stop_id":108,"to_stop_id":1,"geometry":"MULTILINESTRING((-10654710.288472 4451692.554811,-13610190.938679 4513243.448178))","attributes":{}},{"from_stop_id":109,"to_stop_id":1,"geometry":"MULTILINESTRING((-10654710.288472 4451692.554811,-13610190.938679 4513243.448178))","attributes":{}},{"from_stop_id":110,"to_stop_id":1,"geometry":"MULTILINESTRING((-10654710.288472 4451692.554811,-13610190.938679 4513243.448178))","attributes":{}},{"from_stop_id":111,"to_stop_id":1,"geometry":"MULTILINESTRING((-10654710.288472 4451692.554811,-13610190.938679 4513243.448178))","attributes":{}},{"from_stop_id":112,"to_stop_id":1,"geometry":"MULTILINESTRING((-10654710.288472 4451692.554811,-13610190.938679 4513243.448178))","attributes":{}},{"from_stop_id":113,"to_stop_id":1,"geometry":"MULTILINESTRING((-10654710.288472 4451692.554811,-13610190.938679 4513243.448178))","attributes":{}},{"from_stop_id":114,"to_stop_id":1,"geometry":"MULTILINESTRING((-10654710.288472 4451692.554811,-13610190.938679 4513243.448178))","attributes":{}},{"from_stop_id":115,"to_stop_id":1,"geometry":"MULTILINESTRING((-10654710.288472 4451692.554811,-13610190.938679 4513243.448178))","attributes":{}},{"from_stop_id":116,"to_stop_id":1,"geometry":"MULTILINESTRING((-10654710.288472 4451692.554811,-13610190.938679 4513243.448178))","attributes":{}},{"from_stop_id":117,"to_stop_id":1,"geometry":"MULTILINESTRING((-10654710.288472 4451692.554811,-13610190.938679 4513243.448178))","attributes":{}},{"from_stop_id":118,"to_stop_id":1,"geometry":"MULTILINESTRING((-10654710.288472 4451692.554811,-13610190.938679 4513243.448178))","attributes":{}},{"from_stop_id":119,"to_stop_id":1,"geometry":"MULTILINESTRING((-10654710.288472 4451692.554811,-13610190.938679 4513243.448178))","attributes":{}},{"from_stop_id":120,"to_stop_id":1,"geometry":"MULTILINESTRING((-10654710.288472 4451692.554811,-13610190.938679 4513243.448178))","attributes":{}},{"from_stop_id":121,"to_stop_id":1,"geometry":"MULTILINESTRING((-10654710.288472 4451692.554811,-13610190.938679 4513243.448178))","attributes":{}},{"from_stop_id":122,"to_stop_id":1,"geometry":"MULTILINESTRING((-10654710.288472 4451692.554811,-13610190.938679 4513243.448178))","attributes":{}},{"from_stop_id":123,"to_stop_id":1,"geometry":"MULTILINESTRING((-10654710.288472 4451692.554811,-13610190.938679 4513243.448178))","attributes":{}},{"from_stop_id":124,"to_stop_id":1,"geometry":"MULTILINESTRING((-10654710.288472 4451692.554811,-13610190.938679 4513243.448178))","attributes":{}},{"from_stop_id":125,"to_stop_id":1,"geometry":"MULTILINESTRING((-10654710.288472 4451692.554811,-13610190.938679 4513243.448178))","attributes":{}},{"from_stop_id":126,"to_stop_id":1,"geometry":"MULTILINESTRING((-10654710.288472 4451692.554811,-13610190.938679 4513243.448178))","attributes":{}},{"from_stop_id":127,"to_stop_id":1,"geometry":"MULTILINESTRING((-10654710.288472 4451692.554811,-13610190.938679 4513243.448178))","attributes":{}},{"from_stop_id":128,"to_stop_id":1,"geometry":"MULTILINESTRING((-10654710.288472 4451692.554811,-13610190.938679 4513243.448178))","attributes":{}},{"from_stop_id":129,"to_stop_id":1,"geometry":"MULTILINESTRING((-10654710.288472 4451692.554811,-13610190.938679 4513243.448178))","attributes":{}},{"from_stop_id":130,"to_stop_id":1,"geometry":"MULTILINESTRING((-10654710.288472 4451692.554811,-13610190.938679 4513243.448178))","attributes":{}},{"from_stop_id":131,"to_stop_id":1,"geometry":"MULTILINESTRING((-10654710.288472 4451692.554811,-13610190.938679 4513243.448178))","attributes":{}},{"from_stop_id":132,"to_stop_id":1,"geometry":"MULTILINESTRING((-10654710.288472 4451692.554811,-13610190.938679 4513243.448178))","attributes":{}},{"from_stop_id":133,"to_stop_id":1,"geometry":"MULTILINESTRING((-10654710.288472 4451692.554811,-13610190.938679 4513243.448178))","attributes":{}},{"from_stop_id":134,"to_stop_id":1,"geometry":"MULTILINESTRING((-10654710.288472 4451692.554811,-13610190.938679 4513243.448178))","attributes":{}},{"from_stop_id":135,"to_stop_id":1,"geometry":"MULTILINESTRING((-10654710.288472 4451692.554811,-13610190.938679 4513243.448178))","attributes":{}},{"from_stop_id":136,"to_stop_id":1,"geometry":"MULTILINESTRING((-10654710.288472 4451692.554811,-13610190.938679 4513243.448178))","attributes":{}},{"from_stop_id":137,"to_stop_id":1,"geometry":"MULTILINESTRING((-10654710.288472 4451692.554811,-13610190.938679 4513243.448178))","attributes":{}},{"from_stop_id":138,"to_stop_id":1,"geometry":"MULTILINESTRING((-10654710.288472 4451692.554811,-13610190.938679 4513243.448178))","attributes":{}},{"from_stop_id":139,"to_stop_id":1,"geometry":"MULTILINESTRING((-10654710.288472 4451692.554811,-13610190.938679 4513243.448178))","attributes":{}},{"from_stop_id":140,"to_stop_id":1,"geometry":"MULTILINESTRING((-10654710.288472 4451692.554811,-13610190.938679 4513243.448178))","attributes":{}},{"from_stop_id":141,"to_stop_id":1,"geometry":"MULTILINESTRING((-10654710.288472 4451692.554811,-13610190.938679 4513243.448178))","attributes":{}},{"from_stop_id":142,"to_stop_id":1,"geometry":"MULTILINESTRING((-10654710.288472 4451692.554811,-13610190.938679 4513243.448178))","attributes":{}},{"from_stop_id":143,"to_stop_id":1,"geometry":"MULTILINESTRING((-10654710.288472 4451692.554811,-13610190.938679 4513243.448178))","attributes":{}},{"from_stop_id":144,"to_stop_id":1,"geometry":"MULTILINESTRING((-10654710.288472 4451692.554811,-13610190.938679 4513243.448178))","attributes":{}},{"from_stop_id":145,"to_stop_id":1,"geometry":"MULTILINESTRING((-10654710.288472 4451692.554811,-13610190.938679 4513243.448178))","attributes":{}},{"from_stop_id":146,"to_stop_id":1,"geometry":"MULTILINESTRING((-10654710.288472 4451692.554811,-13610190.938679 4513243.448178))","attributes":{}},{"from_stop_id":147,"to_stop_id":1,"geometry":"MULTILINESTRING((-10654710.288472 4451692.554811,-13610190.938679 4513243.448178))","attributes":{}},{"from_stop_id":148,"to_stop_id":1,"geometry":"MULTILINESTRING((-10654710.288472 4451692.554811,-13610190.938679 4513243.448178))","attributes":{}},{"from_stop_id":149,"to_stop_id":1,"geometry":"MULTILINESTRING((-10654710.288472 4451692.554811,-13610190.938679 4513243.448178))","attributes":{}},{"from_stop_id":150,"to_stop_id":1,"geometry":"MULTILINESTRING((-10654710.288472 4451692.554811,-13610190.938679 4513243.448178))","attributes":{}},{"from_stop_id":151,"to_stop_id":1,"geometry":"MULTILINESTRING((-10654710.288472 4451692.554811,-13610190.938679 4513243.448178))","attributes":{}},{"from_stop_id":152,"to_stop_id":1,"geometry":"MULTILINESTRING((-10654710.288472 4451692.554811,-13610190.938679 4513243.448178))","attributes":{}},{"from_stop_id":153,"to_stop_id":1,"geometry":"MULTILINESTRING((-10654710.288472 4451692.554811,-13610190.938679 4513243.448178))","attributes":{}},{"from_stop_id":154,"to_stop_id":1,"geometry":"MULTILINESTRING((-10654710.288472 4451692.554811,-13610190.938679 4513243.448178))","attributes":{}},{"from_stop_id":155,"to_stop_id":1,"geometry":"MULTILINESTRING((-10654710.288472 4451692.554811,-13610190.938679 4513243.448178))","attributes":{}},{"from_stop_id":156,"to_stop_id":1,"geometry":"MULTILINESTRING((-10654710.288472 4451692.554811,-13610190.938679 4513243.448178))","attributes":{}},{"from_stop_id":157,"to_stop_id":1,"geometry":"MULTILINESTRING((-10654710.288472 4451692.554811,-13610190.938679 4513243.448178))","attributes":{}},{"from_stop_id":158,"to_stop_id":1,"geometry":"MULTILINESTRING((-10654710.288472 4451692.554811,-13610190.938679 4513243.448178))","attributes":{}},{"from_stop_id":159,"to_stop_id":1,"geometry":"MULTILINESTRING((-10654710.288472 4451692.554811,-13610190.938679 4513243.448178))","attributes":{}},{"from_stop_id":160,"to_stop_id":1,"geometry":"MULTILINESTRING((-10654710.288472 4451692.554811,-13610190.938679 4513243.448178))","attributes":{}},{"from_stop_id":161,"to_stop_id":1,"geometry":"MULTILINESTRING((-10654710.288472 4451692.554811,-13610190.938679 4513243.448178))","attributes":{}},{"from_stop_id":162,"to_stop_id":1,"geometry":"MULTILINESTRING((-10654710.288472 4451692.554811,-13610190.938679 4513243.448178))","attributes":{}},{"from_stop_id":163,"to_stop_id":1,"geometry":"MULTILINESTRING((-10654710.288472 4451692.554811,-13610190.938679 4513243.448178))","attributes":{}},{"from_stop_id":164,"to_stop_id":1,"geometry":"MULTILINESTRING((-10654710.288472 4451692.554811,-13610190.938679 4513243.448178))","attributes":{}},{"from_stop_id":165,"to_stop_id":1,"geometry":"MULTILINESTRING((-10654710.288472 4451692.554811,-13610190.938679 4513243.448178))","attributes":{}},{"from_stop_id":166,"to_stop_id":1,"geometry":"MULTILINESTRING((-10654710.288472 4451692.554811,-13610190.938679 4513243.448178))","attributes":{}},{"from_stop_id":167,"to_stop_id":1,"geometry":"MULTILINESTRING((-10654710.288472 4451692.554811,-13610190.938679 4513243.448178))","attributes":{}},{"from_stop_id":168,"to_stop_id":1,"geometry":"MULTILINESTRING((-10654710.288472 4451692.554811,-13610190.938679 4513243.448178))","attributes":{}},{"from_stop_id":169,"to_stop_id":1,"geometry":"MULTILINESTRING((-10654710.288472 4451692.554811,-13610190.938679 4513243.448178))","attributes":{}},{"from_stop_id":170,"to_stop_id":1,"geometry":"MULTILINESTRING((-10654710.288472 4451692.554811,-13610190.938679 4513243.448178))","attributes":{}},{"from_stop_id":171,"to_stop_id":1,"geometry":"MULTILINESTRING((-10654710.288472 4451692.554811,-13610190.938679 4513243.448178))","attributes":{}},{"from_stop_id":172,"to_stop_id":1,"geometry":"MULTILINESTRING((-10654710.288472 4451692.554811,-13610190.938679 4513243.448178))","attributes":{}},{"from_stop_id":173,"to_stop_id":1,"geometry":"MULTILINESTRING((-10654710.288472 4451692.554811,-13610190.938679 4513243.448178))","attributes":{}},{"from_stop_id":174,"to_stop_id":1,"geometry":"MULTILINESTRING((-10654710.288472 4451692.554811,-13610190.938679 4513243.448178))","attributes":{}},{"from_stop_id":175,"to_stop_id":1,"geometry":"MULTILINESTRING((-10654710.288472 4451692.554811,-13610190.938679 4513243.448178))","attributes":{}},{"from_stop_id":176,"to_stop_id":1,"geometry":"MULTILINESTRING((-10654710.288472 4451692.554811,-13610190.938679 4513243.448178))","attributes":{}},{"from_stop_id":177,"to_stop_id":1,"geometry":"MULTILINESTRING((-10654710.288472 4451692.554811,-13610190.938679 4513243.448178))","attributes":{}},{"from_stop_id":178,"to_stop_id":1,"geometry":"MULTILINESTRING((-10654710.288472 4451692.554811,-13610190.938679 4513243.448178))","attributes":{}},{"from_stop_id":179,"to_stop_id":1,"geometry":"MULTILINESTRING((-10654710.288472 4451692.554811,-13610190.938679 4513243.448178))","attributes":{}},{"from_stop_id":180,"to_stop_id":1,"geometry":"MULTILINESTRING((-10654710.288472 4451692.554811,-13610190.938679 4513243.448178))","attributes":{}},{"from_stop_id":181,"to_stop_id":1,"geometry":"MULTILINESTRING((-10654710.288472 4451692.554811,-13610190.938679 4513243.448178))","attributes":{}},{"from_stop_id":182,"to_stop_id":1,"geometry":"MULTILINESTRING((-10654710.288472 4451692.554811,-13610190.938679 4513243.448178))","attributes":{}},{"from_stop_id":183,"to_stop_id":1,"geometry":"MULTILINESTRING((-10654710.288472 4451692.554811,-13610190.938679 4513243.448178))","attributes":{}},{"from_stop_id":184,"to_stop_id":1,"geometry":"MULTILINESTRING((-10654710.288472 4451692.554811,-13610190.938679 4513243.448178))","attributes":{}},{"from_stop_id":185,"to_stop_id":1,"geometry":"MULTILINESTRING((-10654710.288472 4451692.554811,-13610190.938679 4513243.448178))","attributes":{}},{"from_stop_id":186,"to_stop_id":1,"geometry":"MULTILINESTRING((-10654710.288472 4451692.554811,-13610190.938679 4513243.448178))","attributes":{}},{"from_stop_id":187,"to_stop_id":1,"geometry":"MULTILINESTRING((-10654710.288472 4451692.554811,-13610190.938679 4513243.448178))","attributes":{}},{"from_stop_id":188,"to_stop_id":1,"geometry":"MULTILINESTRING((-10654710.288472 4451692.554811,-13610190.938679 4513243.448178))","attributes":{}},{"from_stop_id":189,"to_stop_id":1,"geometry":"MULTILINESTRING((-10654710.288472 4451692.554811,-13610190.938679 4513243.448178))","attributes":{}},{"from_stop_id":190,"to_stop_id":1,"geometry":"MULTILINESTRING((-10654710.288472 4451692.554811,-13610190.938679 4513243.448178))","attributes":{}},{"from_stop_id":191,"to_stop_id":1,"geometry":"MULTILINESTRING((-10654710.288472 4451692.554811,-13610190.938679 4513243.448178))","attributes":{}},{"from_stop_id":192,"to_stop_id":1,"geometry":"MULTILINESTRING((-10654710.288472 4451692.554811,-13610190.938679 4513243.448178))","attributes":{}},{"from_stop_id":193,"to_stop_id":1,"geometry":"MULTILINESTRING((-10654710.288472 4451692.554811,-13610190.938679 4513243.448178))","attributes":{}},{"from_stop_id":194,"to_stop_id":1,"geometry":"MULTILINESTRING((-10654710.288472 4451692.554811,-13610190.938679 4513243.448178))","attributes":{}},{"from_stop_id":195,"to_stop_id":1,"geometry":"MULTILINESTRING((-10654710.288472 4451692.554811,-13610190.938679 4513243.448178))","attributes":{}},{"from_stop_id":196,"to_stop_id":1,"geometry":"MULTILINESTRING((-10654710.288472 4451692.554811,-13610190.938679 4513243.448178))","attributes":{}},{"from_stop_id":197,"to_stop_id":1,"geometry":"MULTILINESTRING((-10654710.288472 4451692.554811,-13610190.938679 4513243.448178))","attributes":{}},{"from_stop_id":198,"to_stop_id":1,"geometry":"MULTILINESTRING((-10654710.288472 4451692.554811,-13610190.938679 4513243.448178))","attributes":{}},{"from_stop_id":199,"to_stop_id":1,"geometry":"MULTILINESTRING((-10654710.288472 4451692.554811,-13610190.938679 4513243.448178))","attributes":{}},{"from_stop_id":200,"to_stop_id":1,"geometry":"MULTILINESTRING((-10654710.288472 4451692.554811,-13610190.938679 4513243.448178))","attributes":{}},{"from_stop_id":201,"to_stop_id":1,"geometry":"MULTILINESTRING((-10654710.288472 4451692.554811,-13610190.938679 4513243.448178))","attributes":{}},{"from_stop_id":202,"to_stop_id":1,"geometry":"MULTILINESTRING((-10654710.288472 4451692.554811,-13610190.938679 4513243.448178))","attributes":{}},{"from_stop_id":203,"to_stop_id":1,"geometry":"MULTILINESTRING((-10654710.288472 4451692.554811,-13610190.938679 4513243.448178))","attributes":{}},{"from_stop_id":204,"to_stop_id":1,"geometry":"MULTILINESTRING((-10654710.288472 4451692.554811,-13610190.938679 4513243.448178))","attributes":{}},{"from_stop_id":205,"to_stop_id":1,"geometry":"MULTILINESTRING((-10654710.288472 4451692.554811,-13610190.938679 4513243.448178))","attributes":{}},{"from_stop_id":206,"to_stop_id":1,"geometry":"MULTILINESTRING((-10654710.288472 4451692.554811,-13610190.938679 4513243.448178))","attributes":{}},{"from_stop_id":207,"to_stop_id":1,"geometry":"MULTILINESTRING((-10654710.288472 4451692.554811,-13610190.938679 4513243.448178))","attributes":{}},{"from_stop_id":208,"to_stop_id":1,"geometry":"MULTILINESTRING((-10654710.288472 4451692.554811,-13610190.938679 4513243.448178))","attributes":{}},{"from_stop_id":209,"to_stop_id":1,"geometry":"MULTILINESTRING((-10654710.288472 4451692.554811,-13610190.938679 4513243.448178))","attributes":{}},{"from_stop_id":210,"to_stop_id":1,"geometry":"MULTILINESTRING((-10654710.288472 4451692.554811,-13610190.938679 4513243.448178))","attributes":{}},{"from_stop_id":211,"to_stop_id":1,"geometry":"MULTILINESTRING((-10654710.288472 4451692.554811,-13610190.938679 4513243.448178))","attributes":{}},{"from_stop_id":212,"to_stop_id":1,"geometry":"MULTILINESTRING((-10654710.288472 4451692.554811,-13610190.938679 4513243.448178))","attributes":{}},{"from_stop_id":213,"to_stop_id":1,"geometry":"MULTILINESTRING((-10654710.288472 4451692.554811,-13610190.938679 4513243.448178))","attributes":{}},{"from_stop_id":214,"to_stop_id":1,"geometry":"MULTILINESTRING((-10654710.288472 4451692.554811,-13610190.938679 4513243.448178))","attributes":{}},{"from_stop_id":215,"to_stop_id":1,"geometry":"MULTILINESTRING((-10654710.288472 4451692.554811,-13610190.938679 4513243.448178))","attributes":{}},{"from_stop_id":216,"to_stop_id":1,"geometry":"MULTILINESTRING((-10654710.288472 4451692.554811,-13610190.938679 4513243.448178))","attributes":{}},{"from_stop_id":217,"to_stop_id":1,"geometry":"MULTILINESTRING((-10654710.288472 4451692.554811,-13610190.938679 4513243.448178))","attributes":{}},{"from_stop_id":218,"to_stop_id":1,"geometry":"MULTILINESTRING((-10654710.288472 4451692.554811,-13610190.938679 4513243.448178))","attributes":{}},{"from_stop_id":219,"to_stop_id":1,"geometry":"MULTILINESTRING((-10654710.288472 4451692.554811,-13610190.938679 4513243.448178))","attributes":{}},{"from_stop_id":220,"to_stop_id":1,"geometry":"MULTILINESTRING((-10654710.288472 4451692.554811,-13610190.938679 4513243.448178))","attributes":{}},{"from_stop_id":221,"to_stop_id":1,"geometry":"MULTILINESTRING((-10654710.288472 4451692.554811,-13610190.938679 4513243.448178))","attributes":{}},{"from_stop_id":222,"to_stop_id":1,"geometry":"MULTILINESTRING((-10654710.288472 4451692.554811,-13610190.938679 4513243.448178))","attributes":{}},{"from_stop_id":223,"to_stop_id":1,"geometry":"MULTILINESTRING((-10654710.288472 4451692.554811,-13610190.938679 4513243.448178))","attributes":{}},{"from_stop_id":224,"to_stop_id":1,"geometry":"MULTILINESTRING((-10654710.288472 4451692.554811,-13610190.938679 4513243.448178))","attributes":{}},{"from_stop_id":225,"to_stop_id":1,"geometry":"MULTILINESTRING((-10654710.288472 4451692.554811,-13610190.938679 4513243.448178))","attributes":{}},{"from_stop_id":226,"to_stop_id":1,"geometry":"MULTILINESTRING((-10654710.288472 4451692.554811,-13610190.938679 4513243.448178))","attributes":{}},{"from_stop_id":227,"to_stop_id":1,"geometry":"MULTILINESTRING((-10654710.288472 4451692.554811,-13610190.938679 4513243.448178))","attributes":{}},{"from_stop_id":228,"to_stop_id":1,"geometry":"MULTILINESTRING((-10654710.288472 4451692.554811,-13610190.938679 4513243.448178))","attributes":{}},{"from_stop_id":229,"to_stop_id":1,"geometry":"MULTILINESTRING((-10654710.288472 4451692.554811,-13610190.938679 4513243.448178))","attributes":{}},{"from_stop_id":230,"to_stop_id":1,"geometry":"MULTILINESTRING((-10654710.288472 4451692.554811,-13610190.938679 4513243.448178))","attributes":{}},{"from_stop_id":231,"to_stop_id":1,"geometry":"MULTILINESTRING((-10654710.288472 4451692.554811,-13610190.938679 4513243.448178))","attributes":{}},{"from_stop_id":232,"to_stop_id":1,"geometry":"MULTILINESTRING((-10654710.288472 4451692.554811,-13610190.938679 4513243.448178))","attributes":{}},{"from_stop_id":233,"to_stop_id":1,"geometry":"MULTILINESTRING((-10654710.288472 4451692.554811,-13610190.938679 4513243.448178))","attributes":{}},{"from_stop_id":234,"to_stop_id":1,"geometry":"MULTILINESTRING((-10654710.288472 4451692.554811,-13610190.938679 4513243.448178))","attributes":{}},{"from_stop_id":235,"to_stop_id":1,"geometry":"MULTILINESTRING((0 0,-13610190.938679 4513243.448178))","attributes":{}},{"from_stop_id":236,"to_stop_id":1,"geometry":"MULTILINESTRING((-5780295.728898 -1601191.813438,-13610190.938679 4513243.448178))","attributes":{}},{"from_stop_id":237,"to_stop_id":1,"geometry":"MULTILINESTRING((-5780295.728898 -1601191.813438,-13610190.938679 4513243.448178))","attributes":{}},{"from_stop_id":238,"to_stop_id":1,"geometry":"MULTILINESTRING((-11416123.694313 2708933.292233,-13610190.938679 4513243.448178))","attributes":{}},{"from_stop_id":239,"to_stop_id":1,"geometry":"MULTILINESTRING((-11416123.694313 2708933.292233,-13610190.938679 4513243.448178))","attributes":{}},{"from_stop_id":240,"to_stop_id":1,"geometry":"MULTILINESTRING((-11416123.694313 2708933.292233,-13610190.938679 4513243.448178))","attributes":{}},{"from_stop_id":241,"to_stop_id":1,"geometry":"MULTILINESTRING((-11416123.694313 2708933.292233,-13610190.938679 4513243.448178))","attributes":{}},{"from_stop_id":242,"to_stop_id":1,"geometry":"MULTILINESTRING((-11416123.694313 2708933.292233,-13610190.938679 4513243.448178))","attributes":{}},{"from_stop_id":243,"to_stop_id":1,"geometry":"MULTILINESTRING((-11416123.694313 2708933.292233,-13610190.938679 4513243.448178))","attributes":{}},{"from_stop_id":244,"to_stop_id":1,"geometry":"MULTILINESTRING((0 0,-13610190.938679 4513243.448178))","attributes":{}},{"from_stop_id":245,"to_stop_id":1,"geometry":"MULTILINESTRING((-11416123.694313 2708933.292233,-13610190.938679 4513243.448178))","attributes":{}},{"from_stop_id":246,"to_stop_id":1,"geometry":"MULTILINESTRING((-10654710.288472 4451692.554811,-13610190.938679 4513243.448178))","attributes":{}},{"from_stop_id":247,"to_stop_id":1,"geometry":"MULTILINESTRING((0 0,-13610190.938679 4513243.448178))","attributes":{}},{"from_stop_id":248,"to_stop_id":1,"geometry":"MULTILINESTRING((0 0,-13610190.938679 4513243.448178))","attributes":{}},{"from_stop_id":249,"to_stop_id":1,"geometry":"MULTILINESTRING((-417361.261272 4933551.652462,-13610190.938679 4513243.448178))","attributes":{}},{"from_stop_id":251,"to_stop_id":250,"geometry":"MULTILINESTRING((0 0,-13595464.672485 6047948.062341))","attributes":{}},{"from_stop_id":252,"to_stop_id":250,"geometry":"MULTILINESTRING((1163458.552333 6650655.041174,-13595464.672485 6047948.062341))","attributes":{}},{"from_stop_id":253,"to_stop_id":250,"geometry":"MULTILINESTRING((1163458.552333 6650655.041174,-13595464.672485 6047948.062341))","attributes":{}},{"from_stop_id":254,"to_stop_id":250,"geometry":"MULTILINESTRING((1163458.552333 6650655.041174,-13595464.672485 6047948.062341))","attributes":{}},{"from_stop_id":255,"to_stop_id":250,"geometry":"MULTILINESTRING((1163458.552333 6650655.041174,-13595464.672485 6047948.062341))","attributes":{}},{"from_stop_id":256,"to_stop_id":250,"geometry":"MULTILINESTRING((1163458.552333 6650655.041174,-13595464.672485 6047948.062341))","attributes":{}},{"from_stop_id":257,"to_stop_id":250,"geometry":"MULTILINESTRING((1163458.552333 6650655.041174,-13595464.672485 6047948.062341))","attributes":{}},{"from_stop_id":258,"to_stop_id":250,"geometry":"MULTILINESTRING((915882.446336 5912448.054871,-13595464.672485 6047948.062341))","attributes":{}},{"from_stop_id":259,"to_stop_id":250,"geometry":"MULTILINESTRING((915882.446336 5912448.054871,-13595464.672485 6047948.062341))","attributes":{}},{"from_stop_id":260,"to_stop_id":250,"geometry":"MULTILINESTRING((915882.446336 5912448.054871,-13595464.672485 6047948.062341))","attributes":{}},{"from_stop_id":261,"to_stop_id":250,"geometry":"MULTILINESTRING((915882.446336 5912448.054871,-13595464.672485 6047948.062341))","attributes":{}},{"from_stop_id":262,"to_stop_id":250,"geometry":"MULTILINESTRING((-10654710.288472 4451692.554811,-13595464.672485 6047948.062341))","attributes":{}},{"from_stop_id":263,"to_stop_id":250,"geometry":"MULTILINESTRING((8595990.557556 3317524.080496,-13595464.672485 6047948.062341))","attributes":{}},{"from_stop_id":264,"to_stop_id":250,"geometry":"MULTILINESTRING((8595990.557556 3317524.080496,-13595464.672485 6047948.062341))","attributes":{}},{"from_stop_id":265,"to_stop_id":250,"geometry":"MULTILINESTRING((-10654710.288472 4451692.554811,-13595464.672485 6047948.062341))","attributes":{}},{"from_stop_id":266,"to_stop_id":250,"geometry":"MULTILINESTRING((-382490.764739 7435586.530983,-13595464.672485 6047948.062341))","attributes":{}},{"from_stop_id":267,"to_stop_id":250,"geometry":"MULTILINESTRING((-10654710.288472 4451692.554811,-13595464.672485 6047948.062341))","attributes":{}},{"from_stop_id":268,"to_stop_id":250,"geometry":"MULTILINESTRING((-10654710.288472 4451692.554811,-13595464.672485 6047948.062341))","attributes":{}},{"from_stop_id":269,"to_stop_id":250,"geometry":"MULTILINESTRING((-11838468.395229 7584411.732747,-13595464.672485 6047948.062341))","attributes":{}},{"from_stop_id":270,"to_stop_id":250,"geometry":"MULTILINESTRING((-382490.764739 7435586.530983,-13595464.672485 6047948.062341))","attributes":{}},{"from_stop_id":271,"to_stop_id":250,"geometry":"MULTILINESTRING((-10654710.288472 4451692.554811,-13595464.672485 6047948.062341))","attributes":{}},{"from_stop_id":272,"to_stop_id":250,"geometry":"MULTILINESTRING((-382490.764739 7435586.530983,-13595464.672485 6047948.062341))","attributes":{}},{"from_stop_id":273,"to_stop_id":250,"geometry":"MULTILINESTRING((-10654710.288472 4451692.554811,-13595464.672485 6047948.062341))","attributes":{}},{"from_stop_id":274,"to_stop_id":250,"geometry":"MULTILINESTRING((-382490.764739 7435586.530983,-13595464.672485 6047948.062341))","attributes":{}},{"from_stop_id":275,"to_stop_id":250,"geometry":"MULTILINESTRING((11557171.277761 150527.162641,-13595464.672485 6047948.062341))","attributes":{}},{"from_stop_id":276,"to_stop_id":250,"geometry":"MULTILINESTRING((1619706.606045 6026746.974644,-13595464.672485 6047948.062341))","attributes":{}},{"from_stop_id":277,"to_stop_id":250,"geometry":"MULTILINESTRING((1619706.606045 6026746.974644,-13595464.672485 6047948.062341))","attributes":{}},{"from_stop_id":278,"to_stop_id":250,"geometry":"MULTILINESTRING((-10654710.288472 4451692.554811,-13595464.672485 6047948.062341))","attributes":{}},{"from_stop_id":279,"to_stop_id":250,"geometry":"MULTILINESTRING((-5780295.728898 -1601191.813438,-13595464.672485 6047948.062341))","attributes":{}},{"from_stop_id":281,"to_stop_id":280,"geometry":"MULTILINESTRING((-382490.764739 7435586.530983,1163458.552333 6650655.041174))","attributes":{}},{"from_stop_id":282,"to_stop_id":280,"geometry":"MULTILINESTRING((497590.999399 6534001.856289,1163458.552333 6650655.041174))","attributes":{}},{"from_stop_id":283,"to_stop_id":280,"geometry":"MULTILINESTRING((589021.036772 6824142.821624,1163458.552333 6650655.041174))","attributes":{}},{"from_stop_id":284,"to_stop_id":280,"geometry":"MULTILINESTRING((-382490.764739 7435586.530983,1163458.552333 6650655.041174))","attributes":{}},{"from_stop_id":285,"to_stop_id":280,"geometry":"MULTILINESTRING((1163458.552333 6650655.041174,1163458.552333 6650655.041174))","attributes":{}},{"from_stop_id":286,"to_stop_id":280,"geometry":"MULTILINESTRING((1163458.552333 6650655.041174,1163458.552333 6650655.041174))","attributes":{}},{"from_stop_id":287,"to_stop_id":280,"geometry":"MULTILINESTRING((1163458.552333 6650655.041174,1163458.552333 6650655.041174))","attributes":{}},{"from_stop_id":288,"to_stop_id":280,"geometry":"MULTILINESTRING((-382490.764739 7435586.530983,1163458.552333 6650655.041174))","attributes":{}},{"from_stop_id":289,"to_stop_id":280,"geometry":"MULTILINESTRING((915882.446336 5912448.054871,1163458.552333 6650655.041174))","attributes":{}},{"from_stop_id":290,"to_stop_id":280,"geometry":"MULTILINESTRING((915882.446336 5912448.054871,1163458.552333 6650655.041174))","attributes":{}},{"from_stop_id":291,"to_stop_id":280,"geometry":"MULTILINESTRING((-10654710.288472 4451692.554811,1163458.552333 6650655.041174))","attributes":{}},{"from_stop_id":292,"to_stop_id":280,"geometry":"MULTILINESTRING((-10654710.288472 4451692.554811,1163458.552333 6650655.041174))","attributes":{}},{"from_stop_id":293,"to_stop_id":280,"geometry":"MULTILINESTRING((-10654710.288472 4451692.554811,1163458.552333 6650655.041174))","attributes":{}},{"from_stop_id":294,"to_stop_id":280,"geometry":"MULTILINESTRING((-10654710.288472 4451692.554811,1163458.552333 6650655.041174))","attributes":{}},{"from_stop_id":295,"to_stop_id":280,"geometry":"MULTILINESTRING((-382490.764739 7435586.530983,1163458.552333 6650655.041174))","attributes":{}},{"from_stop_id":296,"to_stop_id":280,"geometry":"MULTILINESTRING((497590.999399 6534001.856289,1163458.552333 6650655.041174))","attributes":{}},{"from_stop_id":297,"to_stop_id":280,"geometry":"MULTILINESTRING((-382490.764739 7435586.530983,1163458.552333 6650655.041174))","attributes":{}}]},"editable":false}