{"type":"FeatureCollection","features":[{"type":"Feature","geometry":{"type":"Point","coordinates":[-71.059244290108,42.357707695181]},"properties":{"supplychain_instance_id":"supplychain-1","stop_instance_id":"stop-97","description":"","address":"Big Apple Circus, 1 City Hall Square, Boston, MA 02201, USA","title":"Apple Boston"}},{"type":"Feature","geometry":{"type":"Point","coordinates":[114.05786798412,22.543098997024]},"properties":{"supplychain_instance_id":"supplychain-1","stop_instance_id":"stop-48","description":"","address":"Shenzhen, Guangdong, China","title":"Power Cord"}},{"type":"Feature","geometry":{"type":"Point","coordinates":[101.97576598581,4.2104839994149]},"properties":{"supplychain_instance_id":"supplychain-1","stop_instance_id":"stop-41","description":"","address":"Malaysia","title":"Display "}},{"type":"Feature","geometry":{"type":"Point","coordinates":[100.67977198612,33.549848024494]},"properties":{"youtube:link":"","water":"0","energy":"0","co2e":"0","weight":"0","supplychain_instance_id":"supplychain-1","stop_instance_id":"stop-11","description":"","address":"S101, Jiuzhi, Golog, Qinghai, China","title":"Assembly"}},{"type":"Feature","geometry":{"type":"Point","coordinates":[127.76692198221,35.907756995657]},"properties":{"youtube:link":"","water":"0","energy":"0","co2e":"0","weight":"0","supplychain_instance_id":"supplychain-1","stop_instance_id":"stop-7","description":"","address":"South Korea","title":"Battery"}},{"type":"Feature","geometry":{"type":"LineString","coordinates":[[-71.059244290108,42.357707695181],[100.67977198612,33.549848024494]]},"properties":{"co2e":"0","title":"Apple Boston to Assembly","distance":"11532.611359"}}],"properties":{"description":"","tags":"","title":"iPad"}}