{"supplychain":{"category":null,"created":1339788629,"enable_comments":true,"flags":0,"id":3359,"modified":1339788630,"other_perms":1,"passcode":null,"user_featured":false,"usergroup_id":null,"usergroup_perms":0,"user_id":2128,"owner":{"id":2128,"name":"footprint-aj","avatar":"http:\/\/free.sourcemap.com\/assets\/images\/default-user.png","banner_url":null,"display_name":null},"taxonomy":null,"attributes":{"title":"2","description":"","tags":""},"stops":[{"local_stop_id":139,"id":139,"geometry":"POINT(-6207824.355862 -3832130.824994)","attributes":{"size":"0.02784222737819","address":"Uruguay","placename":"Uruguay","title":"Uruguay CKD  9  Unit  0%"}},{"local_stop_id":138,"id":138,"geometry":"POINT(2553391.487988 -3575670.675527)","attributes":{"size":"0.68986852281516","address":"South Africa","placename":"South Africa","title":"South Africa CKD  223  Unit  0.7%"}},{"local_stop_id":137,"id":137,"geometry":"POINT(-789546.84679 3735999.22766)","attributes":{"size":"0.34648105181748","address":"Morocco","placename":"Morocco","title":"Morocco CKD  112  Unit  0.3%"}},{"local_stop_id":136,"id":136,"geometry":"POINT(5238756.540375 4646601.874365)","attributes":{"size":"0.44547563805104","address":"Iran (Islamic Republic of)","placename":"Islamic Republic, Ahar, Iran","title":"Iran (Islamic Republic of) CKD  144  Unit  0.4%"}},{"local_stop_id":135,"id":135,"geometry":"POINT(-7081775.533003 -4638374.275084)","attributes":{"size":"1.8530549110596","address":"Argentina","placename":"Argentina","title":"Argentina CKD  599  Unit  1.9%"}},{"local_stop_id":134,"id":134,"geometry":"POINT(-8578169.108581 4707901.043596)","attributes":{"size":"0.0030935808197989","address":"Venezuela (Bolivarian Republic of)","placename":"Embassy of the Bolivarian Republic of Venezuela, 1099 30th St NW, Washington, DC 20007, USA","title":"Venezuela (Bolivarian Republic of)   1  Unit  0%"}},{"local_stop_id":133,"id":133,"geometry":"POINT(-6207824.355862 -3832130.824994)","attributes":{"size":"0.034029389017788","address":"Uruguay","placename":"Uruguay","title":"Uruguay   11  Unit  0%"}},{"local_stop_id":132,"id":132,"geometry":"POINT(-8578169.108581 4707901.043596)","attributes":{"size":"0.0030935808197989","address":"Venezuela (Bolivarian Republic of)","placename":"Embassy of the Bolivarian Republic of Venezuela, 1099 30th St NW, Washington, DC 20007, USA","title":"Venezuela (Bolivarian Republic of)   1  Unit  0%"}},{"local_stop_id":131,"id":131,"geometry":"POINT(-6207824.355862 -3832130.824994)","attributes":{"size":"0.0061871616395978","address":"Uruguay","placename":"Uruguay","title":"Uruguay   2  Unit  0%"}},{"local_stop_id":130,"id":130,"geometry":"POINT(-382490.764739 7435586.530983)","attributes":{"size":"7.7803557617943","address":"United Kingdom of Great Britain and Northern Ireland","placename":"United Kingdom","title":"United Kingdom of Great Britain and Northern Ireland   2515  Unit  7.8%"}},{"local_stop_id":129,"id":129,"geometry":"POINT(5994311.680089 2683384.657664)","attributes":{"size":"0.42072699149265","address":"United Arab Emirates","placename":"United Arab Emirates","title":"United Arab Emirates   136  Unit  0.4%"}},{"local_stop_id":128,"id":128,"geometry":"POINT(3469336.495877 6170212.711441)","attributes":{"size":"0.54756380510441","address":"Ukraine","placename":"Ukraine","title":"Ukraine   177  Unit  0.5%"}},{"local_stop_id":127,"id":127,"geometry":"POINT(3923268.658903 4716479.684629)","attributes":{"size":"7.6194895591647","address":"Turkey","placename":"Turkey","title":"Turkey   2463  Unit  7.6%"}},{"local_stop_id":126,"id":126,"geometry":"POINT(1061709.532121 4013627.830394)","attributes":{"size":"0.40216550657386","address":"Tunisia","placename":"Tunisia","title":"Tunisia   130  Unit  0.4%"}},{"local_stop_id":125,"id":125,"geometry":"POINT(-6815257.85905 1197174.420926)","attributes":{"size":"0.0030935808197989","address":"Trinidad and Tobago","placename":"Trinidad and Tobago","title":"Trinidad and Tobago   1  Unit  0%"}},{"local_stop_id":124,"id":124,"geometry":"POINT(91814.312255 963163.074994)","attributes":{"size":"0.018561484918794","address":"Togo","placename":"Togo","title":"Togo   6  Unit  0%"}},{"local_stop_id":123,"id":123,"geometry":"POINT(3883805.899417 -710461.619568)","attributes":{"size":"0.012374323279196","address":"United Republic of Tanzania","placename":"Tanzania","title":"United Republic of Tanzania   4  Unit  0%"}},{"local_stop_id":122,"id":122,"geometry":"POINT(4341105.588359 4137016.351319)","attributes":{"size":"0.0030935808197989","address":"Syrian Arab Republic","placename":"Syria","title":"Syrian Arab Republic   1  Unit  0%"}},{"local_stop_id":121,"id":121,"geometry":"POINT(915882.446336 5912448.054871)","attributes":{"size":"0.8631090487239","address":"Switzerland","placename":"Switzerland","title":"Switzerland   279  Unit  0.9%"}},{"local_stop_id":120,"id":120,"geometry":"POINT(3363811.852496 1444062.609719)","attributes":{"size":"0.24748646558391","address":"Sudan","placename":"Sudan","title":"Sudan   80  Unit  0.2%"}},{"local_stop_id":119,"id":119,"geometry":"POINT(-417361.261272 4933551.652462)","attributes":{"size":"5.0023201856148","address":"Spain","placename":"Spain","title":"Spain   1617  Unit  5%"}},{"local_stop_id":118,"id":118,"geometry":"POINT(2553391.487988 -3575670.675527)","attributes":{"size":"0.14539829853055","address":"South Africa","placename":"South Africa","title":"South Africa   47  Unit  0.1%"}},{"local_stop_id":117,"id":117,"geometry":"POINT(1669287.305369 5804618.909739)","attributes":{"size":"0.17942768754834","address":"Slovenia","placename":"Slovenia","title":"Slovenia   58  Unit  0.2%"}},{"local_stop_id":116,"id":116,"geometry":"POINT(2192885.320804 6218887.493883)","attributes":{"size":"0.68058778035576","address":"Slovakia","placename":"Slovakia","title":"Slovakia   220  Unit  0.7%"}},{"local_stop_id":115,"id":115,"geometry":"POINT(2338361.527555 5467999.202178)","attributes":{"size":"0.034029389017788","address":"Serbia","placename":"Serbia","title":"Serbia   11  Unit  0%"}},{"local_stop_id":114,"id":114,"geometry":"POINT(-1608829.5786 1631344.630706)","attributes":{"size":"0.20108275328693","address":"Senegal","placename":"Senegal","title":"Senegal   65  Unit  0.2%"}},{"local_stop_id":113,"id":113,"geometry":"POINT(5018189.359227 2739515.791932)","attributes":{"size":"0.30935808197989","address":"Saudi Arabia","placename":"Saudi Arabia","title":"Saudi Arabia   100  Unit  0.3%"}},{"local_stop_id":112,"id":112,"geometry":"POINT(11724030.288901 8747149.04879)","attributes":{"size":"3.8793503480278","address":"Russian Federation","placename":"Russian Federation","title":"Russian Federation   1254  Unit  3.9%"}},{"local_stop_id":111,"id":111,"geometry":"POINT(2779287.009958 5771245.404432)","attributes":{"size":"0.5630317092034","address":"Romania","placename":"Romania","title":"Romania   182  Unit  0.6%"}},{"local_stop_id":110,"id":110,"geometry":"POINT(6182281.98738 -2405613.229384)","attributes":{"size":"0.10208816705336","address":"Reunion","placename":"Reunion","title":"Reunion   33  Unit  0.1%"}},{"local_stop_id":109,"id":109,"geometry":"POINT(5697763.903702 2919390.332888)","attributes":{"size":"0.24748646558391","address":"Qatar","placename":"Qatar","title":"Qatar   80  Unit  0.2%"}},{"local_stop_id":108,"id":108,"geometry":"POINT(-915542.031333 4779112.741647)","attributes":{"size":"0.72699149265275","address":"Portugal","placename":"Portugal","title":"Portugal   235  Unit  0.7%"}},{"local_stop_id":107,"id":107,"geometry":"POINT(2131226.790688 6785571.898792)","attributes":{"size":"3.4740912606342","address":"Poland","placename":"Poland","title":"Poland   1123  Unit  3.5%"}},{"local_stop_id":106,"id":106,"geometry":"POINT(-8350648.52242 -1027437.355768)","attributes":{"size":"0.030935808197989","address":"Peru","placename":"Peru","title":"Peru   10  Unit  0%"}},{"local_stop_id":105,"id":105,"geometry":"POINT(16025058.522866 -704409.432655)","attributes":{"size":"0.024748646558391","address":"Papua New Guinea","placename":"Papua New Guinea","title":"Papua New Guinea   8  Unit  0%"}},{"local_stop_id":104,"id":104,"geometry":"POINT(-8992625.242838 953980.901355)","attributes":{"size":"0.015467904098995","address":"Panama","placename":"Panama","title":"Panama   5  Unit  0%"}},{"local_stop_id":103,"id":103,"geometry":"POINT(6225348.270102 2453104.641232)","attributes":{"size":"0.36194895591647","address":"Oman","placename":"Oman","title":"Oman   117  Unit  0.4%"}},{"local_stop_id":102,"id":102,"geometry":"POINT(942758.756276 8505587.038689)","attributes":{"size":"0.074245939675174","address":"Norway","placename":"Norway","title":"Norway   24  Unit  0.1%"}},{"local_stop_id":101,"id":101,"geometry":"POINT(965727.418131 1015263.983184)","attributes":{"size":"0.16086620262954","address":"Nigeria","placename":"Nigeria","title":"Nigeria   52  Unit  0.2%"}},{"local_stop_id":100,"id":100,"geometry":"POINT(899646.943881 1991691.558385)","attributes":{"size":"0.024748646558391","address":"Niger","placename":"Niger","title":"Niger   8  Unit  0%"}},{"local_stop_id":99,"id":99,"geometry":"POINT(19468217.238607 -4997684.890551)","attributes":{"size":"0.0092807424593968","address":"New Zealand","placename":"New Zealand","title":"New Zealand   3  Unit  0%"}},{"local_stop_id":98,"id":98,"geometry":"POINT(18436516.101619 -2380471.632631)","attributes":{"size":"0.080433101314772","address":"New Caledonia","placename":"New Caledonia","title":"New Caledonia   26  Unit  0.1%"}},{"local_stop_id":97,"id":97,"geometry":"POINT(589021.036772 6824142.821624)","attributes":{"size":"0.89713843774169","address":"Netherlands","placename":"The Netherlands","title":"Netherlands   290  Unit  0.9%"}},{"local_stop_id":96,"id":96,"geometry":"POINT(-789546.84679 3735999.22766)","attributes":{"size":"0.8569218870843","address":"Morocco","placename":"Morocco","title":"Morocco   277  Unit  0.9%"}},{"local_stop_id":95,"id":95,"geometry":"POINT(5027883.283125 -1440031.368374)","attributes":{"size":"0.012374323279196","address":"Mayotte","placename":"Mayotte","title":"Mayotte   4  Unit  0%"}},{"local_stop_id":94,"id":94,"geometry":"POINT(6406676.254697 -2314350.159717)","attributes":{"size":"0.10518174787316","address":"Mauritius","placename":"Mauritius","title":"Mauritius   34  Unit  0.1%"}},{"local_stop_id":93,"id":93,"geometry":"POINT(-1217928.181053 2392819.411011)","attributes":{"size":"0.021655065738592","address":"Mauritania","placename":"Mauritania","title":"Mauritania   7  Unit  0%"}},{"local_stop_id":92,"id":92,"geometry":"POINT(-6793179.97576 1647921.847137)","attributes":{"size":"0.0092807424593968","address":"Martinique","placename":"Martinique","title":"Martinique   3  Unit  0%"}},{"local_stop_id":91,"id":91,"geometry":"POINT(-444851.164245 1987359.399603)","attributes":{"size":"0.26914153132251","address":"Mali","placename":"Mali","title":"Mali   87  Unit  0.3%"}},{"local_stop_id":90,"id":90,"geometry":"POINT(5217445.125175 -2127516.82188)","attributes":{"size":"0.0061871616395978","address":"Madagascar","placename":"Madagascar","title":"Madagascar   2  Unit  0%"}},{"local_stop_id":89,"id":89,"geometry":"POINT(682342.058335 6414345.6274)","attributes":{"size":"0.12374323279196","address":"Luxembourg","placename":"Luxembourg","title":"Luxembourg   40  Unit  0.1%"}},{"local_stop_id":88,"id":88,"geometry":"POINT(2658451.372494 7394820.260241)","attributes":{"size":"0.33101314771848","address":"Lithuania","placename":"Lithuania","title":"Lithuania   107  Unit  0.3%"}},{"local_stop_id":87,"id":87,"geometry":"POINT(1917849.034138 3040644.059011)","attributes":{"size":"0.021655065738592","address":"Libya","placename":"Libya","title":"Libya   7  Unit  0%"}},{"local_stop_id":86,"id":86,"geometry":"POINT(-1049687.027116 717073.663481)","attributes":{"size":"0.10518174787316","address":"Liberia","placename":"Liberia","title":"Liberia   34  Unit  0.1%"}},{"local_stop_id":85,"id":85,"geometry":"POINT(3992171.304883 4009311.247656)","attributes":{"size":"0.021655065738592","address":"Lebanon","placename":"Lebanon","title":"Lebanon   7  Unit  0%"}},{"local_stop_id":84,"id":84,"geometry":"POINT(2738814.471371 7735556.799888)","attributes":{"size":"0.068058778035576","address":"Latvia","placename":"Latvia","title":"Latvia   22  Unit  0.1%"}},{"local_stop_id":83,"id":83,"geometry":"POINT(5285646.013085 3415373.48796)","attributes":{"size":"0.012374323279196","address":"Kuwait","placename":"Kuwait","title":"Kuwait   4  Unit  0%"}},{"local_stop_id":82,"id":82,"geometry":"POINT(4219698.102672 -2622.575957)","attributes":{"size":"0.0061871616395978","address":"Kenya","placename":"Kenya","title":"Kenya   2  Unit  0%"}},{"local_stop_id":81,"id":81,"geometry":"POINT(7449910.42489 6110111.702601)","attributes":{"size":"0.030935808197989","address":"Kazakhstan","placename":"Kazakhstan","title":"Kazakhstan   10  Unit  0%"}},{"local_stop_id":80,"id":80,"geometry":"POINT(1398994.342206 5141815.937641)","attributes":{"size":"4.0587780355762","address":"Italy","placename":"Italy","title":"Italy   1312  Unit  4.1%"}},{"local_stop_id":79,"id":79,"geometry":"POINT(3879663.701165 3638731.187583)","attributes":{"size":"0.15777262180974","address":"Israel","placename":"Israel","title":"Israel   51  Unit  0.2%"}},{"local_stop_id":78,"id":78,"geometry":"POINT(-917705.636956 7059743.327002)","attributes":{"size":"0.2938901778809","address":"Ireland","placename":"Ireland","title":"Ireland   95  Unit  0.3%"}},{"local_stop_id":77,"id":77,"geometry":"POINT(4862356.432331 3924966.445386)","attributes":{"size":"2.5398298530549","address":"Iraq","placename":"Iraq","title":"Iraq   821  Unit  2.5%"}},{"local_stop_id":76,"id":76,"geometry":"POINT(12681664.112134 -87864.470043)","attributes":{"size":"0.0061871616395978","address":"Indonesia","placename":"Indonesia","title":"Indonesia   2  Unit  0%"}},{"local_stop_id":75,"id":75,"geometry":"POINT(-2117389.666663 9598645.705352)","attributes":{"size":"0.0061871616395978","address":"Iceland","placename":"Iceland","title":"Iceland   2  Unit  0%"}},{"local_stop_id":74,"id":74,"geometry":"POINT(2171097.870066 5968637.679129)","attributes":{"size":"1.2683681361176","address":"Hungary","placename":"Hungary","title":"Hungary   410  Unit  1.3%"}},{"local_stop_id":73,"id":73,"geometry":"POINT(-8046753.325682 2151543.94475)","attributes":{"size":"0.0030935808197989","address":"Haiti","placename":"Haiti","title":"Haiti   1  Unit  0%"}},{"local_stop_id":72,"id":72,"geometry":"POINT(-6560077.629956 541709.129825)","attributes":{"size":"0.037122969837587","address":"Guyana","placename":"Guyana","title":"Guyana   12  Unit  0%"}},{"local_stop_id":71,"id":71,"geometry":"POINT(-1079425.583803 1112739.818908)","attributes":{"size":"0.13302397525135","address":"Guinea","placename":"Guinea","title":"Guinea   43  Unit  0.1%"}},{"local_stop_id":70,"id":70,"geometry":"POINT(-10044442.145771 1779661.011764)","attributes":{"size":"0.037122969837587","address":"Guatemala","placename":"Guatemala","title":"Guatemala   12  Unit  0%"}},{"local_stop_id":69,"id":69,"geometry":"POINT(-113901.435063 887453.057712)","attributes":{"size":"0.26295436968291","address":"Ghana","placename":"Africa, Ghana","title":"Ghana   85  Unit  0.3%"}},{"local_stop_id":68,"id":68,"geometry":"POINT(1163458.552333 6650655.041174)","attributes":{"size":"5.0580046403712","address":"Germany","placename":"Germany","title":"Germany   1635  Unit  5.1%"}},{"local_stop_id":67,"id":67,"geometry":"POINT(1292357.394473 -89469.184236)","attributes":{"size":"0.14849187935035","address":"Gabon","placename":"Gabon","title":"Gabon   48  Unit  0.1%"}},{"local_stop_id":66,"id":66,"geometry":"POINT(-16631893.683791 -2000096.713687)","attributes":{"size":"0.0030935808197989","address":"French Polynesia","placename":"French Polynesia","title":"French Polynesia   1  Unit  0%"}},{"local_stop_id":65,"id":65,"geometry":"POINT(246433.411424 5816903.713427)","attributes":{"size":"34.737819025522","address":"France","placename":"France","title":"France   11229  Unit  34.7%"}},{"local_stop_id":64,"id":64,"geometry":"POINT(2866271.058188 8841170.394214)","attributes":{"size":"0.098994586233565","address":"Finland","placename":"Finland","title":"Finland   32  Unit  0.1%"}},{"local_stop_id":63,"id":63,"geometry":"POINT(4507289.780746 1022366.88618)","attributes":{"size":"0.0061871616395978","address":"Ethiopia","placename":"Ethiopia","title":"Ethiopia   2  Unit  0%"}},{"local_stop_id":62,"id":62,"geometry":"POINT(2784501.994143 8093419.123256)","attributes":{"size":"0.13611755607115","address":"Estonia","placename":"Estonia","title":"Estonia   44  Unit  0.1%"}},{"local_stop_id":61,"id":61,"geometry":"POINT(1143016.842919 183791.756876)","attributes":{"size":"0.080433101314772","address":"Equatorial Guinea","placename":"Equatorial Guinea","title":"Equatorial Guinea   26  Unit  0.1%"}},{"local_stop_id":60,"id":60,"geometry":"POINT(3428918.392521 3101070.050794)","attributes":{"size":"0.089713843774169","address":"Egypt","placename":"Egypt","title":"Egypt   29  Unit  0.1%"}},{"local_stop_id":59,"id":59,"geometry":"POINT(-8703336.944404 -203887.308284)","attributes":{"size":"0.034029389017788","address":"Ecuador","placename":"Ecuador","title":"Ecuador   11  Unit  0%"}},{"local_stop_id":58,"id":58,"geometry":"POINT(4741127.725745 1325814.408765)","attributes":{"size":"0.0030935808197989","address":"Djibouti","placename":"Djibouti","title":"Djibouti   1  Unit  0%"}},{"local_stop_id":57,"id":57,"geometry":"POINT(1057733.867827 7611135.068229)","attributes":{"size":"0.47331786542923","address":"Denmark","placename":"Denmark","title":"Denmark   153  Unit  0.5%"}},{"local_stop_id":56,"id":56,"geometry":"POINT(2422163.396822 -449917.840172)","attributes":{"size":"0.31245166279969","address":"Democratic Republic of the Congo","placename":"Democratic Republic of the Congo","title":"Democratic Republic of the Congo   101  Unit  0.3%"}},{"local_stop_id":55,"id":55,"geometry":"POINT(1722442.250904 6414728.45895)","attributes":{"size":"1.4168600154679","address":"Czech Republic","placename":"Czech Republic","title":"Czech Republic   458  Unit  1.4%"}},{"local_stop_id":54,"id":54,"geometry":"POINT(3721394.881171 4181073.463265)","attributes":{"size":"0.0092807424593968","address":"Cyprus","placename":"Cyprus","title":"Cyprus   3  Unit  0%"}},{"local_stop_id":53,"id":53,"geometry":"POINT(-8658559.903747 2454202.390949)","attributes":{"size":"0.0092807424593968","address":"Cuba","placename":"Cuba","title":"Cuba   3  Unit  0%"}},{"local_stop_id":52,"id":52,"geometry":"POINT(1692056.260058 5637278.201891)","attributes":{"size":"0.040216550657386","address":"Croatia","placename":"Croatia","title":"Croatia   13  Unit  0%"}},{"local_stop_id":51,"id":51,"geometry":"POINT(-617498.12099 841780.906412)","attributes":{"size":"0.037122969837587","address":"C\u00f4te d'Ivoire","placename":"C\u00f4te d'Ivoire","title":"C\u00f4te d'Ivoire   12  Unit  0%"}},{"local_stop_id":50,"id":50,"geometry":"POINT(1761926.94033 -25383.248614)","attributes":{"size":"0.31863882443929","address":"Congo","placename":"Congo","title":"Congo   103  Unit  0.3%"}},{"local_stop_id":49,"id":49,"geometry":"POINT(-8270741.276858 509367.281339)","attributes":{"size":"0.077339520494973","address":"Colombia","placename":"Colombia","title":"Colombia   25  Unit  0.1%"}},{"local_stop_id":48,"id":48,"geometry":"POINT(-7964126.878919 -4256013.675159)","attributes":{"size":"0.068058778035576","address":"Chile","placename":"Chile","title":"Chile   22  Unit  0.1%"}},{"local_stop_id":47,"id":47,"geometry":"POINT(2085259.744674 1741597.357213)","attributes":{"size":"0.077339520494973","address":"Chad","placename":"Chad","title":"Chad   25  Unit  0.1%"}},{"local_stop_id":46,"id":46,"geometry":"POINT(2330968.243574 737584.011323)","attributes":{"size":"0.024748646558391","address":"Central African Republic","placename":"Central African Republic","title":"Central African Republic   8  Unit  0%"}},{"local_stop_id":45,"id":45,"geometry":"POINT(1375321.361932 822665.286731)","attributes":{"size":"0.76720804331013","address":"Cameroon","placename":"Cameroon","title":"Cameroon   248  Unit  0.8%"}},{"local_stop_id":44,"id":44,"geometry":"POINT(3330555.154622 -375703.95736)","attributes":{"size":"0.02784222737819","address":"Burundi","placename":"Burundi","title":"Burundi   9  Unit  0%"}},{"local_stop_id":43,"id":43,"geometry":"POINT(-173835.737586 1372844.313774)","attributes":{"size":"0.068058778035576","address":"Burkina Faso","placename":"Burkina Faso","title":"Burkina Faso   22  Unit  0.1%"}},{"local_stop_id":42,"id":42,"geometry":"POINT(2837069.618044 5271553.447419)","attributes":{"size":"0.17014694508894","address":"Bulgaria","placename":"Bulgaria","title":"Bulgaria   55  Unit  0.2%"}},{"local_stop_id":41,"id":41,"geometry":"POINT(-7078656.47219 -1838348.789522)","attributes":{"size":"0.0030935808197989","address":"Bolivia","placename":"Bolivia","title":"Bolivia   1  Unit  0%"}},{"local_stop_id":40,"id":40,"geometry":"POINT(257797.461642 1040714.83444)","attributes":{"size":"0.055684454756381","address":"Benin","placename":"Benin","title":"Benin   18  Unit  0.1%"}},{"local_stop_id":39,"id":39,"geometry":"POINT(497590.999399 6534001.856289)","attributes":{"size":"1.5870069605568","address":"Belgium","placename":"Belgium","title":"Belgium   513  Unit  1.6%"}},{"local_stop_id":38,"id":38,"geometry":"POINT(3111757.029426 7115387.658402)","attributes":{"size":"0.058778035576179","address":"Belarus","placename":"Belarus","title":"Belarus   19  Unit  0.1%"}},{"local_stop_id":37,"id":37,"geometry":"POINT(5296239.287149 4886759.751808)","attributes":{"size":"0.015467904098995","address":"Azerbaijan","placename":"Azerbaijan","title":"Azerbaijan   5  Unit  0%"}},{"local_stop_id":36,"id":36,"geometry":"POINT(1619706.606045 6026746.974644)","attributes":{"size":"0.73317865429234","address":"Austria","placename":"Austria","title":"Austria   237  Unit  0.7%"}},{"local_stop_id":35,"id":35,"geometry":"POINT(14891780.020321 -2909486.054997)","attributes":{"size":"0.0030935808197989","address":"Australia","placename":"Australia","title":"Australia   1  Unit  0%"}},{"local_stop_id":34,"id":34,"geometry":"POINT(1989711.999337 -1255100.642297)","attributes":{"size":"0.098994586233565","address":"Angola","placename":"Angola","title":"Angola   32  Unit  0.1%"}},{"local_stop_id":33,"id":33,"geometry":"POINT(184748.721227 3253246.71111)","attributes":{"size":"3.7927300850735","address":"Algeria","placename":"Algeria","title":"Algeria   1226  Unit  3.8%"}},{"local_stop_id":32,"id":32,"geometry":"POINT(-10654710.288472 4451692.554811)","attributes":{"size":"0.06958950039465","address":"United States of America","placename":"United States","title":"United States of America   6.4M  0.1%"}},{"local_stop_id":31,"id":31,"geometry":"POINT(-382490.764739 7435586.530983)","attributes":{"size":"0.71951507372894","address":"United Kingdom of Great Britain and Northern Ireland","placename":"United Kingdom","title":"United Kingdom of Great Britain and Northern Ireland   66.2M  0.7%"}},{"local_stop_id":30,"id":30,"geometry":"POINT(3923268.658903 4716479.684629)","attributes":{"size":"0.16439060177459","address":"Turkey","placename":"Turkey","title":"Turkey   15.1M  0.2%"}},{"local_stop_id":29,"id":29,"geometry":"POINT(11242438.238039 1789676.623494)","attributes":{"size":"0.041130812532623","address":"Thailand","placename":"Thailand","title":"Thailand   3.8M  0%"}},{"local_stop_id":28,"id":28,"geometry":"POINT(915882.446336 5912448.054871)","attributes":{"size":"0.003659694229757","address":"Switzerland","placename":"Switzerland","title":"Switzerland   0.3M  0%"}},{"local_stop_id":27,"id":27,"geometry":"POINT(2075385.037924 8428326.96544)","attributes":{"size":"17.37529045175","address":"Sweden","placename":"Sweden","title":"Sweden   1598.1M  17.4%"}},{"local_stop_id":26,"id":26,"geometry":"POINT(-417361.261272 4933551.652462)","attributes":{"size":"3.3820040245121","address":"Spain","placename":"Spain","title":"Spain   311.1M  3.4%"}},{"local_stop_id":25,"id":25,"geometry":"POINT(2553391.487988 -3575670.675527)","attributes":{"size":"1.685879550742","address":"South Africa","placename":"South Africa","title":"South Africa   155.1M  1.7%"}},{"local_stop_id":24,"id":24,"geometry":"POINT(1669287.305369 5804618.909739)","attributes":{"size":"0.030387948946351","address":"Slovenia","placename":"Slovenia","title":"Slovenia   2.8M  0%"}},{"local_stop_id":23,"id":23,"geometry":"POINT(2192885.320804 6218887.493883)","attributes":{"size":"0.41563738255481","address":"Slovakia","placename":"Slovakia","title":"Slovakia   38.2M  0.4%"}},{"local_stop_id":22,"id":22,"geometry":"POINT(2779287.009958 5771245.404432)","attributes":{"size":"0.21821378082735","address":"Romania","placename":"Romania","title":"Romania   20.1M  0.2%"}},{"local_stop_id":21,"id":21,"geometry":"POINT(-915542.031333 4779112.741647)","attributes":{"size":"0.16601145965425","address":"Portugal","placename":"Portugal","title":"Portugal   15.3M  0.2%"}},{"local_stop_id":20,"id":20,"geometry":"POINT(2131226.790688 6785571.898792)","attributes":{"size":"0.68965776600409","address":"Poland","placename":"Poland","title":"Poland   63.4M  0.7%"}},{"local_stop_id":19,"id":19,"geometry":"POINT(942758.756276 8505587.038689)","attributes":{"size":"0.51965387068694","address":"Norway","placename":"Norway","title":"Norway   47.8M  0.5%"}},{"local_stop_id":18,"id":18,"geometry":"POINT(589021.036772 6824142.821624)","attributes":{"size":"1.3059262731117","address":"Netherlands","placename":"The Netherlands","title":"Netherlands   120.1M  1.3%"}},{"local_stop_id":17,"id":17,"geometry":"POINT(682342.058335 6414345.6274)","attributes":{"size":"1.2457069342665","address":"Luxembourg","placename":"Luxembourg","title":"Luxembourg   114.6M  1.2%"}},{"local_stop_id":16,"id":16,"geometry":"POINT(2658451.372494 7394820.260241)","attributes":{"size":"0.048223415093333","address":"Lithuania","placename":"Lithuania","title":"Lithuania   4.4M  0%"}},{"local_stop_id":15,"id":15,"geometry":"POINT(15390245.100361 4328841.562513)","attributes":{"size":"0.11800306326686","address":"Japan","placename":"Japan","title":"Japan   10.9M  0.1%"}},{"local_stop_id":14,"id":14,"geometry":"POINT(1398994.342206 5141815.937641)","attributes":{"size":"1.3014085766401","address":"Italy","placename":"Italy","title":"Italy   119.7M  1.3%"}},{"local_stop_id":13,"id":13,"geometry":"POINT(8790107.59317 2343495.165705)","attributes":{"size":"0.39769941540554","address":"India","placename":"India","title":"India   36.6M  0.4%"}},{"local_stop_id":12,"id":12,"geometry":"POINT(2171097.870066 5968637.679129)","attributes":{"size":"0.50591531718621","address":"Hungary","placename":"Hungary","title":"Hungary   46.5M  0.5%"}},{"local_stop_id":11,"id":11,"geometry":"POINT(1163458.552333 6650655.041174)","attributes":{"size":"14.212873296324","address":"Germany","placename":"Germany","title":"Germany   1307.3M  14.2%"}},{"local_stop_id":10,"id":10,"geometry":"POINT(246433.411424 5816903.713427)","attributes":{"size":"52.917169807524","address":"France","placename":"France","title":"France   4867.2M  52.9%"}},{"local_stop_id":9,"id":9,"geometry":"POINT(2866271.058188 8841170.394214)","attributes":{"size":"0.065367728846317","address":"Finland","placename":"Finland","title":"Finland   6M  0.1%"}},{"local_stop_id":8,"id":8,"geometry":"POINT(2784501.994143 8093419.123256)","attributes":{"size":"0.017353182398789","address":"Estonia","placename":"Estonia","title":"Estonia   1.6M  0%"}},{"local_stop_id":7,"id":7,"geometry":"POINT(1057733.867827 7611135.068229)","attributes":{"size":"0.02407003664406","address":"Denmark","placename":"Denmark","title":"Denmark   2.2M  0%"}},{"local_stop_id":6,"id":6,"geometry":"POINT(1722442.250904 6414728.45895)","attributes":{"size":"0.18491219712863","address":"Czech Republic","placename":"Czech Republic","title":"Czech Republic   17M  0.2%"}},{"local_stop_id":5,"id":5,"geometry":"POINT(11598978.537043 4281602.659627)","attributes":{"size":"0.0078540663632981","address":"China","placename":"China","title":"China   0.7M  0%"}},{"local_stop_id":4,"id":4,"geometry":"POINT(-5780295.728898 -1601191.813438)","attributes":{"size":"0.17311276313021","address":"Brazil","placename":"Brazil","title":"Brazil   15.9M  0.2%"}},{"local_stop_id":3,"id":3,"geometry":"POINT(497590.999399 6534001.856289)","attributes":{"size":"1.1919921155001","address":"Belgium","placename":"Belgium","title":"Belgium   109.6M  1.2%"}},{"local_stop_id":2,"id":2,"geometry":"POINT(1619706.606045 6026746.974644)","attributes":{"size":"0.801389892833","address":"Austria","placename":"Austria","title":"Austria   73.7M  0.8%"}},{"local_stop_id":1,"id":1,"geometry":"POINT(581003.807045 5812906.226917)","attributes":{"address":"Bourg-en-Bresse, FR","placename":"Bourg-en-Bresse, France","title":"RT  Bourg-en-Bresse, FR 9197.7M 71.3% \/31238 complete 1087 CKD80.2%"}}],"hops":[{"from_stop_id":2,"to_stop_id":1,"geometry":"MULTILINESTRING((1619706.606045 6026746.974644,581003.807045 5812906.226917))","attributes":{}},{"from_stop_id":3,"to_stop_id":1,"geometry":"MULTILINESTRING((497590.999399 6534001.856289,581003.807045 5812906.226917))","attributes":{}},{"from_stop_id":4,"to_stop_id":1,"geometry":"MULTILINESTRING((-5780295.728898 -1601191.813438,581003.807045 5812906.226917))","attributes":{}},{"from_stop_id":5,"to_stop_id":1,"geometry":"MULTILINESTRING((11598978.537043 4281602.659627,581003.807045 5812906.226917))","attributes":{}},{"from_stop_id":6,"to_stop_id":1,"geometry":"MULTILINESTRING((1722442.250904 6414728.45895,581003.807045 5812906.226917))","attributes":{}},{"from_stop_id":7,"to_stop_id":1,"geometry":"MULTILINESTRING((1057733.867827 7611135.068229,581003.807045 5812906.226917))","attributes":{}},{"from_stop_id":8,"to_stop_id":1,"geometry":"MULTILINESTRING((2784501.994143 8093419.123256,581003.807045 5812906.226917))","attributes":{}},{"from_stop_id":9,"to_stop_id":1,"geometry":"MULTILINESTRING((2866271.058188 8841170.394214,581003.807045 5812906.226917))","attributes":{}},{"from_stop_id":10,"to_stop_id":1,"geometry":"MULTILINESTRING((246433.411424 5816903.713427,581003.807045 5812906.226917))","attributes":{}},{"from_stop_id":11,"to_stop_id":1,"geometry":"MULTILINESTRING((1163458.552333 6650655.041174,581003.807045 5812906.226917))","attributes":{}},{"from_stop_id":12,"to_stop_id":1,"geometry":"MULTILINESTRING((2171097.870066 5968637.679129,581003.807045 5812906.226917))","attributes":{}},{"from_stop_id":13,"to_stop_id":1,"geometry":"MULTILINESTRING((8790107.59317 2343495.165705,581003.807045 5812906.226917))","attributes":{}},{"from_stop_id":14,"to_stop_id":1,"geometry":"MULTILINESTRING((1398994.342206 5141815.937641,581003.807045 5812906.226917))","attributes":{}},{"from_stop_id":15,"to_stop_id":1,"geometry":"MULTILINESTRING((15390245.100361 4328841.562513,581003.807045 5812906.226917))","attributes":{}},{"from_stop_id":16,"to_stop_id":1,"geometry":"MULTILINESTRING((2658451.372494 7394820.260241,581003.807045 5812906.226917))","attributes":{}},{"from_stop_id":17,"to_stop_id":1,"geometry":"MULTILINESTRING((682342.058335 6414345.6274,581003.807045 5812906.226917))","attributes":{}},{"from_stop_id":18,"to_stop_id":1,"geometry":"MULTILINESTRING((589021.036772 6824142.821624,581003.807045 5812906.226917))","attributes":{}},{"from_stop_id":19,"to_stop_id":1,"geometry":"MULTILINESTRING((942758.756276 8505587.038689,581003.807045 5812906.226917))","attributes":{}},{"from_stop_id":20,"to_stop_id":1,"geometry":"MULTILINESTRING((2131226.790688 6785571.898792,581003.807045 5812906.226917))","attributes":{}},{"from_stop_id":21,"to_stop_id":1,"geometry":"MULTILINESTRING((-915542.031333 4779112.741647,581003.807045 5812906.226917))","attributes":{}},{"from_stop_id":22,"to_stop_id":1,"geometry":"MULTILINESTRING((2779287.009958 5771245.404432,581003.807045 5812906.226917))","attributes":{}},{"from_stop_id":23,"to_stop_id":1,"geometry":"MULTILINESTRING((2192885.320804 6218887.493883,581003.807045 5812906.226917))","attributes":{}},{"from_stop_id":24,"to_stop_id":1,"geometry":"MULTILINESTRING((1669287.305369 5804618.909739,581003.807045 5812906.226917))","attributes":{}},{"from_stop_id":25,"to_stop_id":1,"geometry":"MULTILINESTRING((2553391.487988 -3575670.675527,581003.807045 5812906.226917))","attributes":{}},{"from_stop_id":26,"to_stop_id":1,"geometry":"MULTILINESTRING((-417361.261272 4933551.652462,581003.807045 5812906.226917))","attributes":{}},{"from_stop_id":27,"to_stop_id":1,"geometry":"MULTILINESTRING((2075385.037924 8428326.96544,581003.807045 5812906.226917))","attributes":{}},{"from_stop_id":28,"to_stop_id":1,"geometry":"MULTILINESTRING((915882.446336 5912448.054871,581003.807045 5812906.226917))","attributes":{}},{"from_stop_id":29,"to_stop_id":1,"geometry":"MULTILINESTRING((11242438.238039 1789676.623494,581003.807045 5812906.226917))","attributes":{}},{"from_stop_id":30,"to_stop_id":1,"geometry":"MULTILINESTRING((3923268.658903 4716479.684629,581003.807045 5812906.226917))","attributes":{}},{"from_stop_id":31,"to_stop_id":1,"geometry":"MULTILINESTRING((-382490.764739 7435586.530983,581003.807045 5812906.226917))","attributes":{}},{"from_stop_id":32,"to_stop_id":1,"geometry":"MULTILINESTRING((-10654710.288472 4451692.554811,581003.807045 5812906.226917))","attributes":{}},{"from_stop_id":1,"to_stop_id":33,"geometry":"MULTILINESTRING((581003.807045 5812906.226917,184748.721227 3253246.71111))","attributes":{}},{"from_stop_id":1,"to_stop_id":34,"geometry":"MULTILINESTRING((581003.807045 5812906.226917,1989711.999337 -1255100.642297))","attributes":{}},{"from_stop_id":1,"to_stop_id":35,"geometry":"MULTILINESTRING((581003.807045 5812906.226917,14891780.020321 -2909486.054997))","attributes":{}},{"from_stop_id":1,"to_stop_id":36,"geometry":"MULTILINESTRING((581003.807045 5812906.226917,1619706.606045 6026746.974644))","attributes":{}},{"from_stop_id":1,"to_stop_id":37,"geometry":"MULTILINESTRING((581003.807045 5812906.226917,5296239.287149 4886759.751808))","attributes":{}},{"from_stop_id":1,"to_stop_id":38,"geometry":"MULTILINESTRING((581003.807045 5812906.226917,3111757.029426 7115387.658402))","attributes":{}},{"from_stop_id":1,"to_stop_id":39,"geometry":"MULTILINESTRING((581003.807045 5812906.226917,497590.999399 6534001.856289))","attributes":{}},{"from_stop_id":1,"to_stop_id":40,"geometry":"MULTILINESTRING((581003.807045 5812906.226917,257797.461642 1040714.83444))","attributes":{}},{"from_stop_id":1,"to_stop_id":41,"geometry":"MULTILINESTRING((581003.807045 5812906.226917,-7078656.47219 -1838348.789522))","attributes":{}},{"from_stop_id":1,"to_stop_id":42,"geometry":"MULTILINESTRING((581003.807045 5812906.226917,2837069.618044 5271553.447419))","attributes":{}},{"from_stop_id":1,"to_stop_id":43,"geometry":"MULTILINESTRING((581003.807045 5812906.226917,-173835.737586 1372844.313774))","attributes":{}},{"from_stop_id":1,"to_stop_id":44,"geometry":"MULTILINESTRING((581003.807045 5812906.226917,3330555.154622 -375703.95736))","attributes":{}},{"from_stop_id":1,"to_stop_id":45,"geometry":"MULTILINESTRING((581003.807045 5812906.226917,1375321.361932 822665.286731))","attributes":{}},{"from_stop_id":1,"to_stop_id":46,"geometry":"MULTILINESTRING((581003.807045 5812906.226917,2330968.243574 737584.011323))","attributes":{}},{"from_stop_id":1,"to_stop_id":47,"geometry":"MULTILINESTRING((581003.807045 5812906.226917,2085259.744674 1741597.357213))","attributes":{}},{"from_stop_id":1,"to_stop_id":48,"geometry":"MULTILINESTRING((581003.807045 5812906.226917,-7964126.878919 -4256013.675159))","attributes":{}},{"from_stop_id":1,"to_stop_id":49,"geometry":"MULTILINESTRING((581003.807045 5812906.226917,-8270741.276858 509367.281339))","attributes":{}},{"from_stop_id":1,"to_stop_id":50,"geometry":"MULTILINESTRING((581003.807045 5812906.226917,1761926.94033 -25383.248614))","attributes":{}},{"from_stop_id":1,"to_stop_id":51,"geometry":"MULTILINESTRING((581003.807045 5812906.226917,-617498.12099 841780.906412))","attributes":{}},{"from_stop_id":1,"to_stop_id":52,"geometry":"MULTILINESTRING((581003.807045 5812906.226917,1692056.260058 5637278.201891))","attributes":{}},{"from_stop_id":1,"to_stop_id":53,"geometry":"MULTILINESTRING((581003.807045 5812906.226917,-8658559.903747 2454202.390949))","attributes":{}},{"from_stop_id":1,"to_stop_id":54,"geometry":"MULTILINESTRING((581003.807045 5812906.226917,3721394.881171 4181073.463265))","attributes":{}},{"from_stop_id":1,"to_stop_id":55,"geometry":"MULTILINESTRING((581003.807045 5812906.226917,1722442.250904 6414728.45895))","attributes":{}},{"from_stop_id":1,"to_stop_id":56,"geometry":"MULTILINESTRING((581003.807045 5812906.226917,2422163.396822 -449917.840172))","attributes":{}},{"from_stop_id":1,"to_stop_id":57,"geometry":"MULTILINESTRING((581003.807045 5812906.226917,1057733.867827 7611135.068229))","attributes":{}},{"from_stop_id":1,"to_stop_id":58,"geometry":"MULTILINESTRING((581003.807045 5812906.226917,4741127.725745 1325814.408765))","attributes":{}},{"from_stop_id":1,"to_stop_id":59,"geometry":"MULTILINESTRING((581003.807045 5812906.226917,-8703336.944404 -203887.308284))","attributes":{}},{"from_stop_id":1,"to_stop_id":60,"geometry":"MULTILINESTRING((581003.807045 5812906.226917,3428918.392521 3101070.050794))","attributes":{}},{"from_stop_id":1,"to_stop_id":61,"geometry":"MULTILINESTRING((581003.807045 5812906.226917,1143016.842919 183791.756876))","attributes":{}},{"from_stop_id":1,"to_stop_id":62,"geometry":"MULTILINESTRING((581003.807045 5812906.226917,2784501.994143 8093419.123256))","attributes":{}},{"from_stop_id":1,"to_stop_id":63,"geometry":"MULTILINESTRING((581003.807045 5812906.226917,4507289.780746 1022366.88618))","attributes":{}},{"from_stop_id":1,"to_stop_id":64,"geometry":"MULTILINESTRING((581003.807045 5812906.226917,2866271.058188 8841170.394214))","attributes":{}},{"from_stop_id":1,"to_stop_id":65,"geometry":"MULTILINESTRING((581003.807045 5812906.226917,246433.411424 5816903.713427))","attributes":{}},{"from_stop_id":1,"to_stop_id":66,"geometry":"MULTILINESTRING((581003.807045 5812906.226917,-16631893.683791 -2000096.713687))","attributes":{}},{"from_stop_id":1,"to_stop_id":67,"geometry":"MULTILINESTRING((581003.807045 5812906.226917,1292357.394473 -89469.184236))","attributes":{}},{"from_stop_id":1,"to_stop_id":68,"geometry":"MULTILINESTRING((581003.807045 5812906.226917,1163458.552333 6650655.041174))","attributes":{}},{"from_stop_id":1,"to_stop_id":69,"geometry":"MULTILINESTRING((581003.807045 5812906.226917,-113901.435063 887453.057712))","attributes":{}},{"from_stop_id":1,"to_stop_id":70,"geometry":"MULTILINESTRING((581003.807045 5812906.226917,-10044442.145771 1779661.011764))","attributes":{}},{"from_stop_id":1,"to_stop_id":71,"geometry":"MULTILINESTRING((581003.807045 5812906.226917,-1079425.583803 1112739.818908))","attributes":{}},{"from_stop_id":1,"to_stop_id":72,"geometry":"MULTILINESTRING((581003.807045 5812906.226917,-6560077.629956 541709.129825))","attributes":{}},{"from_stop_id":1,"to_stop_id":73,"geometry":"MULTILINESTRING((581003.807045 5812906.226917,-8046753.325682 2151543.94475))","attributes":{}},{"from_stop_id":1,"to_stop_id":74,"geometry":"MULTILINESTRING((581003.807045 5812906.226917,2171097.870066 5968637.679129))","attributes":{}},{"from_stop_id":1,"to_stop_id":75,"geometry":"MULTILINESTRING((581003.807045 5812906.226917,-2117389.666663 9598645.705352))","attributes":{}},{"from_stop_id":1,"to_stop_id":76,"geometry":"MULTILINESTRING((581003.807045 5812906.226917,12681664.112134 -87864.470043))","attributes":{}},{"from_stop_id":1,"to_stop_id":77,"geometry":"MULTILINESTRING((581003.807045 5812906.226917,4862356.432331 3924966.445386))","attributes":{}},{"from_stop_id":1,"to_stop_id":78,"geometry":"MULTILINESTRING((581003.807045 5812906.226917,-917705.636956 7059743.327002))","attributes":{}},{"from_stop_id":1,"to_stop_id":79,"geometry":"MULTILINESTRING((581003.807045 5812906.226917,3879663.701165 3638731.187583))","attributes":{}},{"from_stop_id":1,"to_stop_id":80,"geometry":"MULTILINESTRING((581003.807045 5812906.226917,1398994.342206 5141815.937641))","attributes":{}},{"from_stop_id":1,"to_stop_id":81,"geometry":"MULTILINESTRING((581003.807045 5812906.226917,7449910.42489 6110111.702601))","attributes":{}},{"from_stop_id":1,"to_stop_id":82,"geometry":"MULTILINESTRING((581003.807045 5812906.226917,4219698.102672 -2622.575957))","attributes":{}},{"from_stop_id":1,"to_stop_id":83,"geometry":"MULTILINESTRING((581003.807045 5812906.226917,5285646.013085 3415373.48796))","attributes":{}},{"from_stop_id":1,"to_stop_id":84,"geometry":"MULTILINESTRING((581003.807045 5812906.226917,2738814.471371 7735556.799888))","attributes":{}},{"from_stop_id":1,"to_stop_id":85,"geometry":"MULTILINESTRING((581003.807045 5812906.226917,3992171.304883 4009311.247656))","attributes":{}},{"from_stop_id":1,"to_stop_id":86,"geometry":"MULTILINESTRING((581003.807045 5812906.226917,-1049687.027116 717073.663481))","attributes":{}},{"from_stop_id":1,"to_stop_id":87,"geometry":"MULTILINESTRING((581003.807045 5812906.226917,1917849.034138 3040644.059011))","attributes":{}},{"from_stop_id":1,"to_stop_id":88,"geometry":"MULTILINESTRING((581003.807045 5812906.226917,2658451.372494 7394820.260241))","attributes":{}},{"from_stop_id":1,"to_stop_id":89,"geometry":"MULTILINESTRING((581003.807045 5812906.226917,682342.058335 6414345.6274))","attributes":{}},{"from_stop_id":1,"to_stop_id":90,"geometry":"MULTILINESTRING((581003.807045 5812906.226917,5217445.125175 -2127516.82188))","attributes":{}},{"from_stop_id":1,"to_stop_id":91,"geometry":"MULTILINESTRING((581003.807045 5812906.226917,-444851.164245 1987359.399603))","attributes":{}},{"from_stop_id":1,"to_stop_id":92,"geometry":"MULTILINESTRING((581003.807045 5812906.226917,-6793179.97576 1647921.847137))","attributes":{}},{"from_stop_id":1,"to_stop_id":93,"geometry":"MULTILINESTRING((581003.807045 5812906.226917,-1217928.181053 2392819.411011))","attributes":{}},{"from_stop_id":1,"to_stop_id":94,"geometry":"MULTILINESTRING((581003.807045 5812906.226917,6406676.254697 -2314350.159717))","attributes":{}},{"from_stop_id":1,"to_stop_id":95,"geometry":"MULTILINESTRING((581003.807045 5812906.226917,5027883.283125 -1440031.368374))","attributes":{}},{"from_stop_id":1,"to_stop_id":96,"geometry":"MULTILINESTRING((581003.807045 5812906.226917,-789546.84679 3735999.22766))","attributes":{}},{"from_stop_id":1,"to_stop_id":97,"geometry":"MULTILINESTRING((581003.807045 5812906.226917,589021.036772 6824142.821624))","attributes":{}},{"from_stop_id":1,"to_stop_id":98,"geometry":"MULTILINESTRING((581003.807045 5812906.226917,18436516.101619 -2380471.632631))","attributes":{}},{"from_stop_id":1,"to_stop_id":99,"geometry":"MULTILINESTRING((581003.807045 5812906.226917,19468217.238607 -4997684.890551))","attributes":{}},{"from_stop_id":1,"to_stop_id":100,"geometry":"MULTILINESTRING((581003.807045 5812906.226917,899646.943881 1991691.558385))","attributes":{}},{"from_stop_id":1,"to_stop_id":101,"geometry":"MULTILINESTRING((581003.807045 5812906.226917,965727.418131 1015263.983184))","attributes":{}},{"from_stop_id":1,"to_stop_id":102,"geometry":"MULTILINESTRING((581003.807045 5812906.226917,942758.756276 8505587.038689))","attributes":{}},{"from_stop_id":1,"to_stop_id":103,"geometry":"MULTILINESTRING((581003.807045 5812906.226917,6225348.270102 2453104.641232))","attributes":{}},{"from_stop_id":1,"to_stop_id":104,"geometry":"MULTILINESTRING((581003.807045 5812906.226917,-8992625.242838 953980.901355))","attributes":{}},{"from_stop_id":1,"to_stop_id":105,"geometry":"MULTILINESTRING((581003.807045 5812906.226917,16025058.522866 -704409.432655))","attributes":{}},{"from_stop_id":1,"to_stop_id":106,"geometry":"MULTILINESTRING((581003.807045 5812906.226917,-8350648.52242 -1027437.355768))","attributes":{}},{"from_stop_id":1,"to_stop_id":107,"geometry":"MULTILINESTRING((581003.807045 5812906.226917,2131226.790688 6785571.898792))","attributes":{}},{"from_stop_id":1,"to_stop_id":108,"geometry":"MULTILINESTRING((581003.807045 5812906.226917,-915542.031333 4779112.741647))","attributes":{}},{"from_stop_id":1,"to_stop_id":109,"geometry":"MULTILINESTRING((581003.807045 5812906.226917,5697763.903702 2919390.332888))","attributes":{}},{"from_stop_id":1,"to_stop_id":110,"geometry":"MULTILINESTRING((581003.807045 5812906.226917,6182281.98738 -2405613.229384))","attributes":{}},{"from_stop_id":1,"to_stop_id":111,"geometry":"MULTILINESTRING((581003.807045 5812906.226917,2779287.009958 5771245.404432))","attributes":{}},{"from_stop_id":1,"to_stop_id":112,"geometry":"MULTILINESTRING((581003.807045 5812906.226917,11724030.288901 8747149.04879))","attributes":{}},{"from_stop_id":1,"to_stop_id":113,"geometry":"MULTILINESTRING((581003.807045 5812906.226917,5018189.359227 2739515.791932))","attributes":{}},{"from_stop_id":1,"to_stop_id":114,"geometry":"MULTILINESTRING((581003.807045 5812906.226917,-1608829.5786 1631344.630706))","attributes":{}},{"from_stop_id":1,"to_stop_id":115,"geometry":"MULTILINESTRING((581003.807045 5812906.226917,2338361.527555 5467999.202178))","attributes":{}},{"from_stop_id":1,"to_stop_id":116,"geometry":"MULTILINESTRING((581003.807045 5812906.226917,2192885.320804 6218887.493883))","attributes":{}},{"from_stop_id":1,"to_stop_id":117,"geometry":"MULTILINESTRING((581003.807045 5812906.226917,1669287.305369 5804618.909739))","attributes":{}},{"from_stop_id":1,"to_stop_id":118,"geometry":"MULTILINESTRING((581003.807045 5812906.226917,2553391.487988 -3575670.675527))","attributes":{}},{"from_stop_id":1,"to_stop_id":119,"geometry":"MULTILINESTRING((581003.807045 5812906.226917,-417361.261272 4933551.652462))","attributes":{}},{"from_stop_id":1,"to_stop_id":120,"geometry":"MULTILINESTRING((581003.807045 5812906.226917,3363811.852496 1444062.609719))","attributes":{}},{"from_stop_id":1,"to_stop_id":121,"geometry":"MULTILINESTRING((581003.807045 5812906.226917,915882.446336 5912448.054871))","attributes":{}},{"from_stop_id":1,"to_stop_id":122,"geometry":"MULTILINESTRING((581003.807045 5812906.226917,4341105.588359 4137016.351319))","attributes":{}},{"from_stop_id":1,"to_stop_id":123,"geometry":"MULTILINESTRING((581003.807045 5812906.226917,3883805.899417 -710461.619568))","attributes":{}},{"from_stop_id":1,"to_stop_id":124,"geometry":"MULTILINESTRING((581003.807045 5812906.226917,91814.312255 963163.074994))","attributes":{}},{"from_stop_id":1,"to_stop_id":125,"geometry":"MULTILINESTRING((581003.807045 5812906.226917,-6815257.85905 1197174.420926))","attributes":{}},{"from_stop_id":1,"to_stop_id":126,"geometry":"MULTILINESTRING((581003.807045 5812906.226917,1061709.532121 4013627.830394))","attributes":{}},{"from_stop_id":1,"to_stop_id":127,"geometry":"MULTILINESTRING((581003.807045 5812906.226917,3923268.658903 4716479.684629))","attributes":{}},{"from_stop_id":1,"to_stop_id":128,"geometry":"MULTILINESTRING((581003.807045 5812906.226917,3469336.495877 6170212.711441))","attributes":{}},{"from_stop_id":1,"to_stop_id":129,"geometry":"MULTILINESTRING((581003.807045 5812906.226917,5994311.680089 2683384.657664))","attributes":{}},{"from_stop_id":1,"to_stop_id":130,"geometry":"MULTILINESTRING((581003.807045 5812906.226917,-382490.764739 7435586.530983))","attributes":{}},{"from_stop_id":1,"to_stop_id":131,"geometry":"MULTILINESTRING((581003.807045 5812906.226917,-6207824.355862 -3832130.824994))","attributes":{}},{"from_stop_id":1,"to_stop_id":132,"geometry":"MULTILINESTRING((581003.807045 5812906.226917,-8578169.108581 4707901.043596))","attributes":{}},{"from_stop_id":1,"to_stop_id":133,"geometry":"MULTILINESTRING((581003.807045 5812906.226917,-6207824.355862 -3832130.824994))","attributes":{}},{"from_stop_id":1,"to_stop_id":134,"geometry":"MULTILINESTRING((581003.807045 5812906.226917,-8578169.108581 4707901.043596))","attributes":{}},{"from_stop_id":1,"to_stop_id":135,"geometry":"MULTILINESTRING((581003.807045 5812906.226917,-7081775.533003 -4638374.275084))","attributes":{}},{"from_stop_id":1,"to_stop_id":136,"geometry":"MULTILINESTRING((581003.807045 5812906.226917,5238756.540375 4646601.874365))","attributes":{}},{"from_stop_id":1,"to_stop_id":137,"geometry":"MULTILINESTRING((581003.807045 5812906.226917,-789546.84679 3735999.22766))","attributes":{}},{"from_stop_id":1,"to_stop_id":138,"geometry":"MULTILINESTRING((581003.807045 5812906.226917,2553391.487988 -3575670.675527))","attributes":{}},{"from_stop_id":1,"to_stop_id":139,"geometry":"MULTILINESTRING((581003.807045 5812906.226917,-6207824.355862 -3832130.824994))","attributes":{}}]},"editable":false}