{"type":"FeatureCollection","features":[{"type":"Feature","geometry":{"type":"Point","coordinates":[133.775136,-25.274397999999]},"properties":{"size":"3.9700255102041","address":"Australia","placename":"Australia","title":"Australia CKD  1245  Unit  4%"}},{"type":"Feature","geometry":{"type":"Point","coordinates":[9.5374989999968,33.886917000001]},"properties":{"size":"0.80357142857143","address":"Tunisia","placename":"Tunisia","title":"Tunisia CKD  252  Unit  0.8%"}},{"type":"Feature","geometry":{"type":"Point","coordinates":[100.992541,15.870032]},"properties":{"size":"3.3960459183673","address":"Thailand","placename":"Thailand","title":"Thailand CKD  1065  Unit  3.4%"}},{"type":"Feature","geometry":{"type":"Point","coordinates":[120.960515,23.697810000004]},"properties":{"size":"1.0586734693878","address":"Taiwan","placename":"Taiwan","title":"Taiwan CKD  332  Unit  1.1%"}},{"type":"Feature","geometry":{"type":"Point","coordinates":[-7.0926199999983,31.791702]},"properties":{"size":"0.92474489795918","address":"Marocco","placename":"Morocco","title":"Marocco CKD  290  Unit  0.9%"}},{"type":"Feature","geometry":{"type":"Point","coordinates":[101.975766,4.2104840000023]},"properties":{"size":"0.90880102040816","address":"Malaysia","placename":"Malaysia","title":"Malaysia CKD  285  Unit  0.9%"}},{"type":"Feature","geometry":{"type":"Point","coordinates":[53.688046000001,32.427908000001]},"properties":{"size":"13.673469387755","address":"Iran","placename":"Iran","title":"Iran CKD  4288  Unit  13.7%"}},{"type":"Feature","geometry":{"type":"Point","coordinates":[45.079161999996,23.885942]},"properties":{"size":"5.2551020408163","address":"Saudi Arabia","placename":"Saudi Arabia","title":"Saudi Arabia CKD  1648  Unit  5.3%"}},{"type":"Feature","geometry":{"type":"Point","coordinates":[22.937506000003,-30.559481999999]},"properties":{"size":"4.5854591836735","address":"South Africa","placename":"South Africa","title":"South Africa CKD  1438  Unit  4.6%"}},{"type":"Feature","geometry":{"type":"Point","coordinates":[78.962879999997,20.593684000004]},"properties":{"size":"1.9642857142857","address":"India","placename":"India","title":"India CKD  616  Unit  2%"}},{"type":"Feature","geometry":{"type":"Point","coordinates":[48.516388000001,15.552727]},"properties":{"size":"0.01594387755102","address":"YEMEN R","placename":"Yemen","title":"YEMEN R   5  Unit  0%"}},{"type":"Feature","geometry":{"type":"Point","coordinates":[0,0]},"properties":{"size":"0.27423469387755","address":"UKRAINE","title":"UKRAINE   86  Unit  0.3%"}},{"type":"Feature","geometry":{"type":"Point","coordinates":[53.847818000001,23.424076000003]},"properties":{"size":"0.97576530612245","address":"UAE","placename":"United Arab Emirates","title":"UAE   306  Unit  1%"}},{"type":"Feature","geometry":{"type":"Point","coordinates":[35.243321999997,38.963745000001]},"properties":{"size":"0.77168367346939","address":"TURKEY","placename":"Turkey","title":"TURKEY   242  Unit  0.8%"}},{"type":"Feature","geometry":{"type":"Point","coordinates":[9.5374989999968,33.886917000001]},"properties":{"size":"0.24234693877551","address":"TUNISIA","placename":"Tunisia","title":"TUNISIA   76  Unit  0.2%"}},{"type":"Feature","geometry":{"type":"Point","coordinates":[100.992541,15.870032]},"properties":{"size":"0.10522959183673","address":"THAILAND","placename":"Thailand","title":"THAILAND   33  Unit  0.1%"}},{"type":"Feature","geometry":{"type":"Point","coordinates":[34.888821999999,-6.3690280000008]},"properties":{"size":"0.012755102040816","address":"TANZANIA","placename":"Tanzania","title":"TANZANIA   4  Unit  0%"}},{"type":"Feature","geometry":{"type":"Point","coordinates":[120.960515,23.697810000004]},"properties":{"size":"0.0031887755102041","address":"TAIWAN","placename":"Taiwan","title":"TAIWAN   1  Unit  0%"}},{"type":"Feature","geometry":{"type":"Point","coordinates":[38.996814999996,34.802074999999]},"properties":{"size":"0.15625","address":"SYRIA","placename":"Syria","title":"SYRIA   49  Unit  0.2%"}},{"type":"Feature","geometry":{"type":"Point","coordinates":[8.2275120000041,46.818187999999]},"properties":{"size":"0.33801020408163","address":"SWITZERLAND","placename":"Switzerland","title":"SWITZERLAND   106  Unit  0.3%"}},{"type":"Feature","geometry":{"type":"Point","coordinates":[18.643501000001,60.128160999999]},"properties":{"size":"6.3073979591837","address":"SWEDEN","placename":"Sweden","title":"SWEDEN   1978  Unit  6.3%"}},{"type":"Feature","geometry":{"type":"Point","coordinates":[30.217635999996,12.862807000002]},"properties":{"size":"0.20408163265306","address":"SUDAN","placename":"Sudan","title":"SUDAN   64  Unit  0.2%"}},{"type":"Feature","geometry":{"type":"Point","coordinates":[-3.7492200000004,40.463667000002]},"properties":{"size":"0.50063775510204","address":"SPAIN","placename":"Spain","title":"SPAIN   157  Unit  0.5%"}},{"type":"Feature","geometry":{"type":"Point","coordinates":[14.995462999997,46.151240999997]},"properties":{"size":"0.21045918367347","address":"SLOVENIA","placename":"Slovenia","title":"SLOVENIA   66  Unit  0.2%"}},{"type":"Feature","geometry":{"type":"Point","coordinates":[-75.679209999998,45.44389]},"properties":{"size":"0.59311224489796","address":"SLOVAK REP","placename":"Slovak Republic Embassy of The, 50 Rideau Terr, Ottawa, ON K1M, Canada","title":"SLOVAK REP   186  Unit  0.6%"}},{"type":"Feature","geometry":{"type":"Point","coordinates":[103.819836,1.3520830000039]},"properties":{"size":"0.29017857142857","address":"SINGAPORE","placename":"Singapore","title":"SINGAPORE   91  Unit  0.3%"}},{"type":"Feature","geometry":{"type":"Point","coordinates":[21.005858999997,44.016521000002]},"properties":{"size":"0.066964285714286","address":"SERBIA","placename":"Serbia","title":"SERBIA   21  Unit  0.1%"}},{"type":"Feature","geometry":{"type":"Point","coordinates":[31.222366099998,30.0976491]},"properties":{"size":"0.4719387755102","address":"SAUDI","placename":"Al Saudi, Warraq Al Arab, Al Warraq, Giza, Egypt","title":"SAUDI   148  Unit  0.5%"}},{"type":"Feature","geometry":{"type":"Point","coordinates":[22.937506000003,-30.559481999999]},"properties":{"size":"0.72385204081633","address":"S.AFRICA","placename":"South Africa","title":"S.AFRICA   227  Unit  0.7%"}},{"type":"Feature","geometry":{"type":"Point","coordinates":[127.766922,35.907756999999]},"properties":{"size":"4.0561224489796","address":"S KOREA","placename":"South Korea","title":"S KOREA   1272  Unit  4.1%"}},{"type":"Feature","geometry":{"type":"Point","coordinates":[105.318756,61.52401]},"properties":{"size":"2.1524234693878","address":"RUSSIA","placename":"Russia","title":"RUSSIA   675  Unit  2.2%"}},{"type":"Feature","geometry":{"type":"Point","coordinates":[24.966760000001,45.943161000003]},"properties":{"size":"0.87372448979592","address":"ROMANIA","placename":"Romania","title":"ROMANIA   274  Unit  0.9%"}},{"type":"Feature","geometry":{"type":"Point","coordinates":[15.827659000004,-0.22802099999814]},"properties":{"size":"0.031887755102041","address":"REP. CONGO","placename":"Congo","title":"REP. CONGO   10  Unit  0%"}},{"type":"Feature","geometry":{"type":"Point","coordinates":[51.183884,25.354825999999]},"properties":{"size":"0.11479591836735","address":"QATAR","placename":"Qatar","title":"QATAR   36  Unit  0.1%"}},{"type":"Feature","geometry":{"type":"Point","coordinates":[-8.2244540000027,39.399871999999]},"properties":{"size":"0.07015306122449","address":"PORTUGAL","placename":"Portugal","title":"PORTUGAL   22  Unit  0.1%"}},{"type":"Feature","geometry":{"type":"Point","coordinates":[19.145136,51.919437999998]},"properties":{"size":"1.5625","address":"POLAND","placename":"Poland","title":"POLAND   490  Unit  1.6%"}},{"type":"Feature","geometry":{"type":"Point","coordinates":[121.774017,12.879720999999]},"properties":{"size":"0.3093112244898","address":"PHILLIPINES","placename":"Philippines","title":"PHILLIPINES   97  Unit  0.3%"}},{"type":"Feature","geometry":{"type":"Point","coordinates":[-75.015152,-9.1899670000004]},"properties":{"size":"3.1186224489796","address":"PERU","placename":"Peru","title":"PERU   978  Unit  3.1%"}},{"type":"Feature","geometry":{"type":"Point","coordinates":[35.233154,31.952162000002]},"properties":{"size":"0.038265306122449","address":"PALESTINE","placename":"","title":"PALESTINE   12  Unit  0%"}},{"type":"Feature","geometry":{"type":"Point","coordinates":[69.345115999996,30.375321000001]},"properties":{"size":"0.012755102040816","address":"PAKISTAN","placename":"Pakistan","title":"PAKISTAN   4  Unit  0%"}},{"type":"Feature","geometry":{"type":"Point","coordinates":[55.923254999996,21.512583000003]},"properties":{"size":"0.55484693877551","address":"OMAN","placename":"Oman","title":"OMAN   174  Unit  0.6%"}},{"type":"Feature","geometry":{"type":"Point","coordinates":[8.4689460000024,60.472024]},"properties":{"size":"3.5522959183673","address":"NORWAY","placename":"Norway","title":"NORWAY   1114  Unit  3.6%"}},{"type":"Feature","geometry":{"type":"Point","coordinates":[5.2912660000021,52.132633000001]},"properties":{"size":"0.97576530612245","address":"NETHERLANDS","placename":"The Netherlands","title":"NETHERLANDS   306  Unit  1%"}},{"type":"Feature","geometry":{"type":"Point","coordinates":[-7.0926199999983,31.791702]},"properties":{"size":"1.218112244898","address":"MOROCCO","placename":"Morocco","title":"MOROCCO   382  Unit  1.2%"}},{"type":"Feature","geometry":{"type":"Point","coordinates":[19.374389999997,42.708678]},"properties":{"size":"0.0063775510204082","address":"MONTENEGRO","placename":"Montenegro","title":"MONTENEGRO   2  Unit  0%"}},{"type":"Feature","geometry":{"type":"Point","coordinates":[28.369885000002,47.411630999998]},"properties":{"size":"0.0095663265306122","address":"MOLDOVA","placename":"Moldova","title":"MOLDOVA   3  Unit  0%"}},{"type":"Feature","geometry":{"type":"Point","coordinates":[101.975766,4.2104840000023]},"properties":{"size":"0.0095663265306122","address":"MALAYSIA","placename":"Malaysia","title":"MALAYSIA   3  Unit  0%"}},{"type":"Feature","geometry":{"type":"Point","coordinates":[21.745275000003,41.608635000001]},"properties":{"size":"0.073341836734694","address":"MACEDONIA","placename":"Macedonia (FYROM)","title":"MACEDONIA   23  Unit  0.1%"}},{"type":"Feature","geometry":{"type":"Point","coordinates":[23.881274999999,55.169437999999]},"properties":{"size":"1.5051020408163","address":"LITHUANIA","placename":"Lithuania","title":"LITHUANIA   472  Unit  1.5%"}},{"type":"Feature","geometry":{"type":"Point","coordinates":[35.862284999998,33.854721000002]},"properties":{"size":"0.022321428571429","address":"LEBANON","placename":"Lebanon","title":"LEBANON   7  Unit  0%"}},{"type":"Feature","geometry":{"type":"Point","coordinates":[24.603189000003,56.879635000001]},"properties":{"size":"1.3807397959184","address":"LATVIA","placename":"Latvia","title":"LATVIA   433  Unit  1.4%"}},{"type":"Feature","geometry":{"type":"Point","coordinates":[47.481765999997,29.311660000002]},"properties":{"size":"0.092474489795918","address":"KUWAIT","placename":"Kuwait","title":"KUWAIT   29  Unit  0.1%"}},{"type":"Feature","geometry":{"type":"Point","coordinates":[37.906193000004,-0.023558999995522]},"properties":{"size":"0.19132653061224","address":"KENYA","placename":"Kenya","title":"KENYA   60  Unit  0.2%"}},{"type":"Feature","geometry":{"type":"Point","coordinates":[66.923684,48.019573000002]},"properties":{"size":"0.0063775510204082","address":"KAZAKHSTAN","placename":"Kazakhstan","title":"KAZAKHSTAN   2  Unit  0%"}},{"type":"Feature","geometry":{"type":"Point","coordinates":[36.238414000001,30.585164000002]},"properties":{"size":"0.012755102040816","address":"JORDAN","placename":"Jordan","title":"JORDAN   4  Unit  0%"}},{"type":"Feature","geometry":{"type":"Point","coordinates":[138.252924,36.204824000001]},"properties":{"size":"0.72704081632653","address":"JAPAN","placename":"Japan","title":"JAPAN   228  Unit  0.7%"}},{"type":"Feature","geometry":{"type":"Point","coordinates":[12.567380000004,41.871939999999]},"properties":{"size":"0.73022959183673","address":"ITALY","placename":"Italy","title":"ITALY   229  Unit  0.7%"}},{"type":"Feature","geometry":{"type":"Point","coordinates":[34.851612000002,31.046051]},"properties":{"size":"0.58992346938776","address":"ISRAEL","placename":"Israel","title":"ISRAEL   185  Unit  0.6%"}},{"type":"Feature","geometry":{"type":"Point","coordinates":[43.679290999998,33.223191000003]},"properties":{"size":"0.13073979591837","address":"IRAQ","placename":"Iraq","title":"IRAQ   41  Unit  0.1%"}},{"type":"Feature","geometry":{"type":"Point","coordinates":[0,0]},"properties":{"size":"0.0031887755102041","address":"IRAN","title":"IRAN   1  Unit  0%"}},{"type":"Feature","geometry":{"type":"Point","coordinates":[113.921327,-0.78927499999687]},"properties":{"size":"2.1747448979592","address":"INDONESIA","placename":"Indonesia","title":"INDONESIA   682  Unit  2.2%"}},{"type":"Feature","geometry":{"type":"Point","coordinates":[78.962879999997,20.593684000004]},"properties":{"size":"0.076530612244898","address":"INDIA","placename":"India","title":"INDIA   24  Unit  0.1%"}},{"type":"Feature","geometry":{"type":"Point","coordinates":[-19.020835000001,64.963051000002]},"properties":{"size":"0.028698979591837","address":"ICELAND","placename":"Iceland","title":"ICELAND   9  Unit  0%"}},{"type":"Feature","geometry":{"type":"Point","coordinates":[19.503303999996,47.162493999998]},"properties":{"size":"0.19770408163265","address":"HUNGARY","placename":"Hungary","title":"HUNGARY   62  Unit  0.2%"}},{"type":"Feature","geometry":{"type":"Point","coordinates":[114.109497,22.396428000004]},"properties":{"size":"0.0063775510204082","address":"HONGKONG","placename":"Hong Kong","title":"HONGKONG   2  Unit  0%"}},{"type":"Feature","geometry":{"type":"Point","coordinates":[21.824312000004,39.074207999997]},"properties":{"size":"0.041454081632653","address":"GREECE","placename":"Greece","title":"GREECE   13  Unit  0%"}},{"type":"Feature","geometry":{"type":"Point","coordinates":[-1.0231940000024,7.9465270000027]},"properties":{"size":"0.044642857142857","address":"GHANA","placename":"Ghana","title":"GHANA   14  Unit  0%"}},{"type":"Feature","geometry":{"type":"Point","coordinates":[10.451526000003,51.165690999999]},"properties":{"size":"2.8316326530612","address":"GERMANY","placename":"Germany","title":"GERMANY   888  Unit  2.8%"}},{"type":"Feature","geometry":{"type":"Point","coordinates":[-3.4359729999961,55.378051000001]},"properties":{"size":"3.3227040816327","address":"G.BRITAIN","placename":"United Kingdom","title":"G.BRITAIN   1042  Unit  3.3%"}},{"type":"Feature","geometry":{"type":"Point","coordinates":[2.2137489999989,46.227638]},"properties":{"size":"2.2161989795918","address":"FRANCE","placename":"France","title":"FRANCE   695  Unit  2.2%"}},{"type":"Feature","geometry":{"type":"Point","coordinates":[25.748150999997,61.924109999999]},"properties":{"size":"2.4043367346939","address":"FINLAND","placename":"Finland","title":"FINLAND   754  Unit  2.4%"}},{"type":"Feature","geometry":{"type":"Point","coordinates":[0,0]},"properties":{"size":"0.019132653061224","address":"EUD PULL PRODUCTION","title":"EUD PULL PRODUCTION   6  Unit  0%"}},{"type":"Feature","geometry":{"type":"Point","coordinates":[40.489672999999,9.1449999999959]},"properties":{"size":"0.67602040816327","address":"ETHIOPIA","placename":"Ethiopia","title":"ETHIOPIA   212  Unit  0.7%"}},{"type":"Feature","geometry":{"type":"Point","coordinates":[25.013606999999,58.595272000001]},"properties":{"size":"0.59630102040816","address":"ESTONIA","placename":"Estonia","title":"ESTONIA   187  Unit  0.6%"}},{"type":"Feature","geometry":{"type":"Point","coordinates":[30.802498000002,26.820553000001]},"properties":{"size":"0.13073979591837","address":"EGYPT","placename":"Egypt","title":"EGYPT   41  Unit  0.1%"}},{"type":"Feature","geometry":{"type":"Point","coordinates":[-78.183406000002,-1.8312390000011]},"properties":{"size":"0.041454081632653","address":"ECUADOR","placename":"Ecuador","title":"ECUADOR   13  Unit  0%"}},{"type":"Feature","geometry":{"type":"Point","coordinates":[0,0]},"properties":{"size":"0.01594387755102","address":"DOM REP","title":"DOM REP   5  Unit  0%"}},{"type":"Feature","geometry":{"type":"Point","coordinates":[9.5017849999985,56.263920000001]},"properties":{"size":"3.1696428571429","address":"DENMARK","placename":"Denmark","title":"DENMARK   994  Unit  3.2%"}},{"type":"Feature","geometry":{"type":"Point","coordinates":[15.472962000003,49.817492]},"properties":{"size":"0.58354591836735","address":"CZECH REP","placename":"Czech Republic","title":"CZECH REP   183  Unit  0.6%"}},{"type":"Feature","geometry":{"type":"Point","coordinates":[15.200000000002,45.100000000003]},"properties":{"size":"0.11160714285714","address":"CROATIA","placename":"Croatia","title":"CROATIA   35  Unit  0.1%"}},{"type":"Feature","geometry":{"type":"Point","coordinates":[15.827659000004,-0.22802099999814]},"properties":{"size":"0.01594387755102","address":"CONGO","placename":"Congo","title":"CONGO   5  Unit  0%"}},{"type":"Feature","geometry":{"type":"Point","coordinates":[-74.297332999997,4.5708679999982]},"properties":{"size":"0.20727040816327","address":"COLOMBIA","placename":"Colombia","title":"COLOMBIA   65  Unit  0.2%"}},{"type":"Feature","geometry":{"type":"Point","coordinates":[104.195397,35.861660000001]},"properties":{"size":"3.4917091836735","address":"CHINA","placename":"China","title":"CHINA   1095  Unit  3.5%"}},{"type":"Feature","geometry":{"type":"Point","coordinates":[-71.542969,-35.675146999998]},"properties":{"size":"1.3871173469388","address":"CHILE","placename":"Chile","title":"CHILE   435  Unit  1.4%"}},{"type":"Feature","geometry":{"type":"Point","coordinates":[25.485830000001,42.733883000002]},"properties":{"size":"0.16581632653061","address":"BULGARIA","placename":"Bulgaria","title":"BULGARIA   52  Unit  0.2%"}},{"type":"Feature","geometry":{"type":"Point","coordinates":[17.679076000004,43.915885999999]},"properties":{"size":"0.0095663265306122","address":"BOSNIA-HERZEGOVINA","placename":"Bosnia and Herzegovina","title":"BOSNIA-HERZEGOVINA   3  Unit  0%"}},{"type":"Feature","geometry":{"type":"Point","coordinates":[4.4699360000043,50.503887000001]},"properties":{"size":"0.92474489795918","address":"BELGIUM","placename":"Belgium","title":"BELGIUM   290  Unit  0.9%"}},{"type":"Feature","geometry":{"type":"Point","coordinates":[27.953388999997,53.709807000002]},"properties":{"size":"0.48469387755102","address":"BELARUS","placename":"Belarus","title":"BELARUS   152  Unit  0.5%"}},{"type":"Feature","geometry":{"type":"Point","coordinates":[90.356330999996,23.684993999998]},"properties":{"size":"0.022321428571429","address":"BANGLADESH","placename":"Bangladesh","title":"BANGLADESH   7  Unit  0%"}},{"type":"Feature","geometry":{"type":"Point","coordinates":[14.550071999996,47.516230999997]},"properties":{"size":"0.32206632653061","address":"AUSTRIA","placename":"Austria","title":"AUSTRIA   101  Unit  0.3%"}},{"type":"Feature","geometry":{"type":"Point","coordinates":[133.775136,-25.274397999999]},"properties":{"size":"0.057397959183673","address":"AUSTRALIA","placename":"Australia","title":"AUSTRALIA   18  Unit  0.1%"}},{"type":"Feature","geometry":{"type":"Point","coordinates":[17.873887000004,-11.202692000003]},"properties":{"size":"1.0267857142857","address":"ANGOLA","placename":"Angola","title":"ANGOLA   322  Unit  1%"}},{"type":"Feature","geometry":{"type":"Point","coordinates":[1.6596259999975,28.033885999997]},"properties":{"size":"0.25829081632653","address":"ALGERIA","placename":"Algeria","title":"ALGERIA   81  Unit  0.3%"}},{"type":"Feature","geometry":{"type":"Point","coordinates":[18.643501000001,60.128160999999]},"properties":{"size":"32.700501919823","address":"Sweden","placename":"Sweden","title":"Sweden   59M  32.7%"}},{"type":"Feature","geometry":{"type":"Point","coordinates":[-3.7492200000004,40.463667000002]},"properties":{"size":"5.9814749638726","address":"Spain","placename":"Spain","title":"Spain   10.8M  6%"}},{"type":"Feature","geometry":{"type":"Point","coordinates":[174.885971,-40.900556999999]},"properties":{"size":"5.7292331872093","address":"New Zealand","placename":"New Zealand","title":"New Zealand   10.3M  5.7%"}},{"type":"Feature","geometry":{"type":"Point","coordinates":[10.451526000003,51.165690999999]},"properties":{"size":"18.692109262102","address":"Germany","placename":"Germany","title":"Germany   33.7M  18.7%"}},{"type":"Feature","geometry":{"type":"Point","coordinates":[2.2137489999989,46.227638]},"properties":{"size":"18.692109262102","address":"France","placename":"France","title":"France   33.7M  18.7%"}},{"type":"Feature","geometry":{"type":"Point","coordinates":[4.4699360000043,50.503887000001]},"properties":{"size":"18.204571404891","address":"Belgium","placename":"Belgium","title":"Belgium   32.8M  18.2%"}},{"type":"Feature","geometry":{"type":"Point","coordinates":[95.626017200002,51.887266899998]},"properties":{"address":"Tuve","placename":"Tuva, Russia","title":"VT Tuve,Sweden 180.4M \/19901 Complete 11459 CKD"}},{"type":"Feature","geometry":{"type":"LineString","coordinates":[[4.4699360000043,50.503887000001],[95.626017200002,51.887266899998]]},"properties":[]},{"type":"Feature","geometry":{"type":"LineString","coordinates":[[2.2137489999989,46.227638],[95.626017200002,51.887266899998]]},"properties":[]},{"type":"Feature","geometry":{"type":"LineString","coordinates":[[10.451526000003,51.165690999999],[95.626017200002,51.887266899998]]},"properties":[]},{"type":"Feature","geometry":{"type":"LineString","coordinates":[[174.885971,-40.900556999999],[95.626017200002,51.887266899998]]},"properties":[]},{"type":"Feature","geometry":{"type":"LineString","coordinates":[[-3.7492200000004,40.463667000002],[95.626017200002,51.887266899998]]},"properties":[]},{"type":"Feature","geometry":{"type":"LineString","coordinates":[[18.643501000001,60.128160999999],[95.626017200002,51.887266899998]]},"properties":[]},{"type":"Feature","geometry":{"type":"LineString","coordinates":[[95.626017200002,51.887266899998],[1.6596259999975,28.033885999997]]},"properties":[]},{"type":"Feature","geometry":{"type":"LineString","coordinates":[[95.626017200002,51.887266899998],[17.873887000004,-11.202692000003]]},"properties":[]},{"type":"Feature","geometry":{"type":"LineString","coordinates":[[95.626017200002,51.887266899998],[133.775136,-25.274397999999]]},"properties":[]},{"type":"Feature","geometry":{"type":"LineString","coordinates":[[95.626017200002,51.887266899998],[14.550071999996,47.516230999997]]},"properties":[]},{"type":"Feature","geometry":{"type":"LineString","coordinates":[[95.626017200002,51.887266899998],[90.356330999996,23.684993999998]]},"properties":[]},{"type":"Feature","geometry":{"type":"LineString","coordinates":[[95.626017200002,51.887266899998],[27.953388999997,53.709807000002]]},"properties":[]},{"type":"Feature","geometry":{"type":"LineString","coordinates":[[95.626017200002,51.887266899998],[4.4699360000043,50.503887000001]]},"properties":[]},{"type":"Feature","geometry":{"type":"LineString","coordinates":[[95.626017200002,51.887266899998],[17.679076000004,43.915885999999]]},"properties":[]},{"type":"Feature","geometry":{"type":"LineString","coordinates":[[95.626017200002,51.887266899998],[25.485830000001,42.733883000002]]},"properties":[]},{"type":"Feature","geometry":{"type":"LineString","coordinates":[[95.626017200002,51.887266899998],[-71.542969,-35.675146999998]]},"properties":[]},{"type":"Feature","geometry":{"type":"LineString","coordinates":[[95.626017200002,51.887266899998],[104.195397,35.861660000001]]},"properties":[]},{"type":"Feature","geometry":{"type":"LineString","coordinates":[[95.626017200002,51.887266899998],[-74.297332999997,4.5708679999982]]},"properties":[]},{"type":"Feature","geometry":{"type":"LineString","coordinates":[[95.626017200002,51.887266899998],[15.827659000004,-0.22802099999814]]},"properties":[]},{"type":"Feature","geometry":{"type":"LineString","coordinates":[[95.626017200002,51.887266899998],[15.200000000002,45.100000000003]]},"properties":[]},{"type":"Feature","geometry":{"type":"LineString","coordinates":[[95.626017200002,51.887266899998],[15.472962000003,49.817492]]},"properties":[]},{"type":"Feature","geometry":{"type":"LineString","coordinates":[[95.626017200002,51.887266899998],[9.5017849999985,56.263920000001]]},"properties":[]},{"type":"Feature","geometry":{"type":"LineString","coordinates":[[95.626017200002,51.887266899998],[0,0]]},"properties":[]},{"type":"Feature","geometry":{"type":"LineString","coordinates":[[95.626017200002,51.887266899998],[-78.183406000002,-1.8312390000011]]},"properties":[]},{"type":"Feature","geometry":{"type":"LineString","coordinates":[[95.626017200002,51.887266899998],[30.802498000002,26.820553000001]]},"properties":[]},{"type":"Feature","geometry":{"type":"LineString","coordinates":[[95.626017200002,51.887266899998],[25.013606999999,58.595272000001]]},"properties":[]},{"type":"Feature","geometry":{"type":"LineString","coordinates":[[95.626017200002,51.887266899998],[40.489672999999,9.1449999999959]]},"properties":[]},{"type":"Feature","geometry":{"type":"LineString","coordinates":[[95.626017200002,51.887266899998],[0,0]]},"properties":[]},{"type":"Feature","geometry":{"type":"LineString","coordinates":[[95.626017200002,51.887266899998],[25.748150999997,61.924109999999]]},"properties":[]},{"type":"Feature","geometry":{"type":"LineString","coordinates":[[95.626017200002,51.887266899998],[2.2137489999989,46.227638]]},"properties":[]},{"type":"Feature","geometry":{"type":"LineString","coordinates":[[95.626017200002,51.887266899998],[-3.4359729999961,55.378051000001]]},"properties":[]},{"type":"Feature","geometry":{"type":"LineString","coordinates":[[95.626017200002,51.887266899998],[10.451526000003,51.165690999999]]},"properties":[]},{"type":"Feature","geometry":{"type":"LineString","coordinates":[[95.626017200002,51.887266899998],[-1.0231940000024,7.9465270000027]]},"properties":[]},{"type":"Feature","geometry":{"type":"LineString","coordinates":[[95.626017200002,51.887266899998],[21.824312000004,39.074207999997]]},"properties":[]},{"type":"Feature","geometry":{"type":"LineString","coordinates":[[95.626017200002,51.887266899998],[114.109497,22.396428000004]]},"properties":[]},{"type":"Feature","geometry":{"type":"LineString","coordinates":[[95.626017200002,51.887266899998],[19.503303999996,47.162493999998]]},"properties":[]},{"type":"Feature","geometry":{"type":"LineString","coordinates":[[95.626017200002,51.887266899998],[-19.020835000001,64.963051000002]]},"properties":[]},{"type":"Feature","geometry":{"type":"LineString","coordinates":[[95.626017200002,51.887266899998],[78.962879999997,20.593684000004]]},"properties":[]},{"type":"Feature","geometry":{"type":"LineString","coordinates":[[95.626017200002,51.887266899998],[113.921327,-0.78927499999687]]},"properties":[]},{"type":"Feature","geometry":{"type":"LineString","coordinates":[[95.626017200002,51.887266899998],[0,0]]},"properties":[]},{"type":"Feature","geometry":{"type":"LineString","coordinates":[[95.626017200002,51.887266899998],[43.679290999998,33.223191000003]]},"properties":[]},{"type":"Feature","geometry":{"type":"LineString","coordinates":[[95.626017200002,51.887266899998],[34.851612000002,31.046051]]},"properties":[]},{"type":"Feature","geometry":{"type":"LineString","coordinates":[[95.626017200002,51.887266899998],[12.567380000004,41.871939999999]]},"properties":[]},{"type":"Feature","geometry":{"type":"LineString","coordinates":[[95.626017200002,51.887266899998],[138.252924,36.204824000001]]},"properties":[]},{"type":"Feature","geometry":{"type":"LineString","coordinates":[[95.626017200002,51.887266899998],[36.238414000001,30.585164000002]]},"properties":[]},{"type":"Feature","geometry":{"type":"LineString","coordinates":[[95.626017200002,51.887266899998],[66.923684,48.019573000002]]},"properties":[]},{"type":"Feature","geometry":{"type":"LineString","coordinates":[[95.626017200002,51.887266899998],[37.906193000004,-0.023558999995522]]},"properties":[]},{"type":"Feature","geometry":{"type":"LineString","coordinates":[[95.626017200002,51.887266899998],[47.481765999997,29.311660000002]]},"properties":[]},{"type":"Feature","geometry":{"type":"LineString","coordinates":[[95.626017200002,51.887266899998],[24.603189000003,56.879635000001]]},"properties":[]},{"type":"Feature","geometry":{"type":"LineString","coordinates":[[95.626017200002,51.887266899998],[35.862284999998,33.854721000002]]},"properties":[]},{"type":"Feature","geometry":{"type":"LineString","coordinates":[[95.626017200002,51.887266899998],[23.881274999999,55.169437999999]]},"properties":[]},{"type":"Feature","geometry":{"type":"LineString","coordinates":[[95.626017200002,51.887266899998],[21.745275000003,41.608635000001]]},"properties":[]},{"type":"Feature","geometry":{"type":"LineString","coordinates":[[95.626017200002,51.887266899998],[101.975766,4.2104840000023]]},"properties":[]},{"type":"Feature","geometry":{"type":"LineString","coordinates":[[95.626017200002,51.887266899998],[28.369885000002,47.411630999998]]},"properties":[]},{"type":"Feature","geometry":{"type":"LineString","coordinates":[[95.626017200002,51.887266899998],[19.374389999997,42.708678]]},"properties":[]},{"type":"Feature","geometry":{"type":"LineString","coordinates":[[95.626017200002,51.887266899998],[-7.0926199999983,31.791702]]},"properties":[]},{"type":"Feature","geometry":{"type":"LineString","coordinates":[[95.626017200002,51.887266899998],[5.2912660000021,52.132633000001]]},"properties":[]},{"type":"Feature","geometry":{"type":"LineString","coordinates":[[95.626017200002,51.887266899998],[8.4689460000024,60.472024]]},"properties":[]},{"type":"Feature","geometry":{"type":"LineString","coordinates":[[95.626017200002,51.887266899998],[55.923254999996,21.512583000003]]},"properties":[]},{"type":"Feature","geometry":{"type":"LineString","coordinates":[[95.626017200002,51.887266899998],[69.345115999996,30.375321000001]]},"properties":[]},{"type":"Feature","geometry":{"type":"LineString","coordinates":[[95.626017200002,51.887266899998],[35.233154,31.952162000002]]},"properties":[]},{"type":"Feature","geometry":{"type":"LineString","coordinates":[[95.626017200002,51.887266899998],[-75.015152,-9.1899670000004]]},"properties":[]},{"type":"Feature","geometry":{"type":"LineString","coordinates":[[95.626017200002,51.887266899998],[121.774017,12.879720999999]]},"properties":[]},{"type":"Feature","geometry":{"type":"LineString","coordinates":[[95.626017200002,51.887266899998],[19.145136,51.919437999998]]},"properties":[]},{"type":"Feature","geometry":{"type":"LineString","coordinates":[[95.626017200002,51.887266899998],[-8.2244540000027,39.399871999999]]},"properties":[]},{"type":"Feature","geometry":{"type":"LineString","coordinates":[[95.626017200002,51.887266899998],[51.183884,25.354825999999]]},"properties":[]},{"type":"Feature","geometry":{"type":"LineString","coordinates":[[95.626017200002,51.887266899998],[15.827659000004,-0.22802099999814]]},"properties":[]},{"type":"Feature","geometry":{"type":"LineString","coordinates":[[95.626017200002,51.887266899998],[24.966760000001,45.943161000003]]},"properties":[]},{"type":"Feature","geometry":{"type":"LineString","coordinates":[[95.626017200002,51.887266899998],[105.318756,61.52401]]},"properties":[]},{"type":"Feature","geometry":{"type":"LineString","coordinates":[[95.626017200002,51.887266899998],[127.766922,35.907756999999]]},"properties":[]},{"type":"Feature","geometry":{"type":"LineString","coordinates":[[95.626017200002,51.887266899998],[22.937506000003,-30.559481999999]]},"properties":[]},{"type":"Feature","geometry":{"type":"LineString","coordinates":[[95.626017200002,51.887266899998],[31.222366099998,30.0976491]]},"properties":[]},{"type":"Feature","geometry":{"type":"LineString","coordinates":[[95.626017200002,51.887266899998],[21.005858999997,44.016521000002]]},"properties":[]},{"type":"Feature","geometry":{"type":"LineString","coordinates":[[95.626017200002,51.887266899998],[103.819836,1.3520830000039]]},"properties":[]},{"type":"Feature","geometry":{"type":"LineString","coordinates":[[95.626017200002,51.887266899998],[-75.679209999998,45.44389]]},"properties":[]},{"type":"Feature","geometry":{"type":"LineString","coordinates":[[95.626017200002,51.887266899998],[14.995462999997,46.151240999997]]},"properties":[]},{"type":"Feature","geometry":{"type":"LineString","coordinates":[[95.626017200002,51.887266899998],[-3.7492200000004,40.463667000002]]},"properties":[]},{"type":"Feature","geometry":{"type":"LineString","coordinates":[[95.626017200002,51.887266899998],[30.217635999996,12.862807000002]]},"properties":[]},{"type":"Feature","geometry":{"type":"LineString","coordinates":[[95.626017200002,51.887266899998],[18.643501000001,60.128160999999]]},"properties":[]},{"type":"Feature","geometry":{"type":"LineString","coordinates":[[95.626017200002,51.887266899998],[8.2275120000041,46.818187999999]]},"properties":[]},{"type":"Feature","geometry":{"type":"LineString","coordinates":[[95.626017200002,51.887266899998],[38.996814999996,34.802074999999]]},"properties":[]},{"type":"Feature","geometry":{"type":"LineString","coordinates":[[95.626017200002,51.887266899998],[120.960515,23.697810000004]]},"properties":[]},{"type":"Feature","geometry":{"type":"LineString","coordinates":[[95.626017200002,51.887266899998],[34.888821999999,-6.3690280000008]]},"properties":[]},{"type":"Feature","geometry":{"type":"LineString","coordinates":[[95.626017200002,51.887266899998],[100.992541,15.870032]]},"properties":[]},{"type":"Feature","geometry":{"type":"LineString","coordinates":[[95.626017200002,51.887266899998],[9.5374989999968,33.886917000001]]},"properties":[]},{"type":"Feature","geometry":{"type":"LineString","coordinates":[[95.626017200002,51.887266899998],[35.243321999997,38.963745000001]]},"properties":[]},{"type":"Feature","geometry":{"type":"LineString","coordinates":[[95.626017200002,51.887266899998],[53.847818000001,23.424076000003]]},"properties":[]},{"type":"Feature","geometry":{"type":"LineString","coordinates":[[95.626017200002,51.887266899998],[0,0]]},"properties":[]},{"type":"Feature","geometry":{"type":"LineString","coordinates":[[95.626017200002,51.887266899998],[48.516388000001,15.552727]]},"properties":[]},{"type":"Feature","geometry":{"type":"LineString","coordinates":[[95.626017200002,51.887266899998],[78.962879999997,20.593684000004]]},"properties":[]},{"type":"Feature","geometry":{"type":"LineString","coordinates":[[95.626017200002,51.887266899998],[22.937506000003,-30.559481999999]]},"properties":[]},{"type":"Feature","geometry":{"type":"LineString","coordinates":[[95.626017200002,51.887266899998],[45.079161999996,23.885942]]},"properties":[]},{"type":"Feature","geometry":{"type":"LineString","coordinates":[[95.626017200002,51.887266899998],[53.688046000001,32.427908000001]]},"properties":[]},{"type":"Feature","geometry":{"type":"LineString","coordinates":[[95.626017200002,51.887266899998],[101.975766,4.2104840000023]]},"properties":[]},{"type":"Feature","geometry":{"type":"LineString","coordinates":[[95.626017200002,51.887266899998],[-7.0926199999983,31.791702]]},"properties":[]},{"type":"Feature","geometry":{"type":"LineString","coordinates":[[95.626017200002,51.887266899998],[120.960515,23.697810000004]]},"properties":[]},{"type":"Feature","geometry":{"type":"LineString","coordinates":[[95.626017200002,51.887266899998],[100.992541,15.870032]]},"properties":[]},{"type":"Feature","geometry":{"type":"LineString","coordinates":[[95.626017200002,51.887266899998],[9.5374989999968,33.886917000001]]},"properties":[]},{"type":"Feature","geometry":{"type":"LineString","coordinates":[[95.626017200002,51.887266899998],[133.775136,-25.274397999999]]},"properties":[]}],"properties":{"title":"5","description":"","tags":""}}