{"type":"FeatureCollection","features":[{"type":"Feature","geometry":{"type":"Point","coordinates":[120.960515,23.697810000004]},"properties":{"size":"0.072833307170699","address":"Taiwan","placename":"Taiwan","title":"Taiwan   8.1M  0.1%"}},{"type":"Feature","geometry":{"type":"Point","coordinates":[-95.712890999999,37.090240000003]},"properties":{"size":"1.1596713068667","address":"United States of America","placename":"United States","title":"United States of America   129M  1.2%"}},{"type":"Feature","geometry":{"type":"Point","coordinates":[-3.4359729999961,55.378051000001]},"properties":{"size":"1.3341969662323","address":"United Kingdom of Great Britain and Northern Ireland","placename":"United Kingdom","title":"United Kingdom of Great Britain and Northern Ireland   148.4M  1.3%"}},{"type":"Feature","geometry":{"type":"Point","coordinates":[35.243321999997,38.963745000001]},"properties":{"size":"0.19146551494582","address":"Turkey","placename":"Turkey","title":"Turkey   21.3M  0.2%"}},{"type":"Feature","geometry":{"type":"Point","coordinates":[100.992541,15.870032]},"properties":{"size":"0.010948454174127","address":"Thailand","placename":"Thailand","title":"Thailand   1.2M  0%"}},{"type":"Feature","geometry":{"type":"Point","coordinates":[8.2275120000041,46.818187999999]},"properties":{"size":"0.031606240929804","address":"Switzerland","placename":"Switzerland","title":"Switzerland   3.5M  0%"}},{"type":"Feature","geometry":{"type":"Point","coordinates":[18.643501000001,60.128160999999]},"properties":{"size":"2.7405993905133","address":"Sweden","placename":"Sweden","title":"Sweden   304.8M  2.7%"}},{"type":"Feature","geometry":{"type":"Point","coordinates":[-3.7492200000004,40.463667000002]},"properties":{"size":"0.2990994305886","address":"Spain","placename":"Spain","title":"Spain   33.3M  0.3%"}},{"type":"Feature","geometry":{"type":"Point","coordinates":[22.937506000003,-30.559481999999]},"properties":{"size":"0.0081236961032557","address":"South Africa","placename":"South Africa","title":"South Africa   0.9M  0%"}},{"type":"Feature","geometry":{"type":"Point","coordinates":[19.699023999996,48.669026]},"properties":{"size":"0.002396944919473","address":"Slovakia","placename":"Slovakia","title":"Slovakia   0.3M  0%"}},{"type":"Feature","geometry":{"type":"Point","coordinates":[24.966760000001,45.943161000003]},"properties":{"size":"9.4818346660229E-6","address":"Romania","placename":"Romania","title":"Romania   0M  0%"}},{"type":"Feature","geometry":{"type":"Point","coordinates":[-8.2244540000027,39.399871999999]},"properties":{"size":"0.035259431604406","address":"Portugal","placename":"Portugal","title":"Portugal   3.9M  0%"}},{"type":"Feature","geometry":{"type":"Point","coordinates":[19.145136,51.919437999998]},"properties":{"size":"0.13314800764275","address":"Poland","placename":"Poland","title":"Poland   14.8M  0.1%"}},{"type":"Feature","geometry":{"type":"Point","coordinates":[8.4689460000024,60.472024]},"properties":{"size":"0.0053715493301472","address":"Norway","placename":"Norway","title":"Norway   0.6M  0%"}},{"type":"Feature","geometry":{"type":"Point","coordinates":[5.2912660000021,52.132633000001]},"properties":{"size":"0.0022611490615653","address":"Netherlands","placename":"The Netherlands","title":"Netherlands   0.3M  0%"}},{"type":"Feature","geometry":{"type":"Point","coordinates":[-102.552784,23.634501000001]},"properties":{"size":"0.026588236868712","address":"Mexico","placename":"Mexico","title":"Mexico   3M  0%"}},{"type":"Feature","geometry":{"type":"Point","coordinates":[6.129582999999,49.815273000002]},"properties":{"size":"9.7995609767888E-5","address":"Luxembourg","placename":"Luxembourg","title":"Luxembourg   0M  0%"}},{"type":"Feature","geometry":{"type":"Point","coordinates":[23.881274999999,55.169437999999]},"properties":{"size":"0.011274473692574","address":"Lithuania","placename":"Lithuania","title":"Lithuania   1.3M  0%"}},{"type":"Feature","geometry":{"type":"Point","coordinates":[127.766922,35.907756999999]},"properties":{"size":"0.082364579467112","address":"Republic of Korea","placename":"South Korea","title":"Republic of Korea   9.2M  0.1%"}},{"type":"Feature","geometry":{"type":"Point","coordinates":[138.252924,36.204824000001]},"properties":{"size":"90.938239961044","address":"Japan","placename":"Japan","title":"Japan   10113.5M  90.9%"}},{"type":"Feature","geometry":{"type":"Point","coordinates":[12.567380000004,41.871939999999]},"properties":{"size":"0.2243049108252","address":"Italy","placename":"Italy","title":"Italy   24.9M  0.2%"}},{"type":"Feature","geometry":{"type":"Point","coordinates":[113.921327,-0.78927499999687]},"properties":{"size":"3.7421915076099E-6","address":"Indonesia","placename":"Indonesia","title":"Indonesia   0M  0%"}},{"type":"Feature","geometry":{"type":"Point","coordinates":[78.962879999997,20.593684000004]},"properties":{"size":"0.35812414450088","address":"India","placename":"India","title":"India   39.8M  0.4%"}},{"type":"Feature","geometry":{"type":"Point","coordinates":[19.503303999996,47.162493999998]},"properties":{"size":"0.0004082081524262","address":"Hungary","placename":"Hungary","title":"Hungary   0M  0%"}},{"type":"Feature","geometry":{"type":"Point","coordinates":[10.451526000003,51.165690999999]},"properties":{"size":"0.5998352501177","address":"Germany","placename":"Germany","title":"Germany   66.7M  0.6%"}},{"type":"Feature","geometry":{"type":"Point","coordinates":[2.2137489999989,46.227638]},"properties":{"size":"0.65389806492567","address":"France","placename":"France","title":"France   72.7M  0.7%"}},{"type":"Feature","geometry":{"type":"Point","coordinates":[25.748150999997,61.924109999999]},"properties":{"size":"1.3399602100276E-6","address":"Finland","placename":"Finland","title":"Finland   0M  0%"}},{"type":"Feature","geometry":{"type":"Point","coordinates":[25.013606999999,58.595272000001]},"properties":{"size":"0.030871365317644","address":"Estonia","placename":"Estonia","title":"Estonia   3.4M  0%"}},{"type":"Feature","geometry":{"type":"Point","coordinates":[9.5017849999985,56.263920000001]},"properties":{"size":"0.0042463441903597","address":"Denmark","placename":"Denmark","title":"Denmark   0.5M  0%"}},{"type":"Feature","geometry":{"type":"Point","coordinates":[15.472962000003,49.817492]},"properties":{"size":"0.0016811799021074","address":"Czech Republic","placename":"Czech Republic","title":"Czech Republic   0.2M  0%"}},{"type":"Feature","geometry":{"type":"Point","coordinates":[104.195397,35.861660000001]},"properties":{"size":"0.91128068399438","address":"China","placename":"China","title":"China   101.3M  0.9%"}},{"type":"Feature","geometry":{"type":"Point","coordinates":[-51.925279999999,-14.235004]},"properties":{"size":"0.018122900866556","address":"Brazil","placename":"Brazil","title":"Brazil   2M  0%"}},{"type":"Feature","geometry":{"type":"Point","coordinates":[4.4699360000043,50.503887000001]},"properties":{"size":"0.072300958864238","address":"Belgium","placename":"Belgium","title":"Belgium   8M  0.1%"}},{"type":"Feature","geometry":{"type":"Point","coordinates":[-63.616672000003,-38.416096999997]},"properties":{"size":"0.039364787591045","address":"Argentina","placename":"Argentina","title":"Argentina   4.4M  0%"}},{"type":"Feature","geometry":{"type":"Point","coordinates":[139.5932055,35.977380500002]},"properties":{"size":"0","address":"Ageo,Japan","placename":"Ageo, Saitama Prefecture, Japan","title":"UD Ageo,Japan 11121.3M 100%\/15080 complete 7522 CKD 100%"}},{"type":"Feature","geometry":{"type":"Point","coordinates":[-95.712890999999,37.090240000003]},"properties":{"size":"0.06958950039465","address":"United States of America","placename":"United States","title":"United States of America   6.4M  0.1%"}},{"type":"Feature","geometry":{"type":"Point","coordinates":[-3.4359729999961,55.378051000001]},"properties":{"size":"0.71951507372894","address":"United Kingdom of Great Britain and Northern Ireland","placename":"United Kingdom","title":"United Kingdom of Great Britain and Northern Ireland   66.2M  0.7%"}},{"type":"Feature","geometry":{"type":"Point","coordinates":[35.243321999997,38.963745000001]},"properties":{"size":"0.16439060177459","address":"Turkey","placename":"Turkey","title":"Turkey   15.1M  0.2%"}},{"type":"Feature","geometry":{"type":"Point","coordinates":[100.992541,15.870032]},"properties":{"size":"0.041130812532623","address":"Thailand","placename":"Thailand","title":"Thailand   3.8M  0%"}},{"type":"Feature","geometry":{"type":"Point","coordinates":[8.2275120000041,46.818187999999]},"properties":{"size":"0.003659694229757","address":"Switzerland","placename":"Switzerland","title":"Switzerland   0.3M  0%"}},{"type":"Feature","geometry":{"type":"Point","coordinates":[18.643501000001,60.128160999999]},"properties":{"size":"17.37529045175","address":"Sweden","placename":"Sweden","title":"Sweden   1598.1M  17.4%"}},{"type":"Feature","geometry":{"type":"Point","coordinates":[-3.7492200000004,40.463667000002]},"properties":{"size":"3.3820040245121","address":"Spain","placename":"Spain","title":"Spain   311.1M  3.4%"}},{"type":"Feature","geometry":{"type":"Point","coordinates":[22.937506000003,-30.559481999999]},"properties":{"size":"1.685879550742","address":"South Africa","placename":"South Africa","title":"South Africa   155.1M  1.7%"}},{"type":"Feature","geometry":{"type":"Point","coordinates":[14.995462999997,46.151240999997]},"properties":{"size":"0.030387948946351","address":"Slovenia","placename":"Slovenia","title":"Slovenia   2.8M  0%"}},{"type":"Feature","geometry":{"type":"Point","coordinates":[19.699023999996,48.669026]},"properties":{"size":"0.41563738255481","address":"Slovakia","placename":"Slovakia","title":"Slovakia   38.2M  0.4%"}},{"type":"Feature","geometry":{"type":"Point","coordinates":[24.966760000001,45.943161000003]},"properties":{"size":"0.21821378082735","address":"Romania","placename":"Romania","title":"Romania   20.1M  0.2%"}},{"type":"Feature","geometry":{"type":"Point","coordinates":[-8.2244540000027,39.399871999999]},"properties":{"size":"0.16601145965425","address":"Portugal","placename":"Portugal","title":"Portugal   15.3M  0.2%"}},{"type":"Feature","geometry":{"type":"Point","coordinates":[19.145136,51.919437999998]},"properties":{"size":"0.68965776600409","address":"Poland","placename":"Poland","title":"Poland   63.4M  0.7%"}},{"type":"Feature","geometry":{"type":"Point","coordinates":[8.4689460000024,60.472024]},"properties":{"size":"0.51965387068694","address":"Norway","placename":"Norway","title":"Norway   47.8M  0.5%"}},{"type":"Feature","geometry":{"type":"Point","coordinates":[5.2912660000021,52.132633000001]},"properties":{"size":"1.3059262731117","address":"Netherlands","placename":"The Netherlands","title":"Netherlands   120.1M  1.3%"}},{"type":"Feature","geometry":{"type":"Point","coordinates":[6.129582999999,49.815273000002]},"properties":{"size":"1.2457069342665","address":"Luxembourg","placename":"Luxembourg","title":"Luxembourg   114.6M  1.2%"}},{"type":"Feature","geometry":{"type":"Point","coordinates":[23.881274999999,55.169437999999]},"properties":{"size":"0.048223415093333","address":"Lithuania","placename":"Lithuania","title":"Lithuania   4.4M  0%"}},{"type":"Feature","geometry":{"type":"Point","coordinates":[138.252924,36.204824000001]},"properties":{"size":"0.11800306326686","address":"Japan","placename":"Japan","title":"Japan   10.9M  0.1%"}},{"type":"Feature","geometry":{"type":"Point","coordinates":[12.567380000004,41.871939999999]},"properties":{"size":"1.3014085766401","address":"Italy","placename":"Italy","title":"Italy   119.7M  1.3%"}},{"type":"Feature","geometry":{"type":"Point","coordinates":[78.962879999997,20.593684000004]},"properties":{"size":"0.39769941540554","address":"India","placename":"India","title":"India   36.6M  0.4%"}},{"type":"Feature","geometry":{"type":"Point","coordinates":[19.503303999996,47.162493999998]},"properties":{"size":"0.50591531718621","address":"Hungary","placename":"Hungary","title":"Hungary   46.5M  0.5%"}},{"type":"Feature","geometry":{"type":"Point","coordinates":[10.451526000003,51.165690999999]},"properties":{"size":"14.212873296324","address":"Germany","placename":"Germany","title":"Germany   1307.3M  14.2%"}},{"type":"Feature","geometry":{"type":"Point","coordinates":[2.2137489999989,46.227638]},"properties":{"size":"52.917169807524","address":"France","placename":"France","title":"France   4867.2M  52.9%"}},{"type":"Feature","geometry":{"type":"Point","coordinates":[25.748150999997,61.924109999999]},"properties":{"size":"0.065367728846317","address":"Finland","placename":"Finland","title":"Finland   6M  0.1%"}},{"type":"Feature","geometry":{"type":"Point","coordinates":[25.013606999999,58.595272000001]},"properties":{"size":"0.017353182398789","address":"Estonia","placename":"Estonia","title":"Estonia   1.6M  0%"}},{"type":"Feature","geometry":{"type":"Point","coordinates":[9.5017849999985,56.263920000001]},"properties":{"size":"0.02407003664406","address":"Denmark","placename":"Denmark","title":"Denmark   2.2M  0%"}},{"type":"Feature","geometry":{"type":"Point","coordinates":[15.472962000003,49.817492]},"properties":{"size":"0.18491219712863","address":"Czech Republic","placename":"Czech Republic","title":"Czech Republic   17M  0.2%"}},{"type":"Feature","geometry":{"type":"Point","coordinates":[104.195397,35.861660000001]},"properties":{"size":"0.0078540663632981","address":"China","placename":"China","title":"China   0.7M  0%"}},{"type":"Feature","geometry":{"type":"Point","coordinates":[-51.925279999999,-14.235004]},"properties":{"size":"0.17311276313021","address":"Brazil","placename":"Brazil","title":"Brazil   15.9M  0.2%"}},{"type":"Feature","geometry":{"type":"Point","coordinates":[4.4699360000043,50.503887000001]},"properties":{"size":"1.1919921155001","address":"Belgium","placename":"Belgium","title":"Belgium   109.6M  1.2%"}},{"type":"Feature","geometry":{"type":"Point","coordinates":[14.550071999996,47.516230999997]},"properties":{"size":"0.801389892833","address":"Austria","placename":"Austria","title":"Austria   73.7M  0.8%"}},{"type":"Feature","geometry":{"type":"Point","coordinates":[5.2192460000015,46.20279]},"properties":{"size":"0","address":"Bourg-en-Bresse, FR","placename":"Bourg-en-Bresse, France","title":"RT  Bourg-en-Bresse, FR 9197.7M 71.3% \/31238 complete 1087 CKD80.2%"}},{"type":"Feature","geometry":{"type":"Point","coordinates":[-95.712890999999,37.090240000003]},"properties":{"size":"0.0048757505818532","address":"United States of America","placename":"United States","title":"United States of America   0.2M  0%"}},{"type":"Feature","geometry":{"type":"Point","coordinates":[-3.4359729999961,55.378051000001]},"properties":{"size":"1.2430159748162","address":"United Kingdom","placename":"United Kingdom","title":"United Kingdom   45.9M  1.2%"}},{"type":"Feature","geometry":{"type":"Point","coordinates":[35.243321999997,38.963745000001]},"properties":{"size":"0.67359356668017","address":"Turkey","placename":"Turkey","title":"Turkey   24.9M  0.7%"}},{"type":"Feature","geometry":{"type":"Point","coordinates":[9.5374989999968,33.886917000001]},"properties":{"size":"0.010696941942104","address":"Tunisia","placename":"Tunisia","title":"Tunisia   0.4M  0%"}},{"type":"Feature","geometry":{"type":"Point","coordinates":[8.2275120000041,46.818187999999]},"properties":{"size":"0.011388749508655","address":"Switzerland","placename":"Switzerland","title":"Switzerland   0.4M  0%"}},{"type":"Feature","geometry":{"type":"Point","coordinates":[18.643501000001,60.128160999999]},"properties":{"size":"3.0734853971052","address":"Sweden","placename":"Sweden","title":"Sweden   113.5M  3.1%"}},{"type":"Feature","geometry":{"type":"Point","coordinates":[-3.7492200000004,40.463667000002]},"properties":{"size":"1.9957232963348","address":"Spain","placename":"Spain","title":"Spain   73.7M  2%"}},{"type":"Feature","geometry":{"type":"Point","coordinates":[19.699023999996,48.669026]},"properties":{"size":"0.032424212478213","address":"Slovakia","placename":"Slovakia","title":"Slovakia   1.2M  0%"}},{"type":"Feature","geometry":{"type":"Point","coordinates":[24.966760000001,45.943161000003]},"properties":{"size":"0.0033532353876725","address":"Romania","placename":"Romania","title":"Romania   0.1M  0%"}},{"type":"Feature","geometry":{"type":"Point","coordinates":[-8.2244540000027,39.399871999999]},"properties":{"size":"1.6912818643026","address":"Portugal","placename":"Portugal","title":"Portugal   62.5M  1.7%"}},{"type":"Feature","geometry":{"type":"Point","coordinates":[19.145136,51.919437999998]},"properties":{"size":"1.6862839698544","address":"Poland","placename":"Poland","title":"Poland   62.3M  1.7%"}},{"type":"Feature","geometry":{"type":"Point","coordinates":[8.4689460000024,60.472024]},"properties":{"size":"0.17793922306117","address":"Norway","placename":"Norway","title":"Norway   6.6M  0.2%"}},{"type":"Feature","geometry":{"type":"Point","coordinates":[5.2912660000021,52.132633000001]},"properties":{"size":"2.0315749705477","address":"Netherlands","placename":"The Netherlands","title":"Netherlands   75.1M  2%"}},{"type":"Feature","geometry":{"type":"Point","coordinates":[7.4246158000028,43.738417600001]},"properties":{"size":"0.68684962039467","address":"Monaco","placename":"Monaco","title":"Monaco   25.4M  0.7%"}},{"type":"Feature","geometry":{"type":"Point","coordinates":[101.975766,4.2104840000023]},"properties":{"size":"0.065904028298682","address":"Malaysia","placename":"Malaysia","title":"Malaysia   2.4M  0.1%"}},{"type":"Feature","geometry":{"type":"Point","coordinates":[6.129582999999,49.815273000002]},"properties":{"size":"0.71415803043668","address":"Luxembourg","placename":"Luxembourg","title":"Luxembourg   26.4M  0.7%"}},{"type":"Feature","geometry":{"type":"Point","coordinates":[127.766922,35.907756999999]},"properties":{"size":"0.039217116829976","address":"Republic of Korea","placename":"South Korea","title":"Republic of Korea   1.4M  0%"}},{"type":"Feature","geometry":{"type":"Point","coordinates":[138.252924,36.204824000001]},"properties":{"size":"0.0014940661066662","address":"Japan","placename":"Japan","title":"Japan   0.1M  0%"}},{"type":"Feature","geometry":{"type":"Point","coordinates":[12.567380000004,41.871939999999]},"properties":{"size":"5.0507469449742","address":"Italy","placename":"Italy","title":"Italy   186.6M  5.1%"}},{"type":"Feature","geometry":{"type":"Point","coordinates":[78.962879999997,20.593684000004]},"properties":{"size":"0.48643243087867","address":"India","placename":"India","title":"India   18M  0.5%"}},{"type":"Feature","geometry":{"type":"Point","coordinates":[19.503303999996,47.162493999998]},"properties":{"size":"3.6299005650604","address":"Hungary","placename":"Hungary","title":"Hungary   134.1M  3.6%"}},{"type":"Feature","geometry":{"type":"Point","coordinates":[10.451526000003,51.165690999999]},"properties":{"size":"21.113057005906","address":"Germany","placename":"Germany","title":"Germany   780M  21.1%"}},{"type":"Feature","geometry":{"type":"Point","coordinates":[2.2137489999989,46.227638]},"properties":{"size":"50.903705074413","address":"France","placename":"France","title":"France   1880.6M  50.9%"}},{"type":"Feature","geometry":{"type":"Point","coordinates":[25.013606999999,58.595272000001]},"properties":{"size":"3.8737737330452E-6","address":"Estonia","placename":"Estonia","title":"Estonia   0M  0%"}},{"type":"Feature","geometry":{"type":"Point","coordinates":[9.5017849999985,56.263920000001]},"properties":{"size":"0.0028288232685606","address":"Denmark","placename":"Denmark","title":"Denmark   0.1M  0%"}},{"type":"Feature","geometry":{"type":"Point","coordinates":[15.472962000003,49.817492]},"properties":{"size":"0.13256925313591","address":"Czech Republic","placename":"Czech Republic","title":"Czech Republic   4.9M  0.1%"}},{"type":"Feature","geometry":{"type":"Point","coordinates":[104.195397,35.861660000001]},"properties":{"size":"0.18000094927768","address":"China","placename":"China","title":"China   6.7M  0.2%"}},{"type":"Feature","geometry":{"type":"Point","coordinates":[-51.925279999999,-14.235004]},"properties":{"size":"0.87755332227506","address":"Brazil","placename":"Brazil","title":"Brazil   32.4M  0.9%"}},{"type":"Feature","geometry":{"type":"Point","coordinates":[4.4699360000043,50.503887000001]},"properties":{"size":"2.8900652101715","address":"Belgium","placename":"Belgium","title":"Belgium   106.8M  2.9%"}},{"type":"Feature","geometry":{"type":"Point","coordinates":[14.550071999996,47.516230999997]},"properties":{"size":"0.58987653219838","address":"Austria","placename":"Austria","title":"Austria   21.8M  0.6%"}},{"type":"Feature","geometry":{"type":"Point","coordinates":[6.4059880000016,48.555827999998]},"properties":{"size":"0","address":"France,Blainville","placename":"Blainville-sur-l'Eau, France","title":"RT  France,Blainville  3694.5M 28.7%\/7720 Complete 250 CKD 19.8%"}},{"type":"Feature","geometry":{"type":"Point","coordinates":[114.109497,22.396428000004]},"properties":{"size":"0.027547199494109","address":"Hong Kong","placename":"Hong Kong","title":"Hong Kong   3.9M  0%"}},{"type":"Feature","geometry":{"type":"Point","coordinates":[-95.712890999999,37.090240000003]},"properties":{"size":"0.18450925328583","address":"United States of America","placename":"United States","title":"United States of America   25.8M  0.2%"}},{"type":"Feature","geometry":{"type":"Point","coordinates":[-3.4359729999961,55.378051000001]},"properties":{"size":"1.254599974053","address":"United Kingdom of Great Britain and Northern Ireland","placename":"United Kingdom","title":"United Kingdom of Great Britain and Northern Ireland   175.5M  1.3%"}},{"type":"Feature","geometry":{"type":"Point","coordinates":[35.243321999997,38.963745000001]},"properties":{"size":"0.018964564837881","address":"Turkey","placename":"Turkey","title":"Turkey   2.7M  0%"}},{"type":"Feature","geometry":{"type":"Point","coordinates":[100.992541,15.870032]},"properties":{"size":"0.0031108034997835","address":"Thailand","placename":"Thailand","title":"Thailand   0.4M  0%"}},{"type":"Feature","geometry":{"type":"Point","coordinates":[8.2275120000041,46.818187999999]},"properties":{"size":"0.0038856352562203","address":"Switzerland","placename":"Switzerland","title":"Switzerland   0.5M  0%"}},{"type":"Feature","geometry":{"type":"Point","coordinates":[18.643501000001,60.128160999999]},"properties":{"size":"48.377289560297","address":"Sweden","placename":"Sweden","title":"Sweden   6767.7M  48.4%"}},{"type":"Feature","geometry":{"type":"Point","coordinates":[-3.7492200000004,40.463667000002]},"properties":{"size":"0.77644982546386","address":"Spain","placename":"Spain","title":"Spain   108.6M  0.8%"}},{"type":"Feature","geometry":{"type":"Point","coordinates":[22.937506000003,-30.559481999999]},"properties":{"size":"1.638407096782","address":"South Africa","placename":"South Africa","title":"South Africa   229.2M  1.6%"}},{"type":"Feature","geometry":{"type":"Point","coordinates":[14.995462999997,46.151240999997]},"properties":{"size":"0.027492099119349","address":"Slovenia","placename":"Slovenia","title":"Slovenia   3.8M  0%"}},{"type":"Feature","geometry":{"type":"Point","coordinates":[19.699023999996,48.669026]},"properties":{"size":"0.1327035006253","address":"Slovakia","placename":"Slovakia","title":"Slovakia   18.6M  0.1%"}},{"type":"Feature","geometry":{"type":"Point","coordinates":[24.966760000001,45.943161000003]},"properties":{"size":"0.040729417473973","address":"Romania","placename":"Romania","title":"Romania   5.7M  0%"}},{"type":"Feature","geometry":{"type":"Point","coordinates":[-8.2244540000027,39.399871999999]},"properties":{"size":"0.10382848670425","address":"Portugal","placename":"Portugal","title":"Portugal   14.5M  0.1%"}},{"type":"Feature","geometry":{"type":"Point","coordinates":[19.145136,51.919437999998]},"properties":{"size":"0.74241429596922","address":"Poland","placename":"Poland","title":"Poland   103.9M  0.7%"}},{"type":"Feature","geometry":{"type":"Point","coordinates":[8.4689460000024,60.472024]},"properties":{"size":"0.97497007027972","address":"Norway","placename":"Norway","title":"Norway   136.4M  1%"}},{"type":"Feature","geometry":{"type":"Point","coordinates":[5.2912660000021,52.132633000001]},"properties":{"size":"2.265434822381","address":"Netherlands","placename":"The Netherlands","title":"Netherlands   316.9M  2.3%"}},{"type":"Feature","geometry":{"type":"Point","coordinates":[7.4246158000028,43.738417600001]},"properties":{"size":"0.45170971303854","address":"Monaco","placename":"Monaco","title":"Monaco   63.2M  0.5%"}},{"type":"Feature","geometry":{"type":"Point","coordinates":[101.975766,4.2104840000023]},"properties":{"size":"0.054608260432999","address":"Malaysia","placename":"Malaysia","title":"Malaysia   7.6M  0.1%"}},{"type":"Feature","geometry":{"type":"Point","coordinates":[6.129582999999,49.815273000002]},"properties":{"size":"0.17721933099246","address":"Luxembourg","placename":"Luxembourg","title":"Luxembourg   24.8M  0.2%"}},{"type":"Feature","geometry":{"type":"Point","coordinates":[23.881274999999,55.169437999999]},"properties":{"size":"0.010574099899836","address":"Lithuania","placename":"Lithuania","title":"Lithuania   1.5M  0%"}},{"type":"Feature","geometry":{"type":"Point","coordinates":[24.603189000003,56.879635000001]},"properties":{"size":"0.0079692699009126","address":"Latvia","placename":"Latvia","title":"Latvia   1.1M  0%"}},{"type":"Feature","geometry":{"type":"Point","coordinates":[127.766922,35.907756999999]},"properties":{"size":"0.025772422152057","address":"Republic of Korea","placename":"South Korea","title":"Republic of Korea   3.6M  0%"}},{"type":"Feature","geometry":{"type":"Point","coordinates":[12.567380000004,41.871939999999]},"properties":{"size":"0.67183795511503","address":"Italy","placename":"Italy","title":"Italy   94M  0.7%"}},{"type":"Feature","geometry":{"type":"Point","coordinates":[78.962879999997,20.593684000004]},"properties":{"size":"0.34171652279916","address":"India","placename":"India","title":"India   47.8M  0.3%"}},{"type":"Feature","geometry":{"type":"Point","coordinates":[19.503303999996,47.162493999998]},"properties":{"size":"0.84087848983198","address":"Hungary","placename":"Hungary","title":"Hungary   117.6M  0.8%"}},{"type":"Feature","geometry":{"type":"Point","coordinates":[10.451526000003,51.165690999999]},"properties":{"size":"14.015979644013","address":"Germany","placename":"Germany","title":"Germany   1960.7M  14%"}},{"type":"Feature","geometry":{"type":"Point","coordinates":[2.2137489999989,46.227638]},"properties":{"size":"15.151220576407","address":"France","placename":"France","title":"France   2119.6M  15.2%"}},{"type":"Feature","geometry":{"type":"Point","coordinates":[25.748150999997,61.924109999999]},"properties":{"size":"0.18147313094753","address":"Finland","placename":"Finland","title":"Finland   25.4M  0.2%"}},{"type":"Feature","geometry":{"type":"Point","coordinates":[25.013606999999,58.595272000001]},"properties":{"size":"1.2659335455591","address":"Estonia","placename":"Estonia","title":"Estonia   177.1M  1.3%"}},{"type":"Feature","geometry":{"type":"Point","coordinates":[9.5017849999985,56.263920000001]},"properties":{"size":"0.060249011041573","address":"Denmark","placename":"Denmark","title":"Denmark   8.4M  0.1%"}},{"type":"Feature","geometry":{"type":"Point","coordinates":[15.472962000003,49.817492]},"properties":{"size":"0.30743199237336","address":"Czech Republic","placename":"Czech Republic","title":"Czech Republic   43M  0.3%"}},{"type":"Feature","geometry":{"type":"Point","coordinates":[104.195397,35.861660000001]},"properties":{"size":"0.064245336822738","address":"China","placename":"China","title":"China   9M  0.1%"}},{"type":"Feature","geometry":{"type":"Point","coordinates":[-106.346771,56.130366000001]},"properties":{"size":"0.0066054899089688","address":"Canada","placename":"Canada","title":"Canada   0.9M  0%"}},{"type":"Feature","geometry":{"type":"Point","coordinates":[-51.925279999999,-14.235004]},"properties":{"size":"0.56530035748711","address":"Brazil","placename":"Brazil","title":"Brazil   79.1M  0.6%"}},{"type":"Feature","geometry":{"type":"Point","coordinates":[4.4699360000043,50.503887000001]},"properties":{"size":"9.0774548063133","address":"Belgium","placename":"Belgium","title":"Belgium   1269.9M  9.1%"}},{"type":"Feature","geometry":{"type":"Point","coordinates":[14.550071999996,47.516230999997]},"properties":{"size":"0.13200586028925","address":"Austria","placename":"Austria","title":"Austria   18.5M  0.1%"}},{"type":"Feature","geometry":{"type":"Point","coordinates":[133.775136,-25.274397999999]},"properties":{"size":"0.017477579152205","address":"Australia","placename":"Australia","title":"Australia   2.4M  0%"}},{"type":"Feature","geometry":{"type":"Point","coordinates":[3.7303799999963,51.053468000003]},"properties":{"address":"Ghent","placename":"Gent, Belgium","title":"VT Ghent 13989.4M 36.9%\/33216 Unit 28.9%"}},{"type":"Feature","geometry":{"type":"Point","coordinates":[18.643501000001,60.128160999999]},"properties":{"size":"32.700501919823","address":"Sweden","placename":"Sweden","title":"Sweden   59M  32.7%"}},{"type":"Feature","geometry":{"type":"Point","coordinates":[-3.7492200000004,40.463667000002]},"properties":{"size":"5.9814749638726","address":"Spain","placename":"Spain","title":"Spain   10.8M  6%"}},{"type":"Feature","geometry":{"type":"Point","coordinates":[174.885971,-40.900556999999]},"properties":{"size":"5.7292331872093","address":"New Zealand","placename":"New Zealand","title":"New Zealand   10.3M  5.7%"}},{"type":"Feature","geometry":{"type":"Point","coordinates":[10.451526000003,51.165690999999]},"properties":{"size":"18.692109262102","address":"Germany","placename":"Germany","title":"Germany   33.7M  18.7%"}},{"type":"Feature","geometry":{"type":"Point","coordinates":[2.2137489999989,46.227638]},"properties":{"size":"18.692109262102","address":"France","placename":"France","title":"France   33.7M  18.7%"}},{"type":"Feature","geometry":{"type":"Point","coordinates":[4.4699360000043,50.503887000001]},"properties":{"size":"18.204571404891","address":"Belgium","placename":"Belgium","title":"Belgium   32.8M  18.2%"}},{"type":"Feature","geometry":{"type":"Point","coordinates":[18.643501000001,60.128160999999]},"properties":{"address":"Sweden","placename":"Sweden","title":"VT Tuve,Sweden 180.4M 0.5%\/19901 Complete 11459 CKD 27.3%"}},{"type":"Feature","geometry":{"type":"Point","coordinates":[6.129582999999,49.815273000002]},"properties":{"size":"0.00028113924711681","address":"Luxembourg","placename":"Luxembourg","title":"Luxembourg   0M  0%"}},{"type":"Feature","geometry":{"type":"Point","coordinates":[8.2275120000041,46.818187999999]},"properties":{"size":"0.0027620067416793","address":"Switzerland","placename":"Switzerland","title":"Switzerland   0.3M  0%"}},{"type":"Feature","geometry":{"type":"Point","coordinates":[24.603189000003,56.879635000001]},"properties":{"size":"0.0036615990863836","address":"Latvia","placename":"Latvia","title":"Latvia   0.4M  0%"}},{"type":"Feature","geometry":{"type":"Point","coordinates":[-106.346771,56.130366000001]},"properties":{"size":"0.011693768674939","address":"Canada","placename":"Canada","title":"Canada   1.3M  0%"}},{"type":"Feature","geometry":{"type":"Point","coordinates":[23.881274999999,55.169437999999]},"properties":{"size":"0.011987287633221","address":"Lithuania","placename":"Lithuania","title":"Lithuania   1.4M  0%"}},{"type":"Feature","geometry":{"type":"Point","coordinates":[100.992541,15.870032]},"properties":{"size":"0.013428126274695","address":"Thailand","placename":"Thailand","title":"Thailand   1.5M  0%"}},{"type":"Feature","geometry":{"type":"Point","coordinates":[14.995462999997,46.151240999997]},"properties":{"size":"0.020667994348648","address":"Slovenia","placename":"Slovenia","title":"Slovenia   2.4M  0%"}},{"type":"Feature","geometry":{"type":"Point","coordinates":[24.966760000001,45.943161000003]},"properties":{"size":"0.030857295329025","address":"Romania","placename":"Romania","title":"Romania   3.5M  0%"}},{"type":"Feature","geometry":{"type":"Point","coordinates":[127.766922,35.907756999999]},"properties":{"size":"0.032504728720274","address":"South Korea","placename":"South Korea","title":"South Korea   3.7M  0%"}},{"type":"Feature","geometry":{"type":"Point","coordinates":[22.937506000003,-30.559481999999]},"properties":{"size":"0.036736460096147","address":"South Africa","placename":"South Africa","title":"South Africa   4.2M  0%"}},{"type":"Feature","geometry":{"type":"Point","coordinates":[19.699023999996,48.669026]},"properties":{"size":"0.043955029742288","address":"Slovak Republic","placename":"Slovakia","title":"Slovak Republic   5M  0%"}},{"type":"Feature","geometry":{"type":"Point","coordinates":[7.4246158000028,43.738417600001]},"properties":{"size":"0.045919942823108","address":"Monaco","placename":"Monaco","title":"Monaco   5.3M  0%"}},{"type":"Feature","geometry":{"type":"Point","coordinates":[104.195397,35.861660000001]},"properties":{"size":"0.048013844507363","address":"China","placename":"China","title":"China   5.5M  0%"}},{"type":"Feature","geometry":{"type":"Point","coordinates":[120.960515,23.697810000004]},"properties":{"size":"0.05340900250246","address":"Taiwan","placename":"Taiwan","title":"Taiwan   6.1M  0.1%"}},{"type":"Feature","geometry":{"type":"Point","coordinates":[-102.552784,23.634501000001]},"properties":{"size":"0.053593233903033","address":"Mexico","placename":"Mexico","title":"Mexico   6.2M  0.1%"}},{"type":"Feature","geometry":{"type":"Point","coordinates":[9.5017849999985,56.263920000001]},"properties":{"size":"0.092098927774478","address":"Denmark","placename":"Denmark","title":"Denmark   10.6M  0.1%"}},{"type":"Feature","geometry":{"type":"Point","coordinates":[25.748150999997,61.924109999999]},"properties":{"size":"0.094489942526709","address":"Finland","placename":"Finland","title":"Finland   10.9M  0.1%"}},{"type":"Feature","geometry":{"type":"Point","coordinates":[14.550071999996,47.516230999997]},"properties":{"size":"0.12830718686089","address":"Austria","placename":"Austria","title":"Austria   14.7M  0.1%"}},{"type":"Feature","geometry":{"type":"Point","coordinates":[35.243321999997,38.963745000001]},"properties":{"size":"0.22427484093222","address":"Turkey","placename":"Turkey","title":"Turkey   25.8M  0.2%"}},{"type":"Feature","geometry":{"type":"Point","coordinates":[25.013606999999,58.595272000001]},"properties":{"size":"0.26686410899107","address":"Estonia","placename":"Estonia","title":"Estonia   30.7M  0.3%"}},{"type":"Feature","geometry":{"type":"Point","coordinates":[-95.712890999999,37.090240000003]},"properties":{"size":"0.29821086881425","address":"USA","placename":"United States","title":"USA   34.3M  0.3%"}},{"type":"Feature","geometry":{"type":"Point","coordinates":[15.472962000003,49.817492]},"properties":{"size":"0.34568133718206","address":"Czech Republic","placename":"Czech Republic","title":"Czech Republic   39.7M  0.3%"}},{"type":"Feature","geometry":{"type":"Point","coordinates":[-8.2244540000027,39.399871999999]},"properties":{"size":"0.35646566298943","address":"Portugal","placename":"Portugal","title":"Portugal   41M  0.4%"}},{"type":"Feature","geometry":{"type":"Point","coordinates":[19.503303999996,47.162493999998]},"properties":{"size":"0.40086689479438","address":"Hungary","placename":"Hungary","title":"Hungary   46.1M  0.4%"}},{"type":"Feature","geometry":{"type":"Point","coordinates":[78.962879999997,20.593684000004]},"properties":{"size":"0.50709027431783","address":"India","placename":"India","title":"India   58.3M  0.5%"}},{"type":"Feature","geometry":{"type":"Point","coordinates":[-63.616672000003,-38.416096999997]},"properties":{"size":"0.62157225234051","address":"Argentina","placename":"Argentina","title":"Argentina   71.4M  0.6%"}},{"type":"Feature","geometry":{"type":"Point","coordinates":[12.567380000004,41.871939999999]},"properties":{"size":"0.66138287426095","address":"Italy","placename":"Italy","title":"Italy   76M  0.7%"}},{"type":"Feature","geometry":{"type":"Point","coordinates":[5.2912660000021,52.132633000001]},"properties":{"size":"0.69863928222605","address":"Netherlands","placename":"The Netherlands","title":"Netherlands   80.3M  0.7%"}},{"type":"Feature","geometry":{"type":"Point","coordinates":[-3.7492200000004,40.463667000002]},"properties":{"size":"0.72781786209798","address":"Spain","placename":"Spain","title":"Spain   83.6M  0.7%"}},{"type":"Feature","geometry":{"type":"Point","coordinates":[19.145136,51.919437999998]},"properties":{"size":"0.81517456180497","address":"Poland","placename":"Poland","title":"Poland   93.7M  0.8%"}},{"type":"Feature","geometry":{"type":"Point","coordinates":[8.4689460000024,60.472024]},"properties":{"size":"1.1156920503512","address":"Norway","placename":"Norway","title":"Norway   128.2M  1.1%"}},{"type":"Feature","geometry":{"type":"Point","coordinates":[4.4699360000043,50.503887000001]},"properties":{"size":"1.3879232300357","address":"Belgium","placename":"Belgium","title":"Belgium   159.5M  1.4%"}},{"type":"Feature","geometry":{"type":"Point","coordinates":[-3.4359729999961,55.378051000001]},"properties":{"size":"2.8495020142823","address":"Great Britain","placename":"United Kingdom","title":"Great Britain   327.4M  2.8%"}},{"type":"Feature","geometry":{"type":"Point","coordinates":[10.451526000003,51.165690999999]},"properties":{"size":"7.2794673089776","address":"Germany","placename":"Germany","title":"Germany   836.3M  7.3%"}},{"type":"Feature","geometry":{"type":"Point","coordinates":[2.2137489999989,46.227638]},"properties":{"size":"7.6981166604976","address":"France","placename":"France","title":"France   884.4M  7.7%"}},{"type":"Feature","geometry":{"type":"Point","coordinates":[18.643501000001,60.128160999999]},"properties":{"size":"7.85034366226","address":"Sweden","placename":"Sweden","title":"Sweden   901.9M  7.9%"}},{"type":"Feature","geometry":{"type":"Point","coordinates":[-51.925279999999,-14.235004]},"properties":{"size":"65.170546736051","address":"Brazil","placename":"Brazil","title":"Brazil   7487.4M  65.2%"}},{"type":"Feature","geometry":{"type":"Point","coordinates":[-49.273251500001,-25.428356300003]},"properties":{"address":"Curitiba","placename":"Curitiba - Paran\u00e1, Brazil","title":"VT Curitiba, Brazil 11488.9M 30.3%\/25245 Unit 21.9%"}},{"type":"Feature","geometry":{"type":"Point","coordinates":[-95.712890999999,37.090240000003]},"properties":{"size":"92.09856892095","address":"USA","placename":"United States","title":"USA   11328.1M  92.1%"}},{"type":"Feature","geometry":{"type":"Point","coordinates":[8.2275120000041,46.818187999999]},"properties":{"size":"0.033150539589983","address":"Switzerland","placename":"Switzerland","title":"Switzerland   4.1M  0%"}},{"type":"Feature","geometry":{"type":"Point","coordinates":[18.643501000001,60.128160999999]},"properties":{"size":"1.953135157216","address":"Sweden","placename":"Sweden","title":"Sweden   240.2M  2%"}},{"type":"Feature","geometry":{"type":"Point","coordinates":[-3.7492200000004,40.463667000002]},"properties":{"size":"0.042235938581262","address":"Spain","placename":"Spain","title":"Spain   5.2M  0%"}},{"type":"Feature","geometry":{"type":"Point","coordinates":[127.766922,35.907756999999]},"properties":{"size":"0.021065912789235","address":"South Korea","placename":"South Korea","title":"South Korea   2.6M  0%"}},{"type":"Feature","geometry":{"type":"Point","coordinates":[19.699023999996,48.669026]},"properties":{"size":"0.010881742114426","address":"Slovak Republic","placename":"Slovakia","title":"Slovak Republic   1.3M  0%"}},{"type":"Feature","geometry":{"type":"Point","coordinates":[24.966760000001,45.943161000003]},"properties":{"size":"0.00010053277573636","address":"Romania","placename":"Romania","title":"Romania   0M  0%"}},{"type":"Feature","geometry":{"type":"Point","coordinates":[19.145136,51.919437999998]},"properties":{"size":"0.052414094474616","address":"Poland","placename":"Poland","title":"Poland   6.4M  0.1%"}},{"type":"Feature","geometry":{"type":"Point","coordinates":[8.4689460000024,60.472024]},"properties":{"size":"2.0049271514374E-5","address":"Norway","placename":"Norway","title":"Norway   0M  0%"}},{"type":"Feature","geometry":{"type":"Point","coordinates":[5.2912660000021,52.132633000001]},"properties":{"size":"0.1433218593978","address":"Netherlands","placename":"The Netherlands","title":"Netherlands   17.6M  0.1%"}},{"type":"Feature","geometry":{"type":"Point","coordinates":[-102.552784,23.634501000001]},"properties":{"size":"2.2391272030829","address":"Mexico","placename":"Mexico","title":"Mexico   275.4M  2.2%"}},{"type":"Feature","geometry":{"type":"Point","coordinates":[101.975766,4.2104840000023]},"properties":{"size":"0.050335844273069","address":"Malaysia","placename":"Malaysia","title":"Malaysia   6.2M  0.1%"}},{"type":"Feature","geometry":{"type":"Point","coordinates":[12.567380000004,41.871939999999]},"properties":{"size":"0.10233871386802","address":"Italy","placename":"Italy","title":"Italy   12.6M  0.1%"}},{"type":"Feature","geometry":{"type":"Point","coordinates":[78.962879999997,20.593684000004]},"properties":{"size":"0.0045624265467191","address":"India","placename":"India","title":"India   0.6M  0%"}},{"type":"Feature","geometry":{"type":"Point","coordinates":[19.503303999996,47.162493999998]},"properties":{"size":"0.044677796642631","address":"Hungary","placename":"Hungary","title":"Hungary   5.5M  0%"}},{"type":"Feature","geometry":{"type":"Point","coordinates":[-3.4359729999961,55.378051000001]},"properties":{"size":"0.012497856607567","address":"Great Britain","placename":"United Kingdom","title":"Great Britain   1.5M  0%"}},{"type":"Feature","geometry":{"type":"Point","coordinates":[10.451526000003,51.165690999999]},"properties":{"size":"0.48662768367465","address":"Germany","placename":"Germany","title":"Germany   59.9M  0.5%"}},{"type":"Feature","geometry":{"type":"Point","coordinates":[2.2137489999989,46.227638]},"properties":{"size":"0.59307921917568","address":"France","placename":"France","title":"France   72.9M  0.6%"}},{"type":"Feature","geometry":{"type":"Point","coordinates":[25.013606999999,58.595272000001]},"properties":{"size":"0.14951314604598","address":"Estonia","placename":"Estonia","title":"Estonia   18.4M  0.1%"}},{"type":"Feature","geometry":{"type":"Point","coordinates":[9.5017849999985,56.263920000001]},"properties":{"size":"0.0031413628235968","address":"Denmark","placename":"Denmark","title":"Denmark   0.4M  0%"}},{"type":"Feature","geometry":{"type":"Point","coordinates":[15.472962000003,49.817492]},"properties":{"size":"0.044921753314236","address":"Czech Republic","placename":"Czech Republic","title":"Czech Republic   5.5M  0%"}},{"type":"Feature","geometry":{"type":"Point","coordinates":[104.195397,35.861660000001]},"properties":{"size":"0.073760195833264","address":"China","placename":"China","title":"China   9.1M  0.1%"}},{"type":"Feature","geometry":{"type":"Point","coordinates":[-106.346771,56.130366000001]},"properties":{"size":"1.2811563978726","address":"Canada","placename":"Canada","title":"Canada   157.6M  1.3%"}},{"type":"Feature","geometry":{"type":"Point","coordinates":[-51.925279999999,-14.235004]},"properties":{"size":"0.4917771242495","address":"Brazil","placename":"Brazil","title":"Brazil   60.5M  0.5%"}},{"type":"Feature","geometry":{"type":"Point","coordinates":[4.4699360000043,50.503887000001]},"properties":{"size":"0.067548143868159","address":"Belgium","placename":"Belgium","title":"Belgium   8.3M  0.1%"}},{"type":"Feature","geometry":{"type":"Point","coordinates":[133.775136,-25.274397999999]},"properties":{"size":"4.0384961193239E-5","address":"Australia","placename":"Australia","title":"Australia   0M  0%"}},{"type":"Feature","geometry":{"type":"Point","coordinates":[-80.679961500001,37.137916799999]},"properties":{"address":"New River Valley","placename":"New River Valley Airport (PSK), Dublin, VA 24084, USA","title":"VT New River Valley, USA 12299.9M 32.4%\/25208 Unit 21.9%"}},{"type":"Feature","geometry":{"type":"Point","coordinates":[-95.712890999999,37.090240000003]},"properties":{"size":"1.8295689910248","address":"USA","placename":"United States","title":"USA   5992.5M  89.9%"}},{"type":"Feature","geometry":{"type":"Point","coordinates":[8.2275120000041,46.818187999999]},"properties":{"size":"1.2230002958872","address":"Switzerland","placename":"Switzerland","title":"Switzerland   1.3M  0%"}},{"type":"Feature","geometry":{"type":"Point","coordinates":[18.643501000001,60.128160999999]},"properties":{"size":"5.4640497090443","address":"Sweden","placename":"Sweden","title":"Sweden   42.7M  0.6%"}},{"type":"Feature","geometry":{"type":"Point","coordinates":[-3.7492200000004,40.463667000002]},"properties":{"size":"0.1479435841799","address":"Spain","placename":"Spain","title":"Spain   8.2M  0.1%"}},{"type":"Feature","geometry":{"type":"Point","coordinates":[127.766922,35.907756999999]},"properties":{"size":"0.0098629056119933","address":"South Korea","placename":"South Korea","title":"South Korea   0M  0%"}},{"type":"Feature","geometry":{"type":"Point","coordinates":[19.145136,51.919437999998]},"properties":{"size":"0.019725811223987","address":"Poland","placename":"Poland","title":"Poland   0.1M  0%"}},{"type":"Feature","geometry":{"type":"Point","coordinates":[8.4689460000024,60.472024]},"properties":{"size":"0.46848801656968","address":"Norway","placename":"Norway","title":"Norway   0M  0%"}},{"type":"Feature","geometry":{"type":"Point","coordinates":[5.2912660000021,52.132633000001]},"properties":{"size":"0.33533879080777","address":"Netherlands","placename":"The Netherlands","title":"Netherlands   8.1M  0.1%"}},{"type":"Feature","geometry":{"type":"Point","coordinates":[-102.552784,23.634501000001]},"properties":{"size":"0.039451622447973","address":"Mexico","placename":"Mexico","title":"Mexico   193.3M  2.9%"}},{"type":"Feature","geometry":{"type":"Point","coordinates":[12.567380000004,41.871939999999]},"properties":{"size":"0.024657264029983","address":"Italy","placename":"Italy","title":"Italy   35.6M  0.5%"}},{"type":"Feature","geometry":{"type":"Point","coordinates":[78.962879999997,20.593684000004]},"properties":{"size":"0.0049314528059966","address":"India","placename":"India","title":"India   0.1M  0%"}},{"type":"Feature","geometry":{"type":"Point","coordinates":[-3.4359729999961,55.378051000001]},"properties":{"size":"0.01479435841799","address":"Great Britain","placename":"United Kingdom","title":"Great Britain   0.2M  0%"}},{"type":"Feature","geometry":{"type":"Point","coordinates":[10.451526000003,51.165690999999]},"properties":{"size":"0.17260084820988","address":"Germany","placename":"Germany","title":"Germany   38.1M  0.6%"}},{"type":"Feature","geometry":{"type":"Point","coordinates":[2.2137489999989,46.227638]},"properties":{"size":"0.019725811223987","address":"France","placename":"France","title":"France   1.6M  0%"}},{"type":"Feature","geometry":{"type":"Point","coordinates":[25.013606999999,58.595272000001]},"properties":{"size":"0.0049314528059966","address":"Estonia","placename":"Estonia","title":"Estonia   0.4M  0%"}},{"type":"Feature","geometry":{"type":"Point","coordinates":[9.5017849999985,56.263920000001]},"properties":{"size":"0.0049314528059966","address":"Denmark","placename":"Denmark","title":"Denmark   0M  0%"}},{"type":"Feature","geometry":{"type":"Point","coordinates":[104.195397,35.861660000001]},"properties":{"size":"0.0098629056119933","address":"China","placename":"China","title":"China   4.1M  0.1%"}},{"type":"Feature","geometry":{"type":"Point","coordinates":[-106.346771,56.130366000001]},"properties":{"size":"69.666633790315","address":"Canada","placename":"Canada","title":"Canada   310.2M  4.7%"}},{"type":"Feature","geometry":{"type":"Point","coordinates":[-51.925279999999,-14.235004]},"properties":{"size":"8.6744254857481","address":"Brazil","placename":"Brazil","title":"Brazil   26.4M  0.4%"}},{"type":"Feature","geometry":{"type":"Point","coordinates":[4.4699360000043,50.503887000001]},"properties":{"size":"0.27122990432982","address":"Belgium","placename":"Belgium","title":"Belgium   1.8M  0%"}},{"type":"Feature","geometry":{"type":"Point","coordinates":[-75.555185799998,40.515930399997]},"properties":{"address":"Macungie, USA","placename":"Macungie, PA, USA","title":"Mack Macungie, USA 6664.5M 45.3%\/20278 Unit 93%"}},{"type":"Feature","geometry":{"type":"Point","coordinates":[0,0]},"properties":{"size":"0.71789417708056","address":"Other-APAC","title":"Other-APAC   54M  0.7%"}},{"type":"Feature","geometry":{"type":"Point","coordinates":[120.960515,23.697810000004]},"properties":{"size":"0.81095453336878","address":"Taiwan","placename":"Taiwan","title":"Taiwan   61M  0.8%"}},{"type":"Feature","geometry":{"type":"Point","coordinates":[22.937506000003,-30.559481999999]},"properties":{"size":"34.153150757777","address":"South Africa","placename":"South Africa","title":"South Africa   2569M  34.2%"}},{"type":"Feature","geometry":{"type":"Point","coordinates":[69.345115999996,30.375321000001]},"properties":{"size":"3.2704068067003","address":"Pakistan","placename":"Pakistan","title":"Pakistan   246M  3.3%"}},{"type":"Feature","geometry":{"type":"Point","coordinates":[57.552151999999,-20.348403999997]},"properties":{"size":"0.46530178144111","address":"Mauritius","placename":"Mauritius","title":"Mauritius   35M  0.5%"}},{"type":"Feature","geometry":{"type":"Point","coordinates":[101.975766,4.2104840000023]},"properties":{"size":"8.1627226801383","address":"Malaysia","placename":"Malaysia","title":"Malaysia   614M  8.2%"}},{"type":"Feature","geometry":{"type":"Point","coordinates":[37.906193000004,-0.023558999995522]},"properties":{"size":"1.9143844722148","address":"Kenya","placename":"Kenya","title":"Kenya   144M  1.9%"}},{"type":"Feature","geometry":{"type":"Point","coordinates":[113.921327,-0.78927499999687]},"properties":{"size":"38.287689444297","address":"Indonesia","placename":"Indonesia","title":"Indonesia   2880M  38.3%"}},{"type":"Feature","geometry":{"type":"Point","coordinates":[-78.183406000002,-1.8312390000011]},"properties":{"size":"0.47859611805371","address":"Ecuador","placename":"Ecuador","title":"Ecuador   36M  0.5%"}},{"type":"Feature","geometry":{"type":"Point","coordinates":[104.195397,35.861660000001]},"properties":{"size":"11.738899228928","address":"China","placename":"China","title":"China   883M  11.7%"}},{"type":"Feature","geometry":{"type":"Point","coordinates":[153.0235024,-27.4709331]},"properties":{"size":"0","address":"Brisbane","placename":"Brisbane QLD, Australia","title":"Mack Brisbane 7522M 51.1%\/845 Unit 3.9%"}},{"type":"Feature","geometry":{"type":"Point","coordinates":[-66.589730000004,6.4237500000005]},"properties":{"size":"18.953165344862","address":"Venezuela","placename":"Venezuela","title":"Venezuela   99.6M  19%"}},{"type":"Feature","geometry":{"type":"Point","coordinates":[-51.925279999999,-14.235004]},"properties":{"size":"8.1985153853605","address":"Brasil","placename":"Brazil","title":"Brasil   43.1M  8.2%"}},{"type":"Feature","geometry":{"type":"Point","coordinates":[-95.712890999999,37.090240000003]},"properties":{"size":"72.848319269777","address":"U.S.A","placename":"United States","title":"U.S.A   382.9M  72.8%"}},{"type":"Feature","geometry":{"type":"Point","coordinates":[-67.173842999997,10.251411000002]},"properties":{"size":"0","address":"Venezuela Las Tejerias","placename":"Las Tejerias, Venezuela","title":"Mack Venezuela Las Tejerias 525.7M 3.6%\/691 Unit 3.2%"}},{"type":"Feature","geometry":{"type":"LineString","coordinates":[[-95.712890999999,37.090240000003],[-67.173842999997,10.251411000002]]},"properties":[]},{"type":"Feature","geometry":{"type":"LineString","coordinates":[[-51.925279999999,-14.235004],[-67.173842999997,10.251411000002]]},"properties":[]},{"type":"Feature","geometry":{"type":"LineString","coordinates":[[-66.589730000004,6.4237500000005],[-67.173842999997,10.251411000002]]},"properties":[]},{"type":"Feature","geometry":{"type":"LineString","coordinates":[[104.195397,35.861660000001],[153.0235024,-27.4709331]]},"properties":[]},{"type":"Feature","geometry":{"type":"LineString","coordinates":[[-78.183406000002,-1.8312390000011],[153.0235024,-27.4709331]]},"properties":[]},{"type":"Feature","geometry":{"type":"LineString","coordinates":[[113.921327,-0.78927499999687],[153.0235024,-27.4709331]]},"properties":[]},{"type":"Feature","geometry":{"type":"LineString","coordinates":[[37.906193000004,-0.023558999995522],[153.0235024,-27.4709331]]},"properties":[]},{"type":"Feature","geometry":{"type":"LineString","coordinates":[[101.975766,4.2104840000023],[153.0235024,-27.4709331]]},"properties":[]},{"type":"Feature","geometry":{"type":"LineString","coordinates":[[57.552151999999,-20.348403999997],[153.0235024,-27.4709331]]},"properties":[]},{"type":"Feature","geometry":{"type":"LineString","coordinates":[[69.345115999996,30.375321000001],[153.0235024,-27.4709331]]},"properties":[]},{"type":"Feature","geometry":{"type":"LineString","coordinates":[[22.937506000003,-30.559481999999],[153.0235024,-27.4709331]]},"properties":[]},{"type":"Feature","geometry":{"type":"LineString","coordinates":[[120.960515,23.697810000004],[153.0235024,-27.4709331]]},"properties":[]},{"type":"Feature","geometry":{"type":"LineString","coordinates":[[0,0],[153.0235024,-27.4709331]]},"properties":[]},{"type":"Feature","geometry":{"type":"LineString","coordinates":[[4.4699360000043,50.503887000001],[-75.555185799998,40.515930399997]]},"properties":[]},{"type":"Feature","geometry":{"type":"LineString","coordinates":[[-51.925279999999,-14.235004],[-75.555185799998,40.515930399997]]},"properties":[]},{"type":"Feature","geometry":{"type":"LineString","coordinates":[[-106.346771,56.130366000001],[-75.555185799998,40.515930399997]]},"properties":[]},{"type":"Feature","geometry":{"type":"LineString","coordinates":[[104.195397,35.861660000001],[-75.555185799998,40.515930399997]]},"properties":[]},{"type":"Feature","geometry":{"type":"LineString","coordinates":[[9.5017849999985,56.263920000001],[-75.555185799998,40.515930399997]]},"properties":[]},{"type":"Feature","geometry":{"type":"LineString","coordinates":[[25.013606999999,58.595272000001],[-75.555185799998,40.515930399997]]},"properties":[]},{"type":"Feature","geometry":{"type":"LineString","coordinates":[[2.2137489999989,46.227638],[-75.555185799998,40.515930399997]]},"properties":[]},{"type":"Feature","geometry":{"type":"LineString","coordinates":[[10.451526000003,51.165690999999],[-75.555185799998,40.515930399997]]},"properties":[]},{"type":"Feature","geometry":{"type":"LineString","coordinates":[[-3.4359729999961,55.378051000001],[-75.555185799998,40.515930399997]]},"properties":[]},{"type":"Feature","geometry":{"type":"LineString","coordinates":[[78.962879999997,20.593684000004],[-75.555185799998,40.515930399997]]},"properties":[]},{"type":"Feature","geometry":{"type":"LineString","coordinates":[[12.567380000004,41.871939999999],[-75.555185799998,40.515930399997]]},"properties":[]},{"type":"Feature","geometry":{"type":"LineString","coordinates":[[-102.552784,23.634501000001],[-75.555185799998,40.515930399997]]},"properties":[]},{"type":"Feature","geometry":{"type":"LineString","coordinates":[[5.2912660000021,52.132633000001],[-75.555185799998,40.515930399997]]},"properties":[]},{"type":"Feature","geometry":{"type":"LineString","coordinates":[[8.4689460000024,60.472024],[-75.555185799998,40.515930399997]]},"properties":[]},{"type":"Feature","geometry":{"type":"LineString","coordinates":[[19.145136,51.919437999998],[-75.555185799998,40.515930399997]]},"properties":[]},{"type":"Feature","geometry":{"type":"LineString","coordinates":[[127.766922,35.907756999999],[-75.555185799998,40.515930399997]]},"properties":[]},{"type":"Feature","geometry":{"type":"LineString","coordinates":[[-3.7492200000004,40.463667000002],[-75.555185799998,40.515930399997]]},"properties":[]},{"type":"Feature","geometry":{"type":"LineString","coordinates":[[18.643501000001,60.128160999999],[-75.555185799998,40.515930399997]]},"properties":[]},{"type":"Feature","geometry":{"type":"LineString","coordinates":[[8.2275120000041,46.818187999999],[-75.555185799998,40.515930399997]]},"properties":[]},{"type":"Feature","geometry":{"type":"LineString","coordinates":[[-95.712890999999,37.090240000003],[-75.555185799998,40.515930399997]]},"properties":[]},{"type":"Feature","geometry":{"type":"LineString","coordinates":[[133.775136,-25.274397999999],[-80.679961500001,37.137916799999]]},"properties":[]},{"type":"Feature","geometry":{"type":"LineString","coordinates":[[4.4699360000043,50.503887000001],[-80.679961500001,37.137916799999]]},"properties":[]},{"type":"Feature","geometry":{"type":"LineString","coordinates":[[-51.925279999999,-14.235004],[-80.679961500001,37.137916799999]]},"properties":[]},{"type":"Feature","geometry":{"type":"LineString","coordinates":[[-106.346771,56.130366000001],[-80.679961500001,37.137916799999]]},"properties":[]},{"type":"Feature","geometry":{"type":"LineString","coordinates":[[104.195397,35.861660000001],[-80.679961500001,37.137916799999]]},"properties":[]},{"type":"Feature","geometry":{"type":"LineString","coordinates":[[15.472962000003,49.817492],[-80.679961500001,37.137916799999]]},"properties":[]},{"type":"Feature","geometry":{"type":"LineString","coordinates":[[9.5017849999985,56.263920000001],[-80.679961500001,37.137916799999]]},"properties":[]},{"type":"Feature","geometry":{"type":"LineString","coordinates":[[25.013606999999,58.595272000001],[-80.679961500001,37.137916799999]]},"properties":[]},{"type":"Feature","geometry":{"type":"LineString","coordinates":[[2.2137489999989,46.227638],[-80.679961500001,37.137916799999]]},"properties":[]},{"type":"Feature","geometry":{"type":"LineString","coordinates":[[10.451526000003,51.165690999999],[-80.679961500001,37.137916799999]]},"properties":[]},{"type":"Feature","geometry":{"type":"LineString","coordinates":[[-3.4359729999961,55.378051000001],[-80.679961500001,37.137916799999]]},"properties":[]},{"type":"Feature","geometry":{"type":"LineString","coordinates":[[19.503303999996,47.162493999998],[-80.679961500001,37.137916799999]]},"properties":[]},{"type":"Feature","geometry":{"type":"LineString","coordinates":[[78.962879999997,20.593684000004],[-80.679961500001,37.137916799999]]},"properties":[]},{"type":"Feature","geometry":{"type":"LineString","coordinates":[[12.567380000004,41.871939999999],[-80.679961500001,37.137916799999]]},"properties":[]},{"type":"Feature","geometry":{"type":"LineString","coordinates":[[101.975766,4.2104840000023],[-80.679961500001,37.137916799999]]},"properties":[]},{"type":"Feature","geometry":{"type":"LineString","coordinates":[[-102.552784,23.634501000001],[-80.679961500001,37.137916799999]]},"properties":[]},{"type":"Feature","geometry":{"type":"LineString","coordinates":[[5.2912660000021,52.132633000001],[-80.679961500001,37.137916799999]]},"properties":[]},{"type":"Feature","geometry":{"type":"LineString","coordinates":[[8.4689460000024,60.472024],[-80.679961500001,37.137916799999]]},"properties":[]},{"type":"Feature","geometry":{"type":"LineString","coordinates":[[19.145136,51.919437999998],[-80.679961500001,37.137916799999]]},"properties":[]},{"type":"Feature","geometry":{"type":"LineString","coordinates":[[24.966760000001,45.943161000003],[-80.679961500001,37.137916799999]]},"properties":[]},{"type":"Feature","geometry":{"type":"LineString","coordinates":[[19.699023999996,48.669026],[-80.679961500001,37.137916799999]]},"properties":[]},{"type":"Feature","geometry":{"type":"LineString","coordinates":[[127.766922,35.907756999999],[-80.679961500001,37.137916799999]]},"properties":[]},{"type":"Feature","geometry":{"type":"LineString","coordinates":[[-3.7492200000004,40.463667000002],[-80.679961500001,37.137916799999]]},"properties":[]},{"type":"Feature","geometry":{"type":"LineString","coordinates":[[18.643501000001,60.128160999999],[-80.679961500001,37.137916799999]]},"properties":[]},{"type":"Feature","geometry":{"type":"LineString","coordinates":[[8.2275120000041,46.818187999999],[-80.679961500001,37.137916799999]]},"properties":[]},{"type":"Feature","geometry":{"type":"LineString","coordinates":[[-95.712890999999,37.090240000003],[-80.679961500001,37.137916799999]]},"properties":[]},{"type":"Feature","geometry":{"type":"LineString","coordinates":[[-51.925279999999,-14.235004],[-49.273251500001,-25.428356300003]]},"properties":[]},{"type":"Feature","geometry":{"type":"LineString","coordinates":[[18.643501000001,60.128160999999],[-49.273251500001,-25.428356300003]]},"properties":[]},{"type":"Feature","geometry":{"type":"LineString","coordinates":[[2.2137489999989,46.227638],[-49.273251500001,-25.428356300003]]},"properties":[]},{"type":"Feature","geometry":{"type":"LineString","coordinates":[[10.451526000003,51.165690999999],[-49.273251500001,-25.428356300003]]},"properties":[]},{"type":"Feature","geometry":{"type":"LineString","coordinates":[[-3.4359729999961,55.378051000001],[-49.273251500001,-25.428356300003]]},"properties":[]},{"type":"Feature","geometry":{"type":"LineString","coordinates":[[4.4699360000043,50.503887000001],[-49.273251500001,-25.428356300003]]},"properties":[]},{"type":"Feature","geometry":{"type":"LineString","coordinates":[[8.4689460000024,60.472024],[-49.273251500001,-25.428356300003]]},"properties":[]},{"type":"Feature","geometry":{"type":"LineString","coordinates":[[19.145136,51.919437999998],[-49.273251500001,-25.428356300003]]},"properties":[]},{"type":"Feature","geometry":{"type":"LineString","coordinates":[[-3.7492200000004,40.463667000002],[-49.273251500001,-25.428356300003]]},"properties":[]},{"type":"Feature","geometry":{"type":"LineString","coordinates":[[5.2912660000021,52.132633000001],[-49.273251500001,-25.428356300003]]},"properties":[]},{"type":"Feature","geometry":{"type":"LineString","coordinates":[[12.567380000004,41.871939999999],[-49.273251500001,-25.428356300003]]},"properties":[]},{"type":"Feature","geometry":{"type":"LineString","coordinates":[[-63.616672000003,-38.416096999997],[-49.273251500001,-25.428356300003]]},"properties":[]},{"type":"Feature","geometry":{"type":"LineString","coordinates":[[78.962879999997,20.593684000004],[-49.273251500001,-25.428356300003]]},"properties":[]},{"type":"Feature","geometry":{"type":"LineString","coordinates":[[19.503303999996,47.162493999998],[-49.273251500001,-25.428356300003]]},"properties":[]},{"type":"Feature","geometry":{"type":"LineString","coordinates":[[-8.2244540000027,39.399871999999],[-49.273251500001,-25.428356300003]]},"properties":[]},{"type":"Feature","geometry":{"type":"LineString","coordinates":[[15.472962000003,49.817492],[-49.273251500001,-25.428356300003]]},"properties":[]},{"type":"Feature","geometry":{"type":"LineString","coordinates":[[-95.712890999999,37.090240000003],[-49.273251500001,-25.428356300003]]},"properties":[]},{"type":"Feature","geometry":{"type":"LineString","coordinates":[[25.013606999999,58.595272000001],[-49.273251500001,-25.428356300003]]},"properties":[]},{"type":"Feature","geometry":{"type":"LineString","coordinates":[[35.243321999997,38.963745000001],[-49.273251500001,-25.428356300003]]},"properties":[]},{"type":"Feature","geometry":{"type":"LineString","coordinates":[[14.550071999996,47.516230999997],[-49.273251500001,-25.428356300003]]},"properties":[]},{"type":"Feature","geometry":{"type":"LineString","coordinates":[[25.748150999997,61.924109999999],[-49.273251500001,-25.428356300003]]},"properties":[]},{"type":"Feature","geometry":{"type":"LineString","coordinates":[[9.5017849999985,56.263920000001],[-49.273251500001,-25.428356300003]]},"properties":[]},{"type":"Feature","geometry":{"type":"LineString","coordinates":[[-102.552784,23.634501000001],[-49.273251500001,-25.428356300003]]},"properties":[]},{"type":"Feature","geometry":{"type":"LineString","coordinates":[[120.960515,23.697810000004],[-49.273251500001,-25.428356300003]]},"properties":[]},{"type":"Feature","geometry":{"type":"LineString","coordinates":[[104.195397,35.861660000001],[-49.273251500001,-25.428356300003]]},"properties":[]},{"type":"Feature","geometry":{"type":"LineString","coordinates":[[7.4246158000028,43.738417600001],[-49.273251500001,-25.428356300003]]},"properties":[]},{"type":"Feature","geometry":{"type":"LineString","coordinates":[[19.699023999996,48.669026],[-49.273251500001,-25.428356300003]]},"properties":[]},{"type":"Feature","geometry":{"type":"LineString","coordinates":[[22.937506000003,-30.559481999999],[-49.273251500001,-25.428356300003]]},"properties":[]},{"type":"Feature","geometry":{"type":"LineString","coordinates":[[127.766922,35.907756999999],[-49.273251500001,-25.428356300003]]},"properties":[]},{"type":"Feature","geometry":{"type":"LineString","coordinates":[[24.966760000001,45.943161000003],[-49.273251500001,-25.428356300003]]},"properties":[]},{"type":"Feature","geometry":{"type":"LineString","coordinates":[[14.995462999997,46.151240999997],[-49.273251500001,-25.428356300003]]},"properties":[]},{"type":"Feature","geometry":{"type":"LineString","coordinates":[[100.992541,15.870032],[-49.273251500001,-25.428356300003]]},"properties":[]},{"type":"Feature","geometry":{"type":"LineString","coordinates":[[23.881274999999,55.169437999999],[-49.273251500001,-25.428356300003]]},"properties":[]},{"type":"Feature","geometry":{"type":"LineString","coordinates":[[-106.346771,56.130366000001],[-49.273251500001,-25.428356300003]]},"properties":[]},{"type":"Feature","geometry":{"type":"LineString","coordinates":[[24.603189000003,56.879635000001],[-49.273251500001,-25.428356300003]]},"properties":[]},{"type":"Feature","geometry":{"type":"LineString","coordinates":[[8.2275120000041,46.818187999999],[-49.273251500001,-25.428356300003]]},"properties":[]},{"type":"Feature","geometry":{"type":"LineString","coordinates":[[6.129582999999,49.815273000002],[-49.273251500001,-25.428356300003]]},"properties":[]},{"type":"Feature","geometry":{"type":"LineString","coordinates":[[4.4699360000043,50.503887000001],[18.643501000001,60.128160999999]]},"properties":[]},{"type":"Feature","geometry":{"type":"LineString","coordinates":[[2.2137489999989,46.227638],[18.643501000001,60.128160999999]]},"properties":[]},{"type":"Feature","geometry":{"type":"LineString","coordinates":[[10.451526000003,51.165690999999],[18.643501000001,60.128160999999]]},"properties":[]},{"type":"Feature","geometry":{"type":"LineString","coordinates":[[174.885971,-40.900556999999],[18.643501000001,60.128160999999]]},"properties":[]},{"type":"Feature","geometry":{"type":"LineString","coordinates":[[-3.7492200000004,40.463667000002],[18.643501000001,60.128160999999]]},"properties":[]},{"type":"Feature","geometry":{"type":"LineString","coordinates":[[18.643501000001,60.128160999999],[18.643501000001,60.128160999999]]},"properties":[]},{"type":"Feature","geometry":{"type":"LineString","coordinates":[[133.775136,-25.274397999999],[3.7303799999963,51.053468000003]]},"properties":[]},{"type":"Feature","geometry":{"type":"LineString","coordinates":[[14.550071999996,47.516230999997],[3.7303799999963,51.053468000003]]},"properties":[]},{"type":"Feature","geometry":{"type":"LineString","coordinates":[[4.4699360000043,50.503887000001],[3.7303799999963,51.053468000003]]},"properties":[]},{"type":"Feature","geometry":{"type":"LineString","coordinates":[[-51.925279999999,-14.235004],[3.7303799999963,51.053468000003]]},"properties":[]},{"type":"Feature","geometry":{"type":"LineString","coordinates":[[-106.346771,56.130366000001],[3.7303799999963,51.053468000003]]},"properties":[]},{"type":"Feature","geometry":{"type":"LineString","coordinates":[[104.195397,35.861660000001],[3.7303799999963,51.053468000003]]},"properties":[]},{"type":"Feature","geometry":{"type":"LineString","coordinates":[[15.472962000003,49.817492],[3.7303799999963,51.053468000003]]},"properties":[]},{"type":"Feature","geometry":{"type":"LineString","coordinates":[[9.5017849999985,56.263920000001],[3.7303799999963,51.053468000003]]},"properties":[]},{"type":"Feature","geometry":{"type":"LineString","coordinates":[[25.013606999999,58.595272000001],[3.7303799999963,51.053468000003]]},"properties":[]},{"type":"Feature","geometry":{"type":"LineString","coordinates":[[25.748150999997,61.924109999999],[3.7303799999963,51.053468000003]]},"properties":[]},{"type":"Feature","geometry":{"type":"LineString","coordinates":[[2.2137489999989,46.227638],[3.7303799999963,51.053468000003]]},"properties":[]},{"type":"Feature","geometry":{"type":"LineString","coordinates":[[10.451526000003,51.165690999999],[3.7303799999963,51.053468000003]]},"properties":[]},{"type":"Feature","geometry":{"type":"LineString","coordinates":[[19.503303999996,47.162493999998],[3.7303799999963,51.053468000003]]},"properties":[]},{"type":"Feature","geometry":{"type":"LineString","coordinates":[[78.962879999997,20.593684000004],[3.7303799999963,51.053468000003]]},"properties":[]},{"type":"Feature","geometry":{"type":"LineString","coordinates":[[12.567380000004,41.871939999999],[3.7303799999963,51.053468000003]]},"properties":[]},{"type":"Feature","geometry":{"type":"LineString","coordinates":[[127.766922,35.907756999999],[3.7303799999963,51.053468000003]]},"properties":[]},{"type":"Feature","geometry":{"type":"LineString","coordinates":[[24.603189000003,56.879635000001],[3.7303799999963,51.053468000003]]},"properties":[]},{"type":"Feature","geometry":{"type":"LineString","coordinates":[[23.881274999999,55.169437999999],[3.7303799999963,51.053468000003]]},"properties":[]},{"type":"Feature","geometry":{"type":"LineString","coordinates":[[6.129582999999,49.815273000002],[3.7303799999963,51.053468000003]]},"properties":[]},{"type":"Feature","geometry":{"type":"LineString","coordinates":[[101.975766,4.2104840000023],[3.7303799999963,51.053468000003]]},"properties":[]},{"type":"Feature","geometry":{"type":"LineString","coordinates":[[7.4246158000028,43.738417600001],[3.7303799999963,51.053468000003]]},"properties":[]},{"type":"Feature","geometry":{"type":"LineString","coordinates":[[5.2912660000021,52.132633000001],[3.7303799999963,51.053468000003]]},"properties":[]},{"type":"Feature","geometry":{"type":"LineString","coordinates":[[8.4689460000024,60.472024],[3.7303799999963,51.053468000003]]},"properties":[]},{"type":"Feature","geometry":{"type":"LineString","coordinates":[[19.145136,51.919437999998],[3.7303799999963,51.053468000003]]},"properties":[]},{"type":"Feature","geometry":{"type":"LineString","coordinates":[[-8.2244540000027,39.399871999999],[3.7303799999963,51.053468000003]]},"properties":[]},{"type":"Feature","geometry":{"type":"LineString","coordinates":[[24.966760000001,45.943161000003],[3.7303799999963,51.053468000003]]},"properties":[]},{"type":"Feature","geometry":{"type":"LineString","coordinates":[[19.699023999996,48.669026],[3.7303799999963,51.053468000003]]},"properties":[]},{"type":"Feature","geometry":{"type":"LineString","coordinates":[[14.995462999997,46.151240999997],[3.7303799999963,51.053468000003]]},"properties":[]},{"type":"Feature","geometry":{"type":"LineString","coordinates":[[22.937506000003,-30.559481999999],[3.7303799999963,51.053468000003]]},"properties":[]},{"type":"Feature","geometry":{"type":"LineString","coordinates":[[-3.7492200000004,40.463667000002],[3.7303799999963,51.053468000003]]},"properties":[]},{"type":"Feature","geometry":{"type":"LineString","coordinates":[[18.643501000001,60.128160999999],[3.7303799999963,51.053468000003]]},"properties":[]},{"type":"Feature","geometry":{"type":"LineString","coordinates":[[8.2275120000041,46.818187999999],[3.7303799999963,51.053468000003]]},"properties":[]},{"type":"Feature","geometry":{"type":"LineString","coordinates":[[100.992541,15.870032],[3.7303799999963,51.053468000003]]},"properties":[]},{"type":"Feature","geometry":{"type":"LineString","coordinates":[[35.243321999997,38.963745000001],[3.7303799999963,51.053468000003]]},"properties":[]},{"type":"Feature","geometry":{"type":"LineString","coordinates":[[-3.4359729999961,55.378051000001],[3.7303799999963,51.053468000003]]},"properties":[]},{"type":"Feature","geometry":{"type":"LineString","coordinates":[[-95.712890999999,37.090240000003],[3.7303799999963,51.053468000003]]},"properties":[]},{"type":"Feature","geometry":{"type":"LineString","coordinates":[[114.109497,22.396428000004],[3.7303799999963,51.053468000003]]},"properties":[]},{"type":"Feature","geometry":{"type":"LineString","coordinates":[[14.550071999996,47.516230999997],[6.4059880000016,48.555827999998]]},"properties":[]},{"type":"Feature","geometry":{"type":"LineString","coordinates":[[4.4699360000043,50.503887000001],[6.4059880000016,48.555827999998]]},"properties":[]},{"type":"Feature","geometry":{"type":"LineString","coordinates":[[-51.925279999999,-14.235004],[6.4059880000016,48.555827999998]]},"properties":[]},{"type":"Feature","geometry":{"type":"LineString","coordinates":[[104.195397,35.861660000001],[6.4059880000016,48.555827999998]]},"properties":[]},{"type":"Feature","geometry":{"type":"LineString","coordinates":[[15.472962000003,49.817492],[6.4059880000016,48.555827999998]]},"properties":[]},{"type":"Feature","geometry":{"type":"LineString","coordinates":[[9.5017849999985,56.263920000001],[6.4059880000016,48.555827999998]]},"properties":[]},{"type":"Feature","geometry":{"type":"LineString","coordinates":[[25.013606999999,58.595272000001],[6.4059880000016,48.555827999998]]},"properties":[]},{"type":"Feature","geometry":{"type":"LineString","coordinates":[[2.2137489999989,46.227638],[6.4059880000016,48.555827999998]]},"properties":[]},{"type":"Feature","geometry":{"type":"LineString","coordinates":[[10.451526000003,51.165690999999],[6.4059880000016,48.555827999998]]},"properties":[]},{"type":"Feature","geometry":{"type":"LineString","coordinates":[[19.503303999996,47.162493999998],[6.4059880000016,48.555827999998]]},"properties":[]},{"type":"Feature","geometry":{"type":"LineString","coordinates":[[78.962879999997,20.593684000004],[6.4059880000016,48.555827999998]]},"properties":[]},{"type":"Feature","geometry":{"type":"LineString","coordinates":[[12.567380000004,41.871939999999],[6.4059880000016,48.555827999998]]},"properties":[]},{"type":"Feature","geometry":{"type":"LineString","coordinates":[[138.252924,36.204824000001],[6.4059880000016,48.555827999998]]},"properties":[]},{"type":"Feature","geometry":{"type":"LineString","coordinates":[[127.766922,35.907756999999],[6.4059880000016,48.555827999998]]},"properties":[]},{"type":"Feature","geometry":{"type":"LineString","coordinates":[[6.129582999999,49.815273000002],[6.4059880000016,48.555827999998]]},"properties":[]},{"type":"Feature","geometry":{"type":"LineString","coordinates":[[101.975766,4.2104840000023],[6.4059880000016,48.555827999998]]},"properties":[]},{"type":"Feature","geometry":{"type":"LineString","coordinates":[[7.4246158000028,43.738417600001],[6.4059880000016,48.555827999998]]},"properties":[]},{"type":"Feature","geometry":{"type":"LineString","coordinates":[[5.2912660000021,52.132633000001],[6.4059880000016,48.555827999998]]},"properties":[]},{"type":"Feature","geometry":{"type":"LineString","coordinates":[[8.4689460000024,60.472024],[6.4059880000016,48.555827999998]]},"properties":[]},{"type":"Feature","geometry":{"type":"LineString","coordinates":[[19.145136,51.919437999998],[6.4059880000016,48.555827999998]]},"properties":[]},{"type":"Feature","geometry":{"type":"LineString","coordinates":[[-8.2244540000027,39.399871999999],[6.4059880000016,48.555827999998]]},"properties":[]},{"type":"Feature","geometry":{"type":"LineString","coordinates":[[24.966760000001,45.943161000003],[6.4059880000016,48.555827999998]]},"properties":[]},{"type":"Feature","geometry":{"type":"LineString","coordinates":[[19.699023999996,48.669026],[6.4059880000016,48.555827999998]]},"properties":[]},{"type":"Feature","geometry":{"type":"LineString","coordinates":[[-3.7492200000004,40.463667000002],[6.4059880000016,48.555827999998]]},"properties":[]},{"type":"Feature","geometry":{"type":"LineString","coordinates":[[18.643501000001,60.128160999999],[6.4059880000016,48.555827999998]]},"properties":[]},{"type":"Feature","geometry":{"type":"LineString","coordinates":[[8.2275120000041,46.818187999999],[6.4059880000016,48.555827999998]]},"properties":[]},{"type":"Feature","geometry":{"type":"LineString","coordinates":[[9.5374989999968,33.886917000001],[6.4059880000016,48.555827999998]]},"properties":[]},{"type":"Feature","geometry":{"type":"LineString","coordinates":[[35.243321999997,38.963745000001],[6.4059880000016,48.555827999998]]},"properties":[]},{"type":"Feature","geometry":{"type":"LineString","coordinates":[[-3.4359729999961,55.378051000001],[6.4059880000016,48.555827999998]]},"properties":[]},{"type":"Feature","geometry":{"type":"LineString","coordinates":[[-95.712890999999,37.090240000003],[6.4059880000016,48.555827999998]]},"properties":[]},{"type":"Feature","geometry":{"type":"LineString","coordinates":[[14.550071999996,47.516230999997],[5.2192460000015,46.20279]]},"properties":[]},{"type":"Feature","geometry":{"type":"LineString","coordinates":[[4.4699360000043,50.503887000001],[5.2192460000015,46.20279]]},"properties":[]},{"type":"Feature","geometry":{"type":"LineString","coordinates":[[-51.925279999999,-14.235004],[5.2192460000015,46.20279]]},"properties":[]},{"type":"Feature","geometry":{"type":"LineString","coordinates":[[104.195397,35.861660000001],[5.2192460000015,46.20279]]},"properties":[]},{"type":"Feature","geometry":{"type":"LineString","coordinates":[[15.472962000003,49.817492],[5.2192460000015,46.20279]]},"properties":[]},{"type":"Feature","geometry":{"type":"LineString","coordinates":[[9.5017849999985,56.263920000001],[5.2192460000015,46.20279]]},"properties":[]},{"type":"Feature","geometry":{"type":"LineString","coordinates":[[25.013606999999,58.595272000001],[5.2192460000015,46.20279]]},"properties":[]},{"type":"Feature","geometry":{"type":"LineString","coordinates":[[25.748150999997,61.924109999999],[5.2192460000015,46.20279]]},"properties":[]},{"type":"Feature","geometry":{"type":"LineString","coordinates":[[2.2137489999989,46.227638],[5.2192460000015,46.20279]]},"properties":[]},{"type":"Feature","geometry":{"type":"LineString","coordinates":[[10.451526000003,51.165690999999],[5.2192460000015,46.20279]]},"properties":[]},{"type":"Feature","geometry":{"type":"LineString","coordinates":[[19.503303999996,47.162493999998],[5.2192460000015,46.20279]]},"properties":[]},{"type":"Feature","geometry":{"type":"LineString","coordinates":[[78.962879999997,20.593684000004],[5.2192460000015,46.20279]]},"properties":[]},{"type":"Feature","geometry":{"type":"LineString","coordinates":[[12.567380000004,41.871939999999],[5.2192460000015,46.20279]]},"properties":[]},{"type":"Feature","geometry":{"type":"LineString","coordinates":[[138.252924,36.204824000001],[5.2192460000015,46.20279]]},"properties":[]},{"type":"Feature","geometry":{"type":"LineString","coordinates":[[23.881274999999,55.169437999999],[5.2192460000015,46.20279]]},"properties":[]},{"type":"Feature","geometry":{"type":"LineString","coordinates":[[6.129582999999,49.815273000002],[5.2192460000015,46.20279]]},"properties":[]},{"type":"Feature","geometry":{"type":"LineString","coordinates":[[5.2912660000021,52.132633000001],[5.2192460000015,46.20279]]},"properties":[]},{"type":"Feature","geometry":{"type":"LineString","coordinates":[[8.4689460000024,60.472024],[5.2192460000015,46.20279]]},"properties":[]},{"type":"Feature","geometry":{"type":"LineString","coordinates":[[19.145136,51.919437999998],[5.2192460000015,46.20279]]},"properties":[]},{"type":"Feature","geometry":{"type":"LineString","coordinates":[[-8.2244540000027,39.399871999999],[5.2192460000015,46.20279]]},"properties":[]},{"type":"Feature","geometry":{"type":"LineString","coordinates":[[24.966760000001,45.943161000003],[5.2192460000015,46.20279]]},"properties":[]},{"type":"Feature","geometry":{"type":"LineString","coordinates":[[19.699023999996,48.669026],[5.2192460000015,46.20279]]},"properties":[]},{"type":"Feature","geometry":{"type":"LineString","coordinates":[[14.995462999997,46.151240999997],[5.2192460000015,46.20279]]},"properties":[]},{"type":"Feature","geometry":{"type":"LineString","coordinates":[[22.937506000003,-30.559481999999],[5.2192460000015,46.20279]]},"properties":[]},{"type":"Feature","geometry":{"type":"LineString","coordinates":[[-3.7492200000004,40.463667000002],[5.2192460000015,46.20279]]},"properties":[]},{"type":"Feature","geometry":{"type":"LineString","coordinates":[[18.643501000001,60.128160999999],[5.2192460000015,46.20279]]},"properties":[]},{"type":"Feature","geometry":{"type":"LineString","coordinates":[[8.2275120000041,46.818187999999],[5.2192460000015,46.20279]]},"properties":[]},{"type":"Feature","geometry":{"type":"LineString","coordinates":[[100.992541,15.870032],[5.2192460000015,46.20279]]},"properties":[]},{"type":"Feature","geometry":{"type":"LineString","coordinates":[[35.243321999997,38.963745000001],[5.2192460000015,46.20279]]},"properties":[]},{"type":"Feature","geometry":{"type":"LineString","coordinates":[[-3.4359729999961,55.378051000001],[5.2192460000015,46.20279]]},"properties":[]},{"type":"Feature","geometry":{"type":"LineString","coordinates":[[-95.712890999999,37.090240000003],[5.2192460000015,46.20279]]},"properties":[]},{"type":"Feature","geometry":{"type":"LineString","coordinates":[[-63.616672000003,-38.416096999997],[139.5932055,35.977380500002]]},"properties":[]},{"type":"Feature","geometry":{"type":"LineString","coordinates":[[4.4699360000043,50.503887000001],[139.5932055,35.977380500002]]},"properties":[]},{"type":"Feature","geometry":{"type":"LineString","coordinates":[[-51.925279999999,-14.235004],[139.5932055,35.977380500002]]},"properties":[]},{"type":"Feature","geometry":{"type":"LineString","coordinates":[[104.195397,35.861660000001],[139.5932055,35.977380500002]]},"properties":[]},{"type":"Feature","geometry":{"type":"LineString","coordinates":[[15.472962000003,49.817492],[139.5932055,35.977380500002]]},"properties":[]},{"type":"Feature","geometry":{"type":"LineString","coordinates":[[9.5017849999985,56.263920000001],[139.5932055,35.977380500002]]},"properties":[]},{"type":"Feature","geometry":{"type":"LineString","coordinates":[[25.013606999999,58.595272000001],[139.5932055,35.977380500002]]},"properties":[]},{"type":"Feature","geometry":{"type":"LineString","coordinates":[[25.748150999997,61.924109999999],[139.5932055,35.977380500002]]},"properties":[]},{"type":"Feature","geometry":{"type":"LineString","coordinates":[[2.2137489999989,46.227638],[139.5932055,35.977380500002]]},"properties":[]},{"type":"Feature","geometry":{"type":"LineString","coordinates":[[10.451526000003,51.165690999999],[139.5932055,35.977380500002]]},"properties":[]},{"type":"Feature","geometry":{"type":"LineString","coordinates":[[19.503303999996,47.162493999998],[139.5932055,35.977380500002]]},"properties":[]},{"type":"Feature","geometry":{"type":"LineString","coordinates":[[78.962879999997,20.593684000004],[139.5932055,35.977380500002]]},"properties":[]},{"type":"Feature","geometry":{"type":"LineString","coordinates":[[113.921327,-0.78927499999687],[139.5932055,35.977380500002]]},"properties":[]},{"type":"Feature","geometry":{"type":"LineString","coordinates":[[12.567380000004,41.871939999999],[139.5932055,35.977380500002]]},"properties":[]},{"type":"Feature","geometry":{"type":"LineString","coordinates":[[138.252924,36.204824000001],[139.5932055,35.977380500002]]},"properties":[]},{"type":"Feature","geometry":{"type":"LineString","coordinates":[[127.766922,35.907756999999],[139.5932055,35.977380500002]]},"properties":[]},{"type":"Feature","geometry":{"type":"LineString","coordinates":[[23.881274999999,55.169437999999],[139.5932055,35.977380500002]]},"properties":[]},{"type":"Feature","geometry":{"type":"LineString","coordinates":[[6.129582999999,49.815273000002],[139.5932055,35.977380500002]]},"properties":[]},{"type":"Feature","geometry":{"type":"LineString","coordinates":[[-102.552784,23.634501000001],[139.5932055,35.977380500002]]},"properties":[]},{"type":"Feature","geometry":{"type":"LineString","coordinates":[[5.2912660000021,52.132633000001],[139.5932055,35.977380500002]]},"properties":[]},{"type":"Feature","geometry":{"type":"LineString","coordinates":[[8.4689460000024,60.472024],[139.5932055,35.977380500002]]},"properties":[]},{"type":"Feature","geometry":{"type":"LineString","coordinates":[[19.145136,51.919437999998],[139.5932055,35.977380500002]]},"properties":[]},{"type":"Feature","geometry":{"type":"LineString","coordinates":[[-8.2244540000027,39.399871999999],[139.5932055,35.977380500002]]},"properties":[]},{"type":"Feature","geometry":{"type":"LineString","coordinates":[[24.966760000001,45.943161000003],[139.5932055,35.977380500002]]},"properties":[]},{"type":"Feature","geometry":{"type":"LineString","coordinates":[[19.699023999996,48.669026],[139.5932055,35.977380500002]]},"properties":[]},{"type":"Feature","geometry":{"type":"LineString","coordinates":[[22.937506000003,-30.559481999999],[139.5932055,35.977380500002]]},"properties":[]},{"type":"Feature","geometry":{"type":"LineString","coordinates":[[-3.7492200000004,40.463667000002],[139.5932055,35.977380500002]]},"properties":[]},{"type":"Feature","geometry":{"type":"LineString","coordinates":[[18.643501000001,60.128160999999],[139.5932055,35.977380500002]]},"properties":[]},{"type":"Feature","geometry":{"type":"LineString","coordinates":[[8.2275120000041,46.818187999999],[139.5932055,35.977380500002]]},"properties":[]},{"type":"Feature","geometry":{"type":"LineString","coordinates":[[100.992541,15.870032],[139.5932055,35.977380500002]]},"properties":[]},{"type":"Feature","geometry":{"type":"LineString","coordinates":[[35.243321999997,38.963745000001],[139.5932055,35.977380500002]]},"properties":[]},{"type":"Feature","geometry":{"type":"LineString","coordinates":[[-3.4359729999961,55.378051000001],[139.5932055,35.977380500002]]},"properties":[]},{"type":"Feature","geometry":{"type":"LineString","coordinates":[[-95.712890999999,37.090240000003],[139.5932055,35.977380500002]]},"properties":[]},{"type":"Feature","geometry":{"type":"LineString","coordinates":[[120.960515,23.697810000004],[139.5932055,35.977380500002]]},"properties":[]}],"properties":{"title":"8","description":"","tags":""}}