{"type":"FeatureCollection","features":[{"type":"Feature","geometry":{"type":"Point","coordinates":[-2.8821179999988,51.080493999999]},"properties":{"size":"0.23891691000796","address":"Other","placename":"Othery, Somerset TA7, UK","title":"Other CKD  54  Unit  0.2%"}},{"type":"Feature","geometry":{"type":"Point","coordinates":[57.552151999999,-20.348403999997]},"properties":{"size":"0.15485355278294","address":"MAURITIUS","placename":"Mauritius","title":"MAURITIUS CKD  35  Unit  0.2%"}},{"type":"Feature","geometry":{"type":"Point","coordinates":[69.345115999996,30.375321000001]},"properties":{"size":"1.0883992567029","address":"PAKISTAN","placename":"Pakistan","title":"PAKISTAN CKD  246  Unit  1.1%"}},{"type":"Feature","geometry":{"type":"Point","coordinates":[120.960515,23.697810000004]},"properties":{"size":"0.26988762056455","address":"TAIWAN","placename":"Taiwan","title":"TAIWAN CKD  61  Unit  0.3%"}},{"type":"Feature","geometry":{"type":"Point","coordinates":[104.195397,35.861660000001]},"properties":{"size":"3.9067339173524","address":"CHINA","placename":"China","title":"CHINA CKD  883  Unit  3.9%"}},{"type":"Feature","geometry":{"type":"Point","coordinates":[101.975766,4.2104840000023]},"properties":{"size":"2.716573754535","address":"MALAYSIA","placename":"Malaysia","title":"MALAYSIA CKD  614  Unit  2.7%"}},{"type":"Feature","geometry":{"type":"Point","coordinates":[113.921327,-0.78927499999687]},"properties":{"size":"12.742235200425","address":"INDONESIA","placename":"Indonesia","title":"INDONESIA CKD  2880  Unit  12.7%"}},{"type":"Feature","geometry":{"type":"Point","coordinates":[37.906193000004,-0.023558999995522]},"properties":{"size":"0.63711176002124","address":"KENYA","placename":"Kenya","title":"KENYA CKD  144  Unit  0.6%"}},{"type":"Feature","geometry":{"type":"Point","coordinates":[22.937506000003,-30.559481999999]},"properties":{"size":"11.366250774268","address":"SOUTH AFRICA","placename":"South Africa","title":"SOUTH AFRICA CKD  2569  Unit  11.4%"}},{"type":"Feature","geometry":{"type":"Point","coordinates":[-78.183406000002,-1.8312390000011]},"properties":{"size":"0.15927794000531","address":"ECUADOR","placename":"Ecuador","title":"ECUADOR CKD  36  Unit  0.2%"}},{"type":"Feature","geometry":{"type":"Point","coordinates":[-2.8821179999988,51.080493999999]},"properties":{"size":"0.48668259446067","address":"Other","placename":"Othery, Somerset TA7, UK","title":"Other   110  Unit  0.5%"}},{"type":"Feature","geometry":{"type":"Point","coordinates":[103.819836,1.3520830000039]},"properties":{"size":"0.47783382001593","address":"SINGAPORE","placename":"Singapore","title":"SINGAPORE   108  Unit  0.5%"}},{"type":"Feature","geometry":{"type":"Point","coordinates":[174.885971,-40.900556999999]},"properties":{"size":"0.49553136890541","address":"NEW ZEALAND","placename":"New Zealand","title":"NEW ZEALAND   112  Unit  0.5%"}},{"type":"Feature","geometry":{"type":"Point","coordinates":[57.552151999999,-20.348403999997]},"properties":{"size":"0.35395097778958","address":"MAURITIUS","placename":"Mauritius","title":"MAURITIUS   80  Unit  0.4%"}},{"type":"Feature","geometry":{"type":"Point","coordinates":[114.109497,22.396428000004]},"properties":{"size":"0.80081408724892","address":"HONG KONG","placename":"Hong Kong","title":"HONG KONG   181  Unit  0.8%"}},{"type":"Feature","geometry":{"type":"Point","coordinates":[120.960515,23.697810000004]},"properties":{"size":"1.1060968055924","address":"TAIWAN","placename":"Taiwan","title":"TAIWAN   250  Unit  1.1%"}},{"type":"Feature","geometry":{"type":"Point","coordinates":[133.775136,-25.274397999999]},"properties":{"size":"2.4599592956376","address":"AUSTRALIA","placename":"Australia","title":"AUSTRALIA   556  Unit  2.5%"}},{"type":"Feature","geometry":{"type":"Point","coordinates":[104.195397,35.861660000001]},"properties":{"size":"0.21237058667375","address":"CHINA","placename":"China","title":"CHINA   48  Unit  0.2%"}},{"type":"Feature","geometry":{"type":"Point","coordinates":[101.975766,4.2104840000023]},"properties":{"size":"2.920095566764","address":"MALAYSIA","placename":"Malaysia","title":"MALAYSIA   660  Unit  2.9%"}},{"type":"Feature","geometry":{"type":"Point","coordinates":[113.921327,-0.78927499999687]},"properties":{"size":"5.1411379523936","address":"INDONESIA","placename":"Indonesia","title":"INDONESIA   1162  Unit  5.1%"}},{"type":"Feature","geometry":{"type":"Point","coordinates":[138.252924,36.204824000001]},"properties":{"size":"38.894788071852","address":"Japan","placename":"Japan","title":"Japan   8791  Unit  38.9%"}},{"type":"Feature","geometry":{"type":"Point","coordinates":[-2.8821179999988,51.080493999999]},"properties":{"size":"0.63711176002124","address":"Other","placename":"Othery, Somerset TA7, UK","title":"Other   144  Unit  0.6%"}},{"type":"Feature","geometry":{"type":"Point","coordinates":[50.637772000001,25.930413999997]},"properties":{"size":"0.17697548889479","address":"BAHRAIN","placename":"Bahrain","title":"BAHRAIN   40  Unit  0.2%"}},{"type":"Feature","geometry":{"type":"Point","coordinates":[30.217635999996,12.862807000002]},"properties":{"size":"0.1902486505619","address":"SUDAN","placename":"Sudan","title":"SUDAN   43  Unit  0.2%"}},{"type":"Feature","geometry":{"type":"Point","coordinates":[55.923254999996,21.512583000003]},"properties":{"size":"0.1902486505619","address":"OMAN","placename":"Oman","title":"OMAN   43  Unit  0.2%"}},{"type":"Feature","geometry":{"type":"Point","coordinates":[54.366666700003,24.466666700002]},"properties":{"size":"0.23449252278559","address":"ABU DHABI","placename":"Abu Dhabi - United Arab Emirates","title":"ABU DHABI   53  Unit  0.2%"}},{"type":"Feature","geometry":{"type":"Point","coordinates":[40.489672999999,9.1449999999959]},"properties":{"size":"0.23891691000796","address":"ETHIOPIA","placename":"Ethiopia","title":"ETHIOPIA   54  Unit  0.2%"}},{"type":"Feature","geometry":{"type":"Point","coordinates":[51.183884,25.354825999999]},"properties":{"size":"0.31413149278825","address":"QATAR","placename":"Qatar","title":"QATAR   71  Unit  0.3%"}},{"type":"Feature","geometry":{"type":"Point","coordinates":[55.311666699998,25.264444400002]},"properties":{"size":"0.76541898946996","address":"DUBAI","placename":"Dubai - United Arab Emirates","title":"DUBAI   173  Unit  0.8%"}},{"type":"Feature","geometry":{"type":"Point","coordinates":[45.079161999996,23.885942]},"properties":{"size":"0.88930183169631","address":"SAUDI ARABIA","placename":"Saudi Arabia","title":"SAUDI ARABIA   201  Unit  0.9%"}},{"type":"Feature","geometry":{"type":"Point","coordinates":[37.906193000004,-0.023558999995522]},"properties":{"size":"0.28316078223166","address":"KENYA","placename":"Kenya","title":"KENYA   64  Unit  0.3%"}},{"type":"Feature","geometry":{"type":"Point","coordinates":[47.481765999997,29.311660000002]},"properties":{"size":"0.94681886558712","address":"KUWAIT","placename":"Kuwait","title":"KUWAIT   214  Unit  0.9%"}},{"type":"Feature","geometry":{"type":"Point","coordinates":[22.937506000003,-30.559481999999]},"properties":{"size":"2.6546323334218","address":"SOUTH AFRICA","placename":"South Africa","title":"SOUTH AFRICA   600  Unit  2.7%"}},{"type":"Feature","geometry":{"type":"Point","coordinates":[-2.8821179999988,51.080493999999]},"properties":{"size":"0.31413149278825","address":"Other","placename":"Othery, Somerset TA7, UK","title":"Other   71  Unit  0.3%"}},{"type":"Feature","geometry":{"type":"Point","coordinates":[-63.588652999998,-16.290154000002]},"properties":{"size":"0.1902486505619","address":"BOLIVIA","placename":"Bolivia","title":"BOLIVIA   43  Unit  0.2%"}},{"type":"Feature","geometry":{"type":"Point","coordinates":[-78.183406000002,-1.8312390000011]},"properties":{"size":"0.1902486505619","address":"ECUADOR","placename":"Ecuador","title":"ECUADOR   43  Unit  0.2%"}},{"type":"Feature","geometry":{"type":"Point","coordinates":[-74.297332999997,4.5708679999982]},"properties":{"size":"0.67250685780019","address":"COLOMBIA","placename":"Colombia","title":"COLOMBIA   152  Unit  0.7%"}},{"type":"Feature","geometry":{"type":"Point","coordinates":[-95.712890999999,37.090240000003]},"properties":{"size":"4.4819042562605","address":"UNITED STATES","placename":"United States","title":"UNITED STATES   1013  Unit  4.5%"}},{"type":"Feature","geometry":{"type":"Point","coordinates":[139.5932055,35.977380500002]},"properties":{"address":"Ageo,Japan","placename":"Ageo, Saitama Prefecture, Japan","title":"UD Ageo,Japan 11121.3M 100%\/15080 complete 7522 CKD 100%"}},{"type":"Feature","geometry":{"type":"Point","coordinates":[-55.765835000003,-32.522779000001]},"properties":{"size":"0.02784222737819","address":"Uruguay","placename":"Uruguay","title":"Uruguay CKD  9  Unit  0%"}},{"type":"Feature","geometry":{"type":"Point","coordinates":[22.937506000003,-30.559481999999]},"properties":{"size":"0.68986852281516","address":"South Africa","placename":"South Africa","title":"South Africa CKD  223  Unit  0.7%"}},{"type":"Feature","geometry":{"type":"Point","coordinates":[-7.0926199999983,31.791702]},"properties":{"size":"0.34648105181748","address":"Morocco","placename":"Morocco","title":"Morocco CKD  112  Unit  0.3%"}},{"type":"Feature","geometry":{"type":"Point","coordinates":[47.0605507,38.473983499998]},"properties":{"size":"0.44547563805104","address":"Iran (Islamic Republic of)","placename":"Islamic Republic, Ahar, Iran","title":"Iran (Islamic Republic of) CKD  144  Unit  0.4%"}},{"type":"Feature","geometry":{"type":"Point","coordinates":[-63.616672000003,-38.416096999997]},"properties":{"size":"1.8530549110596","address":"Argentina","placename":"Argentina","title":"Argentina CKD  599  Unit  1.9%"}},{"type":"Feature","geometry":{"type":"Point","coordinates":[-77.059004200002,38.903799599998]},"properties":{"size":"0.0030935808197989","address":"Venezuela (Bolivarian Republic of)","placename":"Embassy of the Bolivarian Republic of Venezuela, 1099 30th St NW, Washington, DC 20007, USA","title":"Venezuela (Bolivarian Republic of)   1  Unit  0%"}},{"type":"Feature","geometry":{"type":"Point","coordinates":[-55.765835000003,-32.522779000001]},"properties":{"size":"0.034029389017788","address":"Uruguay","placename":"Uruguay","title":"Uruguay   11  Unit  0%"}},{"type":"Feature","geometry":{"type":"Point","coordinates":[-77.059004200002,38.903799599998]},"properties":{"size":"0.0030935808197989","address":"Venezuela (Bolivarian Republic of)","placename":"Embassy of the Bolivarian Republic of Venezuela, 1099 30th St NW, Washington, DC 20007, USA","title":"Venezuela (Bolivarian Republic of)   1  Unit  0%"}},{"type":"Feature","geometry":{"type":"Point","coordinates":[-55.765835000003,-32.522779000001]},"properties":{"size":"0.0061871616395978","address":"Uruguay","placename":"Uruguay","title":"Uruguay   2  Unit  0%"}},{"type":"Feature","geometry":{"type":"Point","coordinates":[-3.4359729999961,55.378051000001]},"properties":{"size":"7.7803557617943","address":"United Kingdom of Great Britain and Northern Ireland","placename":"United Kingdom","title":"United Kingdom of Great Britain and Northern Ireland   2515  Unit  7.8%"}},{"type":"Feature","geometry":{"type":"Point","coordinates":[53.847818000001,23.424076000003]},"properties":{"size":"0.42072699149265","address":"United Arab Emirates","placename":"United Arab Emirates","title":"United Arab Emirates   136  Unit  0.4%"}},{"type":"Feature","geometry":{"type":"Point","coordinates":[31.16558,48.379433000003]},"properties":{"size":"0.54756380510441","address":"Ukraine","placename":"Ukraine","title":"Ukraine   177  Unit  0.5%"}},{"type":"Feature","geometry":{"type":"Point","coordinates":[35.243321999997,38.963745000001]},"properties":{"size":"7.6194895591647","address":"Turkey","placename":"Turkey","title":"Turkey   2463  Unit  7.6%"}},{"type":"Feature","geometry":{"type":"Point","coordinates":[9.5374989999968,33.886917000001]},"properties":{"size":"0.40216550657386","address":"Tunisia","placename":"Tunisia","title":"Tunisia   130  Unit  0.4%"}},{"type":"Feature","geometry":{"type":"Point","coordinates":[-61.222503000003,10.691803000003]},"properties":{"size":"0.0030935808197989","address":"Trinidad and Tobago","placename":"Trinidad and Tobago","title":"Trinidad and Tobago   1  Unit  0%"}},{"type":"Feature","geometry":{"type":"Point","coordinates":[0.82478199999589,8.6195430000029]},"properties":{"size":"0.018561484918794","address":"Togo","placename":"Togo","title":"Togo   6  Unit  0%"}},{"type":"Feature","geometry":{"type":"Point","coordinates":[34.888821999999,-6.3690280000008]},"properties":{"size":"0.012374323279196","address":"United Republic of Tanzania","placename":"Tanzania","title":"United Republic of Tanzania   4  Unit  0%"}},{"type":"Feature","geometry":{"type":"Point","coordinates":[38.996814999996,34.802074999999]},"properties":{"size":"0.0030935808197989","address":"Syrian Arab Republic","placename":"Syria","title":"Syrian Arab Republic   1  Unit  0%"}},{"type":"Feature","geometry":{"type":"Point","coordinates":[8.2275120000041,46.818187999999]},"properties":{"size":"0.8631090487239","address":"Switzerland","placename":"Switzerland","title":"Switzerland   279  Unit  0.9%"}},{"type":"Feature","geometry":{"type":"Point","coordinates":[30.217635999996,12.862807000002]},"properties":{"size":"0.24748646558391","address":"Sudan","placename":"Sudan","title":"Sudan   80  Unit  0.2%"}},{"type":"Feature","geometry":{"type":"Point","coordinates":[-3.7492200000004,40.463667000002]},"properties":{"size":"5.0023201856148","address":"Spain","placename":"Spain","title":"Spain   1617  Unit  5%"}},{"type":"Feature","geometry":{"type":"Point","coordinates":[22.937506000003,-30.559481999999]},"properties":{"size":"0.14539829853055","address":"South Africa","placename":"South Africa","title":"South Africa   47  Unit  0.1%"}},{"type":"Feature","geometry":{"type":"Point","coordinates":[14.995462999997,46.151240999997]},"properties":{"size":"0.17942768754834","address":"Slovenia","placename":"Slovenia","title":"Slovenia   58  Unit  0.2%"}},{"type":"Feature","geometry":{"type":"Point","coordinates":[19.699023999996,48.669026]},"properties":{"size":"0.68058778035576","address":"Slovakia","placename":"Slovakia","title":"Slovakia   220  Unit  0.7%"}},{"type":"Feature","geometry":{"type":"Point","coordinates":[21.005858999997,44.016521000002]},"properties":{"size":"0.034029389017788","address":"Serbia","placename":"Serbia","title":"Serbia   11  Unit  0%"}},{"type":"Feature","geometry":{"type":"Point","coordinates":[-14.452361999999,14.497400999997]},"properties":{"size":"0.20108275328693","address":"Senegal","placename":"Senegal","title":"Senegal   65  Unit  0.2%"}},{"type":"Feature","geometry":{"type":"Point","coordinates":[45.079161999996,23.885942]},"properties":{"size":"0.30935808197989","address":"Saudi Arabia","placename":"Saudi Arabia","title":"Saudi Arabia   100  Unit  0.3%"}},{"type":"Feature","geometry":{"type":"Point","coordinates":[105.318756,61.52401]},"properties":{"size":"3.8793503480278","address":"Russian Federation","placename":"Russian Federation","title":"Russian Federation   1254  Unit  3.9%"}},{"type":"Feature","geometry":{"type":"Point","coordinates":[24.966760000001,45.943161000003]},"properties":{"size":"0.5630317092034","address":"Romania","placename":"Romania","title":"Romania   182  Unit  0.6%"}},{"type":"Feature","geometry":{"type":"Point","coordinates":[55.536384000003,-21.115141]},"properties":{"size":"0.10208816705336","address":"Reunion","placename":"Reunion","title":"Reunion   33  Unit  0.1%"}},{"type":"Feature","geometry":{"type":"Point","coordinates":[51.183884,25.354825999999]},"properties":{"size":"0.24748646558391","address":"Qatar","placename":"Qatar","title":"Qatar   80  Unit  0.2%"}},{"type":"Feature","geometry":{"type":"Point","coordinates":[-8.2244540000027,39.399871999999]},"properties":{"size":"0.72699149265275","address":"Portugal","placename":"Portugal","title":"Portugal   235  Unit  0.7%"}},{"type":"Feature","geometry":{"type":"Point","coordinates":[19.145136,51.919437999998]},"properties":{"size":"3.4740912606342","address":"Poland","placename":"Poland","title":"Poland   1123  Unit  3.5%"}},{"type":"Feature","geometry":{"type":"Point","coordinates":[-75.015152,-9.1899670000004]},"properties":{"size":"0.030935808197989","address":"Peru","placename":"Peru","title":"Peru   10  Unit  0%"}},{"type":"Feature","geometry":{"type":"Point","coordinates":[143.95555,-6.3149930000017]},"properties":{"size":"0.024748646558391","address":"Papua New Guinea","placename":"Papua New Guinea","title":"Papua New Guinea   8  Unit  0%"}},{"type":"Feature","geometry":{"type":"Point","coordinates":[-80.782127000004,8.5379810000007]},"properties":{"size":"0.015467904098995","address":"Panama","placename":"Panama","title":"Panama   5  Unit  0%"}},{"type":"Feature","geometry":{"type":"Point","coordinates":[55.923254999996,21.512583000003]},"properties":{"size":"0.36194895591647","address":"Oman","placename":"Oman","title":"Oman   117  Unit  0.4%"}},{"type":"Feature","geometry":{"type":"Point","coordinates":[8.4689460000024,60.472024]},"properties":{"size":"0.074245939675174","address":"Norway","placename":"Norway","title":"Norway   24  Unit  0.1%"}},{"type":"Feature","geometry":{"type":"Point","coordinates":[8.6752770000036,9.0819989999966]},"properties":{"size":"0.16086620262954","address":"Nigeria","placename":"Nigeria","title":"Nigeria   52  Unit  0.2%"}},{"type":"Feature","geometry":{"type":"Point","coordinates":[8.0816659999972,17.607788999999]},"properties":{"size":"0.024748646558391","address":"Niger","placename":"Niger","title":"Niger   8  Unit  0%"}},{"type":"Feature","geometry":{"type":"Point","coordinates":[174.885971,-40.900556999999]},"properties":{"size":"0.0092807424593968","address":"New Zealand","placename":"New Zealand","title":"New Zealand   3  Unit  0%"}},{"type":"Feature","geometry":{"type":"Point","coordinates":[165.618042,-20.904305000001]},"properties":{"size":"0.080433101314772","address":"New Caledonia","placename":"New Caledonia","title":"New Caledonia   26  Unit  0.1%"}},{"type":"Feature","geometry":{"type":"Point","coordinates":[5.2912660000021,52.132633000001]},"properties":{"size":"0.89713843774169","address":"Netherlands","placename":"The Netherlands","title":"Netherlands   290  Unit  0.9%"}},{"type":"Feature","geometry":{"type":"Point","coordinates":[-7.0926199999983,31.791702]},"properties":{"size":"0.8569218870843","address":"Morocco","placename":"Morocco","title":"Morocco   277  Unit  0.9%"}},{"type":"Feature","geometry":{"type":"Point","coordinates":[45.166244000002,-12.827500000003]},"properties":{"size":"0.012374323279196","address":"Mayotte","placename":"Mayotte","title":"Mayotte   4  Unit  0%"}},{"type":"Feature","geometry":{"type":"Point","coordinates":[57.552151999999,-20.348403999997]},"properties":{"size":"0.10518174787316","address":"Mauritius","placename":"Mauritius","title":"Mauritius   34  Unit  0.1%"}},{"type":"Feature","geometry":{"type":"Point","coordinates":[-10.940834999998,21.007889999999]},"properties":{"size":"0.021655065738592","address":"Mauritania","placename":"Mauritania","title":"Mauritania   7  Unit  0%"}},{"type":"Feature","geometry":{"type":"Point","coordinates":[-61.024173999999,14.641528]},"properties":{"size":"0.0092807424593968","address":"Martinique","placename":"Martinique","title":"Martinique   3  Unit  0%"}},{"type":"Feature","geometry":{"type":"Point","coordinates":[-3.9961659999965,17.570691999998]},"properties":{"size":"0.26914153132251","address":"Mali","placename":"Mali","title":"Mali   87  Unit  0.3%"}},{"type":"Feature","geometry":{"type":"Point","coordinates":[46.869106999996,-18.766946999998]},"properties":{"size":"0.0061871616395978","address":"Madagascar","placename":"Madagascar","title":"Madagascar   2  Unit  0%"}},{"type":"Feature","geometry":{"type":"Point","coordinates":[6.129582999999,49.815273000002]},"properties":{"size":"0.12374323279196","address":"Luxembourg","placename":"Luxembourg","title":"Luxembourg   40  Unit  0.1%"}},{"type":"Feature","geometry":{"type":"Point","coordinates":[23.881274999999,55.169437999999]},"properties":{"size":"0.33101314771848","address":"Lithuania","placename":"Lithuania","title":"Lithuania   107  Unit  0.3%"}},{"type":"Feature","geometry":{"type":"Point","coordinates":[17.228331,26.3351]},"properties":{"size":"0.021655065738592","address":"Libya","placename":"Libya","title":"Libya   7  Unit  0%"}},{"type":"Feature","geometry":{"type":"Point","coordinates":[-9.4294990000029,6.4280549999963]},"properties":{"size":"0.10518174787316","address":"Liberia","placename":"Liberia","title":"Liberia   34  Unit  0.1%"}},{"type":"Feature","geometry":{"type":"Point","coordinates":[35.862284999998,33.854721000002]},"properties":{"size":"0.021655065738592","address":"Lebanon","placename":"Lebanon","title":"Lebanon   7  Unit  0%"}},{"type":"Feature","geometry":{"type":"Point","coordinates":[24.603189000003,56.879635000001]},"properties":{"size":"0.068058778035576","address":"Latvia","placename":"Latvia","title":"Latvia   22  Unit  0.1%"}},{"type":"Feature","geometry":{"type":"Point","coordinates":[47.481765999997,29.311660000002]},"properties":{"size":"0.012374323279196","address":"Kuwait","placename":"Kuwait","title":"Kuwait   4  Unit  0%"}},{"type":"Feature","geometry":{"type":"Point","coordinates":[37.906193000004,-0.023558999995522]},"properties":{"size":"0.0061871616395978","address":"Kenya","placename":"Kenya","title":"Kenya   2  Unit  0%"}},{"type":"Feature","geometry":{"type":"Point","coordinates":[66.923684,48.019573000002]},"properties":{"size":"0.030935808197989","address":"Kazakhstan","placename":"Kazakhstan","title":"Kazakhstan   10  Unit  0%"}},{"type":"Feature","geometry":{"type":"Point","coordinates":[12.567380000004,41.871939999999]},"properties":{"size":"4.0587780355762","address":"Italy","placename":"Italy","title":"Italy   1312  Unit  4.1%"}},{"type":"Feature","geometry":{"type":"Point","coordinates":[34.851612000002,31.046051]},"properties":{"size":"0.15777262180974","address":"Israel","placename":"Israel","title":"Israel   51  Unit  0.2%"}},{"type":"Feature","geometry":{"type":"Point","coordinates":[-8.2438900000022,53.412910000001]},"properties":{"size":"0.2938901778809","address":"Ireland","placename":"Ireland","title":"Ireland   95  Unit  0.3%"}},{"type":"Feature","geometry":{"type":"Point","coordinates":[43.679290999998,33.223191000003]},"properties":{"size":"2.5398298530549","address":"Iraq","placename":"Iraq","title":"Iraq   821  Unit  2.5%"}},{"type":"Feature","geometry":{"type":"Point","coordinates":[113.921327,-0.78927499999687]},"properties":{"size":"0.0061871616395978","address":"Indonesia","placename":"Indonesia","title":"Indonesia   2  Unit  0%"}},{"type":"Feature","geometry":{"type":"Point","coordinates":[-19.020835000001,64.963051000002]},"properties":{"size":"0.0061871616395978","address":"Iceland","placename":"Iceland","title":"Iceland   2  Unit  0%"}},{"type":"Feature","geometry":{"type":"Point","coordinates":[19.503303999996,47.162493999998]},"properties":{"size":"1.2683681361176","address":"Hungary","placename":"Hungary","title":"Hungary   410  Unit  1.3%"}},{"type":"Feature","geometry":{"type":"Point","coordinates":[-72.285214999997,18.971187000004]},"properties":{"size":"0.0030935808197989","address":"Haiti","placename":"Haiti","title":"Haiti   1  Unit  0%"}},{"type":"Feature","geometry":{"type":"Point","coordinates":[-58.93018,4.8604159999962]},"properties":{"size":"0.037122969837587","address":"Guyana","placename":"Guyana","title":"Guyana   12  Unit  0%"}},{"type":"Feature","geometry":{"type":"Point","coordinates":[-9.6966449999987,9.9455870000035]},"properties":{"size":"0.13302397525135","address":"Guinea","placename":"Guinea","title":"Guinea   43  Unit  0.1%"}},{"type":"Feature","geometry":{"type":"Point","coordinates":[-90.230759000004,15.783470999998]},"properties":{"size":"0.037122969837587","address":"Guatemala","placename":"Guatemala","title":"Guatemala   12  Unit  0%"}},{"type":"Feature","geometry":{"type":"Point","coordinates":[-1.0231940000024,7.9465270000027]},"properties":{"size":"0.26295436968291","address":"Ghana","placename":"Africa, Ghana","title":"Ghana   85  Unit  0.3%"}},{"type":"Feature","geometry":{"type":"Point","coordinates":[10.451526000003,51.165690999999]},"properties":{"size":"5.0580046403712","address":"Germany","placename":"Germany","title":"Germany   1635  Unit  5.1%"}},{"type":"Feature","geometry":{"type":"Point","coordinates":[11.609444,-0.80368899999725]},"properties":{"size":"0.14849187935035","address":"Gabon","placename":"Gabon","title":"Gabon   48  Unit  0.1%"}},{"type":"Feature","geometry":{"type":"Point","coordinates":[-149.406843,-17.679742000001]},"properties":{"size":"0.0030935808197989","address":"French Polynesia","placename":"French Polynesia","title":"French Polynesia   1  Unit  0%"}},{"type":"Feature","geometry":{"type":"Point","coordinates":[2.2137489999989,46.227638]},"properties":{"size":"34.737819025522","address":"France","placename":"France","title":"France   11229  Unit  34.7%"}},{"type":"Feature","geometry":{"type":"Point","coordinates":[25.748150999997,61.924109999999]},"properties":{"size":"0.098994586233565","address":"Finland","placename":"Finland","title":"Finland   32  Unit  0.1%"}},{"type":"Feature","geometry":{"type":"Point","coordinates":[40.489672999999,9.1449999999959]},"properties":{"size":"0.0061871616395978","address":"Ethiopia","placename":"Ethiopia","title":"Ethiopia   2  Unit  0%"}},{"type":"Feature","geometry":{"type":"Point","coordinates":[25.013606999999,58.595272000001]},"properties":{"size":"0.13611755607115","address":"Estonia","placename":"Estonia","title":"Estonia   44  Unit  0.1%"}},{"type":"Feature","geometry":{"type":"Point","coordinates":[10.267895000002,1.6508009999994]},"properties":{"size":"0.080433101314772","address":"Equatorial Guinea","placename":"Equatorial Guinea","title":"Equatorial Guinea   26  Unit  0.1%"}},{"type":"Feature","geometry":{"type":"Point","coordinates":[30.802498000002,26.820553000001]},"properties":{"size":"0.089713843774169","address":"Egypt","placename":"Egypt","title":"Egypt   29  Unit  0.1%"}},{"type":"Feature","geometry":{"type":"Point","coordinates":[-78.183406000002,-1.8312390000011]},"properties":{"size":"0.034029389017788","address":"Ecuador","placename":"Ecuador","title":"Ecuador   11  Unit  0%"}},{"type":"Feature","geometry":{"type":"Point","coordinates":[42.590274999996,11.825138]},"properties":{"size":"0.0030935808197989","address":"Djibouti","placename":"Djibouti","title":"Djibouti   1  Unit  0%"}},{"type":"Feature","geometry":{"type":"Point","coordinates":[9.5017849999985,56.263920000001]},"properties":{"size":"0.47331786542923","address":"Denmark","placename":"Denmark","title":"Denmark   153  Unit  0.5%"}},{"type":"Feature","geometry":{"type":"Point","coordinates":[21.758664000001,-4.0383329999964]},"properties":{"size":"0.31245166279969","address":"Democratic Republic of the Congo","placename":"Democratic Republic of the Congo","title":"Democratic Republic of the Congo   101  Unit  0.3%"}},{"type":"Feature","geometry":{"type":"Point","coordinates":[15.472962000003,49.817492]},"properties":{"size":"1.4168600154679","address":"Czech Republic","placename":"Czech Republic","title":"Czech Republic   458  Unit  1.4%"}},{"type":"Feature","geometry":{"type":"Point","coordinates":[33.429859000001,35.126413]},"properties":{"size":"0.0092807424593968","address":"Cyprus","placename":"Cyprus","title":"Cyprus   3  Unit  0%"}},{"type":"Feature","geometry":{"type":"Point","coordinates":[-77.781167000004,21.521757]},"properties":{"size":"0.0092807424593968","address":"Cuba","placename":"Cuba","title":"Cuba   3  Unit  0%"}},{"type":"Feature","geometry":{"type":"Point","coordinates":[15.200000000002,45.100000000003]},"properties":{"size":"0.040216550657386","address":"Croatia","placename":"Croatia","title":"Croatia   13  Unit  0%"}},{"type":"Feature","geometry":{"type":"Point","coordinates":[-5.547080000004,7.5399890000007]},"properties":{"size":"0.037122969837587","address":"C\u00f4te d'Ivoire","placename":"C\u00f4te d'Ivoire","title":"C\u00f4te d'Ivoire   12  Unit  0%"}},{"type":"Feature","geometry":{"type":"Point","coordinates":[15.827659000004,-0.22802099999814]},"properties":{"size":"0.31863882443929","address":"Congo","placename":"Congo","title":"Congo   103  Unit  0.3%"}},{"type":"Feature","geometry":{"type":"Point","coordinates":[-74.297332999997,4.5708679999982]},"properties":{"size":"0.077339520494973","address":"Colombia","placename":"Colombia","title":"Colombia   25  Unit  0.1%"}},{"type":"Feature","geometry":{"type":"Point","coordinates":[-71.542969,-35.675146999998]},"properties":{"size":"0.068058778035576","address":"Chile","placename":"Chile","title":"Chile   22  Unit  0.1%"}},{"type":"Feature","geometry":{"type":"Point","coordinates":[18.732206999998,15.454166000003]},"properties":{"size":"0.077339520494973","address":"Chad","placename":"Chad","title":"Chad   25  Unit  0.1%"}},{"type":"Feature","geometry":{"type":"Point","coordinates":[20.939443999998,6.6111109999958]},"properties":{"size":"0.024748646558391","address":"Central African Republic","placename":"Central African Republic","title":"Central African Republic   8  Unit  0%"}},{"type":"Feature","geometry":{"type":"Point","coordinates":[12.354721999996,7.3697219999967]},"properties":{"size":"0.76720804331013","address":"Cameroon","placename":"Cameroon","title":"Cameroon   248  Unit  0.8%"}},{"type":"Feature","geometry":{"type":"Point","coordinates":[29.918886,-3.3730559999993]},"properties":{"size":"0.02784222737819","address":"Burundi","placename":"Burundi","title":"Burundi   9  Unit  0%"}},{"type":"Feature","geometry":{"type":"Point","coordinates":[-1.5615929999969,12.238332999997]},"properties":{"size":"0.068058778035576","address":"Burkina Faso","placename":"Burkina Faso","title":"Burkina Faso   22  Unit  0.1%"}},{"type":"Feature","geometry":{"type":"Point","coordinates":[25.485830000001,42.733883000002]},"properties":{"size":"0.17014694508894","address":"Bulgaria","placename":"Bulgaria","title":"Bulgaria   55  Unit  0.2%"}},{"type":"Feature","geometry":{"type":"Point","coordinates":[-63.588652999998,-16.290154000002]},"properties":{"size":"0.0030935808197989","address":"Bolivia","placename":"Bolivia","title":"Bolivia   1  Unit  0%"}},{"type":"Feature","geometry":{"type":"Point","coordinates":[2.3158340000022,9.3076899999976]},"properties":{"size":"0.055684454756381","address":"Benin","placename":"Benin","title":"Benin   18  Unit  0.1%"}},{"type":"Feature","geometry":{"type":"Point","coordinates":[4.4699360000043,50.503887000001]},"properties":{"size":"1.5870069605568","address":"Belgium","placename":"Belgium","title":"Belgium   513  Unit  1.6%"}},{"type":"Feature","geometry":{"type":"Point","coordinates":[27.953388999997,53.709807000002]},"properties":{"size":"0.058778035576179","address":"Belarus","placename":"Belarus","title":"Belarus   19  Unit  0.1%"}},{"type":"Feature","geometry":{"type":"Point","coordinates":[47.576927000002,40.143105000001]},"properties":{"size":"0.015467904098995","address":"Azerbaijan","placename":"Azerbaijan","title":"Azerbaijan   5  Unit  0%"}},{"type":"Feature","geometry":{"type":"Point","coordinates":[14.550071999996,47.516230999997]},"properties":{"size":"0.73317865429234","address":"Austria","placename":"Austria","title":"Austria   237  Unit  0.7%"}},{"type":"Feature","geometry":{"type":"Point","coordinates":[133.775136,-25.274397999999]},"properties":{"size":"0.0030935808197989","address":"Australia","placename":"Australia","title":"Australia   1  Unit  0%"}},{"type":"Feature","geometry":{"type":"Point","coordinates":[17.873887000004,-11.202692000003]},"properties":{"size":"0.098994586233565","address":"Angola","placename":"Angola","title":"Angola   32  Unit  0.1%"}},{"type":"Feature","geometry":{"type":"Point","coordinates":[1.6596259999975,28.033885999997]},"properties":{"size":"3.7927300850735","address":"Algeria","placename":"Algeria","title":"Algeria   1226  Unit  3.8%"}},{"type":"Feature","geometry":{"type":"Point","coordinates":[5.2192460000015,46.20279]},"properties":{"address":"Bourg-en-Bresse, FR","placename":"Bourg-en-Bresse, France","title":"RT  Bourg-en-Bresse, FR 9197.7M 71.3% \/31238 complete 1087 CKD80.2%"}},{"type":"Feature","geometry":{"type":"Point","coordinates":[-55.765835000003,-32.522779000001]},"properties":{"size":"0.50188205771644","address":"Uruguay","placename":"Uruguay","title":"Uruguay CKD  40  Unit  0.5%"}},{"type":"Feature","geometry":{"type":"Point","coordinates":[-7.0926199999983,31.791702]},"properties":{"size":"1.0539523212045","address":"Morocco","placename":"Morocco","title":"Morocco CKD 84  Unit  1.1%"}},{"type":"Feature","geometry":{"type":"Point","coordinates":[-63.616672000003,-38.416096999997]},"properties":{"size":"1.5809284818068","address":"Argentina","placename":"Argentina","title":"Argentina CKD 126  Unit  1.6%"}},{"type":"Feature","geometry":{"type":"Point","coordinates":[-3.4359729999961,55.378051000001]},"properties":{"size":"4.7051442910916","address":"United Kingdom of Great Britain and Northern Ireland","placename":"United Kingdom","title":"United Kingdom of Great Britain and Northern Ireland   375  Unit  4.7%"}},{"type":"Feature","geometry":{"type":"Point","coordinates":[53.847818000001,23.424076000003]},"properties":{"size":"0.025094102885822","address":"United Arab Emirates","placename":"United Arab Emirates","title":"United Arab Emirates   2  Unit  0%"}},{"type":"Feature","geometry":{"type":"Point","coordinates":[31.16558,48.379433000003]},"properties":{"size":"0.012547051442911","address":"Ukraine","placename":"Ukraine","title":"Ukraine   1  Unit  0%"}},{"type":"Feature","geometry":{"type":"Point","coordinates":[35.243321999997,38.963745000001]},"properties":{"size":"0.77791718946048","address":"Turkey","placename":"Turkey","title":"Turkey   62  Unit  0.8%"}},{"type":"Feature","geometry":{"type":"Point","coordinates":[9.5374989999968,33.886917000001]},"properties":{"size":"0.33877038895859","address":"Tunisia","placename":"Tunisia","title":"Tunisia   27  Unit  0.3%"}},{"type":"Feature","geometry":{"type":"Point","coordinates":[38.996814999996,34.802074999999]},"properties":{"size":"0.012547051442911","address":"Syrian Arab Republic","placename":"Syria","title":"Syrian Arab Republic   1  Unit  0%"}},{"type":"Feature","geometry":{"type":"Point","coordinates":[8.2275120000041,46.818187999999]},"properties":{"size":"0.85319949811794","address":"Switzerland","placename":"Switzerland","title":"Switzerland   68  Unit  0.9%"}},{"type":"Feature","geometry":{"type":"Point","coordinates":[-3.7492200000004,40.463667000002]},"properties":{"size":"5.8469259723965","address":"Spain","placename":"Spain","title":"Spain   466  Unit  5.8%"}},{"type":"Feature","geometry":{"type":"Point","coordinates":[22.937506000003,-30.559481999999]},"properties":{"size":"0.32622333751568","address":"South Africa","placename":"South Africa","title":"South Africa   26  Unit  0.3%"}},{"type":"Feature","geometry":{"type":"Point","coordinates":[14.995462999997,46.151240999997]},"properties":{"size":"0.13801756587202","address":"Slovenia","placename":"Slovenia","title":"Slovenia   11  Unit  0.1%"}},{"type":"Feature","geometry":{"type":"Point","coordinates":[19.699023999996,48.669026]},"properties":{"size":"0.67754077791719","address":"Slovakia","placename":"Slovakia","title":"Slovakia   54  Unit  0.7%"}},{"type":"Feature","geometry":{"type":"Point","coordinates":[21.005858999997,44.016521000002]},"properties":{"size":"0.062735257214555","address":"Serbia","placename":"Serbia","title":"Serbia   5  Unit  0.1%"}},{"type":"Feature","geometry":{"type":"Point","coordinates":[-14.452361999999,14.497400999997]},"properties":{"size":"0.075282308657466","address":"Senegal","placename":"Senegal","title":"Senegal   6  Unit  0.1%"}},{"type":"Feature","geometry":{"type":"Point","coordinates":[45.079161999996,23.885942]},"properties":{"size":"0.012547051442911","address":"Saudi Arabia","placename":"Saudi Arabia","title":"Saudi Arabia   1  Unit  0%"}},{"type":"Feature","geometry":{"type":"Point","coordinates":[105.318756,61.52401]},"properties":{"size":"1.2296110414053","address":"Russian Federation","placename":"Russian Federation","title":"Russian Federation   98  Unit  1.2%"}},{"type":"Feature","geometry":{"type":"Point","coordinates":[24.966760000001,45.943161000003]},"properties":{"size":"0.53952321204517","address":"Romania","placename":"Romania","title":"Romania   43  Unit  0.5%"}},{"type":"Feature","geometry":{"type":"Point","coordinates":[55.536384000003,-21.115141]},"properties":{"size":"0.20075282308657","address":"Reunion","placename":"Reunion","title":"Reunion   16  Unit  0.2%"}},{"type":"Feature","geometry":{"type":"Point","coordinates":[51.183884,25.354825999999]},"properties":{"size":"0.17565872020075","address":"Qatar","placename":"Qatar","title":"Qatar   14  Unit  0.2%"}},{"type":"Feature","geometry":{"type":"Point","coordinates":[-8.2244540000027,39.399871999999]},"properties":{"size":"0.90338770388959","address":"Portugal","placename":"Portugal","title":"Portugal   72  Unit  0.9%"}},{"type":"Feature","geometry":{"type":"Point","coordinates":[19.145136,51.919437999998]},"properties":{"size":"1.9573400250941","address":"Poland","placename":"Poland","title":"Poland   156  Unit  2%"}},{"type":"Feature","geometry":{"type":"Point","coordinates":[-80.782127000004,8.5379810000007]},"properties":{"size":"0.025094102885822","address":"Panama","placename":"Panama","title":"Panama   2  Unit  0%"}},{"type":"Feature","geometry":{"type":"Point","coordinates":[69.345115999996,30.375321000001]},"properties":{"size":"0.012547051442911","address":"Pakistan","placename":"Pakistan","title":"Pakistan   1  Unit  0%"}},{"type":"Feature","geometry":{"type":"Point","coordinates":[55.923254999996,21.512583000003]},"properties":{"size":"0.087829360100376","address":"Oman","placename":"Oman","title":"Oman   7  Unit  0.1%"}},{"type":"Feature","geometry":{"type":"Point","coordinates":[8.4689460000024,60.472024]},"properties":{"size":"0.50188205771644","address":"Norway","placename":"Norway","title":"Norway   40  Unit  0.5%"}},{"type":"Feature","geometry":{"type":"Point","coordinates":[8.0816659999972,17.607788999999]},"properties":{"size":"0.012547051442911","address":"Niger","placename":"Niger","title":"Niger   1  Unit  0%"}},{"type":"Feature","geometry":{"type":"Point","coordinates":[165.618042,-20.904305000001]},"properties":{"size":"0.25094102885822","address":"New Caledonia","placename":"New Caledonia","title":"New Caledonia   20  Unit  0.3%"}},{"type":"Feature","geometry":{"type":"Point","coordinates":[5.2912660000021,52.132633000001]},"properties":{"size":"0.95357590966123","address":"Netherlands","placename":"The Netherlands","title":"Netherlands   76  Unit  1%"}},{"type":"Feature","geometry":{"type":"Point","coordinates":[-7.0926199999983,31.791702]},"properties":{"size":"0.9159347553325","address":"Morocco","placename":"Morocco","title":"Morocco   73  Unit  0.9%"}},{"type":"Feature","geometry":{"type":"Point","coordinates":[45.166244000002,-12.827500000003]},"properties":{"size":"0.037641154328733","address":"Mayotte","placename":"Mayotte","title":"Mayotte   3  Unit  0%"}},{"type":"Feature","geometry":{"type":"Point","coordinates":[57.552151999999,-20.348403999997]},"properties":{"size":"0.025094102885822","address":"Mauritius","placename":"Mauritius","title":"Mauritius   2  Unit  0%"}},{"type":"Feature","geometry":{"type":"Point","coordinates":[-61.024173999999,14.641528]},"properties":{"size":"0.12547051442911","address":"Martinique","placename":"Martinique","title":"Martinique   10  Unit  0.1%"}},{"type":"Feature","geometry":{"type":"Point","coordinates":[-3.9961659999965,17.570691999998]},"properties":{"size":"0.012547051442911","address":"Mali","placename":"Mali","title":"Mali   1  Unit  0%"}},{"type":"Feature","geometry":{"type":"Point","coordinates":[46.869106999996,-18.766946999998]},"properties":{"size":"0.20075282308657","address":"Madagascar","placename":"Madagascar","title":"Madagascar   16  Unit  0.2%"}},{"type":"Feature","geometry":{"type":"Point","coordinates":[6.129582999999,49.815273000002]},"properties":{"size":"0.45169385194479","address":"Luxembourg","placename":"Luxembourg","title":"Luxembourg   36  Unit  0.5%"}},{"type":"Feature","geometry":{"type":"Point","coordinates":[23.881274999999,55.169437999999]},"properties":{"size":"0.41405269761606","address":"Lithuania","placename":"Lithuania","title":"Lithuania   33  Unit  0.4%"}},{"type":"Feature","geometry":{"type":"Point","coordinates":[24.603189000003,56.879635000001]},"properties":{"size":"0.075282308657466","address":"Latvia","placename":"Latvia","title":"Latvia   6  Unit  0.1%"}},{"type":"Feature","geometry":{"type":"Point","coordinates":[37.906193000004,-0.023558999995522]},"properties":{"size":"0.037641154328733","address":"Kenya","placename":"Kenya","title":"Kenya   3  Unit  0%"}},{"type":"Feature","geometry":{"type":"Point","coordinates":[12.567380000004,41.871939999999]},"properties":{"size":"3.7766624843162","address":"Italy","placename":"Italy","title":"Italy   301  Unit  3.8%"}},{"type":"Feature","geometry":{"type":"Point","coordinates":[34.851612000002,31.046051]},"properties":{"size":"1.4554579673777","address":"Israel","placename":"Israel","title":"Israel   116  Unit  1.5%"}},{"type":"Feature","geometry":{"type":"Point","coordinates":[-8.2438900000022,53.412910000001]},"properties":{"size":"0.23839397741531","address":"Ireland","placename":"Ireland","title":"Ireland   19  Unit  0.2%"}},{"type":"Feature","geometry":{"type":"Point","coordinates":[43.679290999998,33.223191000003]},"properties":{"size":"1.5181932245922","address":"Iraq","placename":"Iraq","title":"Iraq   121  Unit  1.5%"}},{"type":"Feature","geometry":{"type":"Point","coordinates":[19.503303999996,47.162493999998]},"properties":{"size":"0.40150564617315","address":"Hungary","placename":"Hungary","title":"Hungary   32  Unit  0.4%"}},{"type":"Feature","geometry":{"type":"Point","coordinates":[-72.285214999997,18.971187000004]},"properties":{"size":"0.33877038895859","address":"Haiti","placename":"Haiti","title":"Haiti   27  Unit  0.3%"}},{"type":"Feature","geometry":{"type":"Point","coordinates":[-58.93018,4.8604159999962]},"properties":{"size":"0.025094102885822","address":"Guyana","placename":"Guyana","title":"Guyana   2  Unit  0%"}},{"type":"Feature","geometry":{"type":"Point","coordinates":[-9.6966449999987,9.9455870000035]},"properties":{"size":"0.050188205771644","address":"Guinea","placename":"Guinea","title":"Guinea   4  Unit  0.1%"}},{"type":"Feature","geometry":{"type":"Point","coordinates":[-90.230759000004,15.783470999998]},"properties":{"size":"0.13801756587202","address":"Guatemala","placename":"Guatemala","title":"Guatemala   11  Unit  0.1%"}},{"type":"Feature","geometry":{"type":"Point","coordinates":[10.451526000003,51.165690999999]},"properties":{"size":"4.5671267252196","address":"Germany","placename":"Germany","title":"Germany   364  Unit  4.6%"}},{"type":"Feature","geometry":{"type":"Point","coordinates":[11.609444,-0.80368899999725]},"properties":{"size":"0.050188205771644","address":"Gabon","placename":"Gabon","title":"Gabon   4  Unit  0.1%"}},{"type":"Feature","geometry":{"type":"Point","coordinates":[-149.406843,-17.679742000001]},"properties":{"size":"0.025094102885822","address":"French Polynesia","placename":"French Polynesia","title":"French Polynesia   2  Unit  0%"}},{"type":"Feature","geometry":{"type":"Point","coordinates":[2.2137489999989,46.227638]},"properties":{"size":"48.356336260979","address":"France","placename":"France","title":"France   3854  Unit  48.4%"}},{"type":"Feature","geometry":{"type":"Point","coordinates":[25.748150999997,61.924109999999]},"properties":{"size":"0.37641154328733","address":"Finland","placename":"Finland","title":"Finland   30  Unit  0.4%"}},{"type":"Feature","geometry":{"type":"Point","coordinates":[30.802498000002,26.820553000001]},"properties":{"size":"0.1129234629862","address":"Egypt","placename":"Egypt","title":"Egypt   9  Unit  0.1%"}},{"type":"Feature","geometry":{"type":"Point","coordinates":[-78.183406000002,-1.8312390000011]},"properties":{"size":"0.025094102885822","address":"Ecuador","placename":"Ecuador","title":"Ecuador   2  Unit  0%"}},{"type":"Feature","geometry":{"type":"Point","coordinates":[-70.162650999999,18.735693]},"properties":{"size":"0.062735257214555","address":"Dominican Republic","placename":"Dominican Republic","title":"Dominican Republic   5  Unit  0.1%"}},{"type":"Feature","geometry":{"type":"Point","coordinates":[42.590274999996,11.825138]},"properties":{"size":"0.012547051442911","address":"Djibouti","placename":"Djibouti","title":"Djibouti   1  Unit  0%"}},{"type":"Feature","geometry":{"type":"Point","coordinates":[9.5017849999985,56.263920000001]},"properties":{"size":"0.17565872020075","address":"Denmark","placename":"Denmark","title":"Denmark   14  Unit  0.2%"}},{"type":"Feature","geometry":{"type":"Point","coordinates":[21.758664000001,-4.0383329999964]},"properties":{"size":"1.0163111668758","address":"Democratic Republic of the Congo","placename":"Democratic Republic of the Congo","title":"Democratic Republic of the Congo   81  Unit  1%"}},{"type":"Feature","geometry":{"type":"Point","coordinates":[15.472962000003,49.817492]},"properties":{"size":"1.4930991217064","address":"Czech Republic","placename":"Czech Republic","title":"Czech Republic   119  Unit  1.5%"}},{"type":"Feature","geometry":{"type":"Point","coordinates":[-77.781167000004,21.521757]},"properties":{"size":"0.087829360100376","address":"Cuba","placename":"Cuba","title":"Cuba   7  Unit  0.1%"}},{"type":"Feature","geometry":{"type":"Point","coordinates":[15.200000000002,45.100000000003]},"properties":{"size":"0.12547051442911","address":"Croatia","placename":"Croatia","title":"Croatia   10  Unit  0.1%"}},{"type":"Feature","geometry":{"type":"Point","coordinates":[-5.547080000004,7.5399890000007]},"properties":{"size":"0.062735257214555","address":"C\u00f4te d'Ivoire","placename":"C\u00f4te d'Ivoire","title":"C\u00f4te d'Ivoire   5  Unit  0.1%"}},{"type":"Feature","geometry":{"type":"Point","coordinates":[15.827659000004,-0.22802099999814]},"properties":{"size":"0.13801756587202","address":"Congo","placename":"Congo","title":"Congo   11  Unit  0.1%"}},{"type":"Feature","geometry":{"type":"Point","coordinates":[-74.297332999997,4.5708679999982]},"properties":{"size":"0.025094102885822","address":"Colombia","placename":"Colombia","title":"Colombia   2  Unit  0%"}},{"type":"Feature","geometry":{"type":"Point","coordinates":[-71.542969,-35.675146999998]},"properties":{"size":"0.65244667503137","address":"Chile","placename":"Chile","title":"Chile   52  Unit  0.7%"}},{"type":"Feature","geometry":{"type":"Point","coordinates":[18.732206999998,15.454166000003]},"properties":{"size":"0.062735257214555","address":"Chad","placename":"Chad","title":"Chad   5  Unit  0.1%"}},{"type":"Feature","geometry":{"type":"Point","coordinates":[-24.013197000004,16.002082000001]},"properties":{"size":"0.012547051442911","address":"Cape Verde","placename":"Cape Verde","title":"Cape Verde   1  Unit  0%"}},{"type":"Feature","geometry":{"type":"Point","coordinates":[12.354721999996,7.3697219999967]},"properties":{"size":"1.3299874529486","address":"Cameroon","placename":"Cameroon","title":"Cameroon   106  Unit  1.3%"}},{"type":"Feature","geometry":{"type":"Point","coordinates":[104.990963,12.565679000004]},"properties":{"size":"0.012547051442911","address":"Cambodia","placename":"Cambodia","title":"Cambodia   1  Unit  0%"}},{"type":"Feature","geometry":{"type":"Point","coordinates":[-1.5615929999969,12.238332999997]},"properties":{"size":"0.012547051442911","address":"Burkina Faso","placename":"Burkina Faso","title":"Burkina Faso   1  Unit  0%"}},{"type":"Feature","geometry":{"type":"Point","coordinates":[25.485830000001,42.733883000002]},"properties":{"size":"0.037641154328733","address":"Bulgaria","placename":"Bulgaria","title":"Bulgaria   3  Unit  0%"}},{"type":"Feature","geometry":{"type":"Point","coordinates":[4.4699360000043,50.503887000001]},"properties":{"size":"2.3337515683814","address":"Belgium","placename":"Belgium","title":"Belgium   186  Unit  2.3%"}},{"type":"Feature","geometry":{"type":"Point","coordinates":[47.576927000002,40.143105000001]},"properties":{"size":"0.050188205771644","address":"Azerbaijan","placename":"Azerbaijan","title":"Azerbaijan   4  Unit  0.1%"}},{"type":"Feature","geometry":{"type":"Point","coordinates":[14.550071999996,47.516230999997]},"properties":{"size":"0.53952321204517","address":"Austria","placename":"Austria","title":"Austria   43  Unit  0.5%"}},{"type":"Feature","geometry":{"type":"Point","coordinates":[17.873887000004,-11.202692000003]},"properties":{"size":"0.025094102885822","address":"Angola","placename":"Angola","title":"Angola   2  Unit  0%"}},{"type":"Feature","geometry":{"type":"Point","coordinates":[1.6596259999975,28.033885999997]},"properties":{"size":"4.1279799247177","address":"Algeria","placename":"Algeria","title":"Algeria   329  Unit  4.1%"}},{"type":"Feature","geometry":{"type":"Point","coordinates":[6.4059880000016,48.555827999998]},"properties":{"address":"France,Blainville","placename":"Blainville-sur-l'Eau, France","title":"RT  France,Blainville  3694.5M 28.7%\/7720 Complete 250 CKD 19.8%"}},{"type":"Feature","geometry":{"type":"Point","coordinates":[-75.679209999998,45.44389]},"properties":{"size":"1.6829238921002","address":"SLOVAK REP","placename":"Slovak Republic Embassy of The, 50 Rideau Terr, Ottawa, ON K1M, Canada","title":"SLOVAK REP   559  Unit  1.7%"}},{"type":"Feature","geometry":{"type":"Point","coordinates":[35.233154,31.952162000002]},"properties":{"size":"0.16257225433526","address":"PALESTINE","placename":"","title":"PALESTINE   54  Unit  0.2%"}},{"type":"Feature","geometry":{"type":"Point","coordinates":[48.516388000001,15.552727]},"properties":{"size":"0.0030105973025048","address":"Yemen","placename":"Yemen","title":"Yemen   1  Unit  0%"}},{"type":"Feature","geometry":{"type":"Point","coordinates":[-3.4359729999961,55.378051000001]},"properties":{"size":"11.494460500963","address":"United Kingdom of Great Britain and Northern Ireland","placename":"United Kingdom","title":"United Kingdom of Great Britain and Northern Ireland   3818  Unit  11.5%"}},{"type":"Feature","geometry":{"type":"Point","coordinates":[53.847818000001,23.424076000003]},"properties":{"size":"0.0030105973025048","address":"United Arab Emirates","placename":"United Arab Emirates","title":"United Arab Emirates   1  Unit  0%"}},{"type":"Feature","geometry":{"type":"Point","coordinates":[31.16558,48.379433000003]},"properties":{"size":"0.42750481695568","address":"Ukraine","placename":"Ukraine","title":"Ukraine   142  Unit  0.4%"}},{"type":"Feature","geometry":{"type":"Point","coordinates":[35.243321999997,38.963745000001]},"properties":{"size":"2.9323217726397","address":"Turkey","placename":"Turkey","title":"Turkey   974  Unit  2.9%"}},{"type":"Feature","geometry":{"type":"Point","coordinates":[8.2275120000041,46.818187999999]},"properties":{"size":"1.1560693641618","address":"Switzerland","placename":"Switzerland","title":"Switzerland   384  Unit  1.2%"}},{"type":"Feature","geometry":{"type":"Point","coordinates":[18.643501000001,60.128160999999]},"properties":{"size":"1.896676300578","address":"Sweden","placename":"Sweden","title":"Sweden   630  Unit  1.9%"}},{"type":"Feature","geometry":{"type":"Point","coordinates":[-3.7492200000004,40.463667000002]},"properties":{"size":"5.933887283237","address":"Spain","placename":"Spain","title":"Spain   1971  Unit  5.9%"}},{"type":"Feature","geometry":{"type":"Point","coordinates":[22.937506000003,-30.559481999999]},"properties":{"size":"0.0060211946050096","address":"South Africa","placename":"South Africa","title":"South Africa   2  Unit  0%"}},{"type":"Feature","geometry":{"type":"Point","coordinates":[14.995462999997,46.151240999997]},"properties":{"size":"0.65028901734104","address":"Slovenia","placename":"Slovenia","title":"Slovenia   216  Unit  0.7%"}},{"type":"Feature","geometry":{"type":"Point","coordinates":[103.819836,1.3520830000039]},"properties":{"size":"0.0060211946050096","address":"Singapore","placename":"Singapore","title":"Singapore   2  Unit  0%"}},{"type":"Feature","geometry":{"type":"Point","coordinates":[21.005858999997,44.016521000002]},"properties":{"size":"0.30407032755299","address":"Serbia","placename":"Serbia","title":"Serbia   101  Unit  0.3%"}},{"type":"Feature","geometry":{"type":"Point","coordinates":[105.318756,61.52401]},"properties":{"size":"3.7030346820809","address":"Russian Federation","placename":"Russian Federation","title":"Russian Federation   1230  Unit  3.7%"}},{"type":"Feature","geometry":{"type":"Point","coordinates":[24.966760000001,45.943161000003]},"properties":{"size":"1.0777938342967","address":"Romania","placename":"Romania","title":"Romania   358  Unit  1.1%"}},{"type":"Feature","geometry":{"type":"Point","coordinates":[51.183884,25.354825999999]},"properties":{"size":"0.0090317919075144","address":"Qatar","placename":"Qatar","title":"Qatar   3  Unit  0%"}},{"type":"Feature","geometry":{"type":"Point","coordinates":[-8.2244540000027,39.399871999999]},"properties":{"size":"1.0597302504817","address":"Portugal","placename":"Portugal","title":"Portugal   352  Unit  1.1%"}},{"type":"Feature","geometry":{"type":"Point","coordinates":[19.145136,51.919437999998]},"properties":{"size":"6.3884874759152","address":"Poland","placename":"Poland","title":"Poland   2122  Unit  6.4%"}},{"type":"Feature","geometry":{"type":"Point","coordinates":[121.774017,12.879720999999]},"properties":{"size":"0.0030105973025048","address":"Philippines","placename":"Philippines","title":"Philippines   1  Unit  0%"}},{"type":"Feature","geometry":{"type":"Point","coordinates":[55.923254999996,21.512583000003]},"properties":{"size":"0.0060211946050096","address":"Oman","placename":"Oman","title":"Oman   2  Unit  0%"}},{"type":"Feature","geometry":{"type":"Point","coordinates":[8.4689460000024,60.472024]},"properties":{"size":"0.46965317919075","address":"Norway","placename":"Norway","title":"Norway   156  Unit  0.5%"}},{"type":"Feature","geometry":{"type":"Point","coordinates":[5.2912660000021,52.132633000001]},"properties":{"size":"6.3132225433526","address":"Netherlands","placename":"The Netherlands","title":"Netherlands   2097  Unit  6.3%"}},{"type":"Feature","geometry":{"type":"Point","coordinates":[19.374389999997,42.708678]},"properties":{"size":"0.012042389210019","address":"Montenegro","placename":"Montenegro","title":"Montenegro   4  Unit  0%"}},{"type":"Feature","geometry":{"type":"Point","coordinates":[-102.552784,23.634501000001]},"properties":{"size":"0.072254335260116","address":"Mexico","placename":"Mexico","title":"Mexico   24  Unit  0.1%"}},{"type":"Feature","geometry":{"type":"Point","coordinates":[21.745275000003,41.608635000001]},"properties":{"size":"0.15956165703276","address":"The former Yugoslav Republic of Macedonia","placename":"Macedonia (FYROM)","title":"The former Yugoslav Republic of Macedonia   53  Unit  0.2%"}},{"type":"Feature","geometry":{"type":"Point","coordinates":[23.881274999999,55.169437999999]},"properties":{"size":"2.1525770712909","address":"Lithuania","placename":"Lithuania","title":"Lithuania   715  Unit  2.2%"}},{"type":"Feature","geometry":{"type":"Point","coordinates":[24.603189000003,56.879635000001]},"properties":{"size":"0.21676300578035","address":"Latvia","placename":"Latvia","title":"Latvia   72  Unit  0.2%"}},{"type":"Feature","geometry":{"type":"Point","coordinates":[66.923684,48.019573000002]},"properties":{"size":"0.24084778420039","address":"Kazakhstan","placename":"Kazakhstan","title":"Kazakhstan   80  Unit  0.2%"}},{"type":"Feature","geometry":{"type":"Point","coordinates":[12.567380000004,41.871939999999]},"properties":{"size":"4.1094653179191","address":"Italy","placename":"Italy","title":"Italy   1365  Unit  4.1%"}},{"type":"Feature","geometry":{"type":"Point","coordinates":[34.851612000002,31.046051]},"properties":{"size":"2.4054672447013","address":"Israel","placename":"Israel","title":"Israel   799  Unit  2.4%"}},{"type":"Feature","geometry":{"type":"Point","coordinates":[43.679290999998,33.223191000003]},"properties":{"size":"0.015052986512524","address":"Iraq","placename":"Iraq","title":"Iraq   5  Unit  0%"}},{"type":"Feature","geometry":{"type":"Point","coordinates":[47.0605507,38.473983499998]},"properties":{"size":"0.0030105973025048","address":"Iran (Islamic Republic of)","placename":"Islamic Republic, Ahar, Iran","title":"Iran (Islamic Republic of)   1  Unit  0%"}},{"type":"Feature","geometry":{"type":"Point","coordinates":[-19.020835000001,64.963051000002]},"properties":{"size":"0.0060211946050096","address":"Iceland","placename":"Iceland","title":"Iceland   2  Unit  0%"}},{"type":"Feature","geometry":{"type":"Point","coordinates":[19.503303999996,47.162493999998]},"properties":{"size":"1.9598988439306","address":"Hungary","placename":"Hungary","title":"Hungary   651  Unit  2%"}},{"type":"Feature","geometry":{"type":"Point","coordinates":[21.824312000004,39.074207999997]},"properties":{"size":"0.033116570327553","address":"Greece","placename":"Greece","title":"Greece   11  Unit  0%"}},{"type":"Feature","geometry":{"type":"Point","coordinates":[10.451526000003,51.165690999999]},"properties":{"size":"13.674132947977","address":"Germany","placename":"Germany","title":"Germany   4542  Unit  13.7%"}},{"type":"Feature","geometry":{"type":"Point","coordinates":[2.2137489999989,46.227638]},"properties":{"size":"16.254214836224","address":"France","placename":"France","title":"France   5399  Unit  16.3%"}},{"type":"Feature","geometry":{"type":"Point","coordinates":[25.748150999997,61.924109999999]},"properties":{"size":"0.36729287090559","address":"Finland","placename":"Finland","title":"Finland   122  Unit  0.4%"}},{"type":"Feature","geometry":{"type":"Point","coordinates":[25.013606999999,58.595272000001]},"properties":{"size":"0.090317919075145","address":"Estonia","placename":"Estonia","title":"Estonia   30  Unit  0.1%"}},{"type":"Feature","geometry":{"type":"Point","coordinates":[30.802498000002,26.820553000001]},"properties":{"size":"0.0030105973025048","address":"Egypt","placename":"Egypt","title":"Egypt   1  Unit  0%"}},{"type":"Feature","geometry":{"type":"Point","coordinates":[9.5017849999985,56.263920000001]},"properties":{"size":"0.83092485549133","address":"Denmark","placename":"Denmark","title":"Denmark   276  Unit  0.8%"}},{"type":"Feature","geometry":{"type":"Point","coordinates":[15.472962000003,49.817492]},"properties":{"size":"2.6312620423892","address":"Czech Republic","placename":"Czech Republic","title":"Czech Republic   874  Unit  2.6%"}},{"type":"Feature","geometry":{"type":"Point","coordinates":[15.200000000002,45.100000000003]},"properties":{"size":"0.21074181117534","address":"Croatia","placename":"Croatia","title":"Croatia   70  Unit  0.2%"}},{"type":"Feature","geometry":{"type":"Point","coordinates":[104.195397,35.861660000001]},"properties":{"size":"0.16257225433526","address":"China","placename":"China","title":"China   54  Unit  0.2%"}},{"type":"Feature","geometry":{"type":"Point","coordinates":[25.485830000001,42.733883000002]},"properties":{"size":"0.34320809248555","address":"Bulgaria","placename":"Bulgaria","title":"Bulgaria   114  Unit  0.3%"}},{"type":"Feature","geometry":{"type":"Point","coordinates":[17.679076000004,43.915885999999]},"properties":{"size":"0.08730732177264","address":"Bosnia and Herzegovina","placename":"Bosnia and Herzegovina","title":"Bosnia and Herzegovina   29  Unit  0.1%"}},{"type":"Feature","geometry":{"type":"Point","coordinates":[4.4699360000043,50.503887000001]},"properties":{"size":"5.325746628131","address":"Belgium","placename":"Belgium","title":"Belgium   1769  Unit  5.3%"}},{"type":"Feature","geometry":{"type":"Point","coordinates":[27.953388999997,53.709807000002]},"properties":{"size":"0.41546242774566","address":"Belarus","placename":"Belarus","title":"Belarus   138  Unit  0.4%"}},{"type":"Feature","geometry":{"type":"Point","coordinates":[50.637772000001,25.930413999997]},"properties":{"size":"0.0060211946050096","address":"Bahrain","placename":"Bahrain","title":"Bahrain   2  Unit  0%"}},{"type":"Feature","geometry":{"type":"Point","coordinates":[47.576927000002,40.143105000001]},"properties":{"size":"0.036127167630058","address":"Azerbaijan","placename":"Azerbaijan","title":"Azerbaijan   12  Unit  0%"}},{"type":"Feature","geometry":{"type":"Point","coordinates":[14.550071999996,47.516230999997]},"properties":{"size":"2.2248314065511","address":"Austria","placename":"Austria","title":"Austria   739  Unit  2.2%"}},{"type":"Feature","geometry":{"type":"Point","coordinates":[133.775136,-25.274397999999]},"properties":{"size":"0.22579479768786","address":"Australia","placename":"Australia","title":"Australia   75  Unit  0.2%"}},{"type":"Feature","geometry":{"type":"Point","coordinates":[17.873887000004,-11.202692000003]},"properties":{"size":"0.015052986512524","address":"Angola","placename":"Angola","title":"Angola   5  Unit  0%"}},{"type":"Feature","geometry":{"type":"Point","coordinates":[1.6596259999975,28.033885999997]},"properties":{"size":"0.021074181117534","address":"Algeria","placename":"Algeria","title":"Algeria   7  Unit  0%"}},{"type":"Feature","geometry":{"type":"Point","coordinates":[3.7303799999963,51.053468000003]},"properties":{"address":"Ghent","placename":"Gent, Belgium","title":"VT Ghent 13989.4M 36.9%\/33216 Unit 28.9%"}},{"type":"Feature","geometry":{"type":"Point","coordinates":[133.775136,-25.274397999999]},"properties":{"size":"3.9700255102041","address":"Australia","placename":"Australia","title":"Australia CKD  1245  Unit  4%"}},{"type":"Feature","geometry":{"type":"Point","coordinates":[9.5374989999968,33.886917000001]},"properties":{"size":"0.80357142857143","address":"Tunisia","placename":"Tunisia","title":"Tunisia CKD  252  Unit  0.8%"}},{"type":"Feature","geometry":{"type":"Point","coordinates":[100.992541,15.870032]},"properties":{"size":"3.3960459183673","address":"Thailand","placename":"Thailand","title":"Thailand CKD  1065  Unit  3.4%"}},{"type":"Feature","geometry":{"type":"Point","coordinates":[120.960515,23.697810000004]},"properties":{"size":"1.0586734693878","address":"Taiwan","placename":"Taiwan","title":"Taiwan CKD  332  Unit  1.1%"}},{"type":"Feature","geometry":{"type":"Point","coordinates":[-7.0926199999983,31.791702]},"properties":{"size":"0.92474489795918","address":"Marocco","placename":"Morocco","title":"Marocco CKD  290  Unit  0.9%"}},{"type":"Feature","geometry":{"type":"Point","coordinates":[101.975766,4.2104840000023]},"properties":{"size":"0.90880102040816","address":"Malaysia","placename":"Malaysia","title":"Malaysia CKD  285  Unit  0.9%"}},{"type":"Feature","geometry":{"type":"Point","coordinates":[53.688046000001,32.427908000001]},"properties":{"size":"13.673469387755","address":"Iran","placename":"Iran","title":"Iran CKD  4288  Unit  13.7%"}},{"type":"Feature","geometry":{"type":"Point","coordinates":[45.079161999996,23.885942]},"properties":{"size":"5.2551020408163","address":"Saudi Arabia","placename":"Saudi Arabia","title":"Saudi Arabia CKD  1648  Unit  5.3%"}},{"type":"Feature","geometry":{"type":"Point","coordinates":[22.937506000003,-30.559481999999]},"properties":{"size":"4.5854591836735","address":"South Africa","placename":"South Africa","title":"South Africa CKD  1438  Unit  4.6%"}},{"type":"Feature","geometry":{"type":"Point","coordinates":[78.962879999997,20.593684000004]},"properties":{"size":"1.9642857142857","address":"India","placename":"India","title":"India CKD  616  Unit  2%"}},{"type":"Feature","geometry":{"type":"Point","coordinates":[48.516388000001,15.552727]},"properties":{"size":"0.01594387755102","address":"YEMEN R","placename":"Yemen","title":"YEMEN R   5  Unit  0%"}},{"type":"Feature","geometry":{"type":"Point","coordinates":[31.16558,48.379433000003]},"properties":{"size":"0.27423469387755","address":"UKRAINE","placename":"Ukraine","title":"UKRAINE   86  Unit  0.3%"}},{"type":"Feature","geometry":{"type":"Point","coordinates":[53.847818000001,23.424076000003]},"properties":{"size":"0.97576530612245","address":"UAE","placename":"United Arab Emirates","title":"UAE   306  Unit  1%"}},{"type":"Feature","geometry":{"type":"Point","coordinates":[35.243321999997,38.963745000001]},"properties":{"size":"0.77168367346939","address":"TURKEY","placename":"Turkey","title":"TURKEY   242  Unit  0.8%"}},{"type":"Feature","geometry":{"type":"Point","coordinates":[9.5374989999968,33.886917000001]},"properties":{"size":"0.24234693877551","address":"TUNISIA","placename":"Tunisia","title":"TUNISIA   76  Unit  0.2%"}},{"type":"Feature","geometry":{"type":"Point","coordinates":[100.992541,15.870032]},"properties":{"size":"0.10522959183673","address":"THAILAND","placename":"Thailand","title":"THAILAND   33  Unit  0.1%"}},{"type":"Feature","geometry":{"type":"Point","coordinates":[34.888821999999,-6.3690280000008]},"properties":{"size":"0.012755102040816","address":"TANZANIA","placename":"Tanzania","title":"TANZANIA   4  Unit  0%"}},{"type":"Feature","geometry":{"type":"Point","coordinates":[120.960515,23.697810000004]},"properties":{"size":"0.0031887755102041","address":"TAIWAN","placename":"Taiwan","title":"TAIWAN   1  Unit  0%"}},{"type":"Feature","geometry":{"type":"Point","coordinates":[38.996814999996,34.802074999999]},"properties":{"size":"0.15625","address":"SYRIA","placename":"Syria","title":"SYRIA   49  Unit  0.2%"}},{"type":"Feature","geometry":{"type":"Point","coordinates":[8.2275120000041,46.818187999999]},"properties":{"size":"0.33801020408163","address":"SWITZERLAND","placename":"Switzerland","title":"SWITZERLAND   106  Unit  0.3%"}},{"type":"Feature","geometry":{"type":"Point","coordinates":[18.643501000001,60.128160999999]},"properties":{"size":"6.3073979591837","address":"SWEDEN","placename":"Sweden","title":"SWEDEN   1978  Unit  6.3%"}},{"type":"Feature","geometry":{"type":"Point","coordinates":[30.217635999996,12.862807000002]},"properties":{"size":"0.20408163265306","address":"SUDAN","placename":"Sudan","title":"SUDAN   64  Unit  0.2%"}},{"type":"Feature","geometry":{"type":"Point","coordinates":[-3.7492200000004,40.463667000002]},"properties":{"size":"0.50063775510204","address":"SPAIN","placename":"Spain","title":"SPAIN   157  Unit  0.5%"}},{"type":"Feature","geometry":{"type":"Point","coordinates":[14.995462999997,46.151240999997]},"properties":{"size":"0.21045918367347","address":"SLOVENIA","placename":"Slovenia","title":"SLOVENIA   66  Unit  0.2%"}},{"type":"Feature","geometry":{"type":"Point","coordinates":[-75.679209999998,45.44389]},"properties":{"size":"0.59311224489796","address":"SLOVAK REP","placename":"Slovak Republic Embassy of The, 50 Rideau Terr, Ottawa, ON K1M, Canada","title":"SLOVAK REP   186  Unit  0.6%"}},{"type":"Feature","geometry":{"type":"Point","coordinates":[103.819836,1.3520830000039]},"properties":{"size":"0.29017857142857","address":"SINGAPORE","placename":"Singapore","title":"SINGAPORE   91  Unit  0.3%"}},{"type":"Feature","geometry":{"type":"Point","coordinates":[21.005858999997,44.016521000002]},"properties":{"size":"0.066964285714286","address":"SERBIA","placename":"Serbia","title":"SERBIA   21  Unit  0.1%"}},{"type":"Feature","geometry":{"type":"Point","coordinates":[31.222366099998,30.0976491]},"properties":{"size":"0.4719387755102","address":"SAUDI","placename":"Al Saudi, Warraq Al Arab, Al Warraq, Giza, Egypt","title":"SAUDI   148  Unit  0.5%"}},{"type":"Feature","geometry":{"type":"Point","coordinates":[22.937506000003,-30.559481999999]},"properties":{"size":"0.72385204081633","address":"S.AFRICA","placename":"South Africa","title":"S.AFRICA   227  Unit  0.7%"}},{"type":"Feature","geometry":{"type":"Point","coordinates":[127.766922,35.907756999999]},"properties":{"size":"4.0561224489796","address":"S KOREA","placename":"South Korea","title":"S KOREA   1272  Unit  4.1%"}},{"type":"Feature","geometry":{"type":"Point","coordinates":[105.318756,61.52401]},"properties":{"size":"2.1524234693878","address":"RUSSIA","placename":"Russia","title":"RUSSIA   675  Unit  2.2%"}},{"type":"Feature","geometry":{"type":"Point","coordinates":[24.966760000001,45.943161000003]},"properties":{"size":"0.87372448979592","address":"ROMANIA","placename":"Romania","title":"ROMANIA   274  Unit  0.9%"}},{"type":"Feature","geometry":{"type":"Point","coordinates":[15.827659000004,-0.22802099999814]},"properties":{"size":"0.031887755102041","address":"REP. CONGO","placename":"Congo","title":"REP. CONGO   10  Unit  0%"}},{"type":"Feature","geometry":{"type":"Point","coordinates":[51.183884,25.354825999999]},"properties":{"size":"0.11479591836735","address":"QATAR","placename":"Qatar","title":"QATAR   36  Unit  0.1%"}},{"type":"Feature","geometry":{"type":"Point","coordinates":[-8.2244540000027,39.399871999999]},"properties":{"size":"0.07015306122449","address":"PORTUGAL","placename":"Portugal","title":"PORTUGAL   22  Unit  0.1%"}},{"type":"Feature","geometry":{"type":"Point","coordinates":[19.145136,51.919437999998]},"properties":{"size":"1.5625","address":"POLAND","placename":"Poland","title":"POLAND   490  Unit  1.6%"}},{"type":"Feature","geometry":{"type":"Point","coordinates":[121.774017,12.879720999999]},"properties":{"size":"0.3093112244898","address":"PHILLIPINES","placename":"Philippines","title":"PHILLIPINES   97  Unit  0.3%"}},{"type":"Feature","geometry":{"type":"Point","coordinates":[-75.015152,-9.1899670000004]},"properties":{"size":"3.1186224489796","address":"PERU","placename":"Peru","title":"PERU   978  Unit  3.1%"}},{"type":"Feature","geometry":{"type":"Point","coordinates":[35.233154,31.952162000002]},"properties":{"size":"0.038265306122449","address":"PALESTINE","placename":"","title":"PALESTINE   12  Unit  0%"}},{"type":"Feature","geometry":{"type":"Point","coordinates":[69.345115999996,30.375321000001]},"properties":{"size":"0.012755102040816","address":"PAKISTAN","placename":"Pakistan","title":"PAKISTAN   4  Unit  0%"}},{"type":"Feature","geometry":{"type":"Point","coordinates":[55.923254999996,21.512583000003]},"properties":{"size":"0.55484693877551","address":"OMAN","placename":"Oman","title":"OMAN   174  Unit  0.6%"}},{"type":"Feature","geometry":{"type":"Point","coordinates":[8.4689460000024,60.472024]},"properties":{"size":"3.5522959183673","address":"NORWAY","placename":"Norway","title":"NORWAY   1114  Unit  3.6%"}},{"type":"Feature","geometry":{"type":"Point","coordinates":[5.2912660000021,52.132633000001]},"properties":{"size":"0.97576530612245","address":"NETHERLANDS","placename":"The Netherlands","title":"NETHERLANDS   306  Unit  1%"}},{"type":"Feature","geometry":{"type":"Point","coordinates":[-7.0926199999983,31.791702]},"properties":{"size":"1.218112244898","address":"MOROCCO","placename":"Morocco","title":"MOROCCO   382  Unit  1.2%"}},{"type":"Feature","geometry":{"type":"Point","coordinates":[19.374389999997,42.708678]},"properties":{"size":"0.0063775510204082","address":"MONTENEGRO","placename":"Montenegro","title":"MONTENEGRO   2  Unit  0%"}},{"type":"Feature","geometry":{"type":"Point","coordinates":[28.369885000002,47.411630999998]},"properties":{"size":"0.0095663265306122","address":"MOLDOVA","placename":"Moldova","title":"MOLDOVA   3  Unit  0%"}},{"type":"Feature","geometry":{"type":"Point","coordinates":[101.975766,4.2104840000023]},"properties":{"size":"0.0095663265306122","address":"MALAYSIA","placename":"Malaysia","title":"MALAYSIA   3  Unit  0%"}},{"type":"Feature","geometry":{"type":"Point","coordinates":[21.745275000003,41.608635000001]},"properties":{"size":"0.073341836734694","address":"MACEDONIA","placename":"Macedonia (FYROM)","title":"MACEDONIA   23  Unit  0.1%"}},{"type":"Feature","geometry":{"type":"Point","coordinates":[23.881274999999,55.169437999999]},"properties":{"size":"1.5051020408163","address":"LITHUANIA","placename":"Lithuania","title":"LITHUANIA   472  Unit  1.5%"}},{"type":"Feature","geometry":{"type":"Point","coordinates":[35.862284999998,33.854721000002]},"properties":{"size":"0.022321428571429","address":"LEBANON","placename":"Lebanon","title":"LEBANON   7  Unit  0%"}},{"type":"Feature","geometry":{"type":"Point","coordinates":[24.603189000003,56.879635000001]},"properties":{"size":"1.3807397959184","address":"LATVIA","placename":"Latvia","title":"LATVIA   433  Unit  1.4%"}},{"type":"Feature","geometry":{"type":"Point","coordinates":[47.481765999997,29.311660000002]},"properties":{"size":"0.092474489795918","address":"KUWAIT","placename":"Kuwait","title":"KUWAIT   29  Unit  0.1%"}},{"type":"Feature","geometry":{"type":"Point","coordinates":[37.906193000004,-0.023558999995522]},"properties":{"size":"0.19132653061224","address":"KENYA","placename":"Kenya","title":"KENYA   60  Unit  0.2%"}},{"type":"Feature","geometry":{"type":"Point","coordinates":[66.923684,48.019573000002]},"properties":{"size":"0.0063775510204082","address":"KAZAKHSTAN","placename":"Kazakhstan","title":"KAZAKHSTAN   2  Unit  0%"}},{"type":"Feature","geometry":{"type":"Point","coordinates":[36.238414000001,30.585164000002]},"properties":{"size":"0.012755102040816","address":"JORDAN","placename":"Jordan","title":"JORDAN   4  Unit  0%"}},{"type":"Feature","geometry":{"type":"Point","coordinates":[138.252924,36.204824000001]},"properties":{"size":"0.72704081632653","address":"JAPAN","placename":"Japan","title":"JAPAN   228  Unit  0.7%"}},{"type":"Feature","geometry":{"type":"Point","coordinates":[12.567380000004,41.871939999999]},"properties":{"size":"0.73022959183673","address":"ITALY","placename":"Italy","title":"ITALY   229  Unit  0.7%"}},{"type":"Feature","geometry":{"type":"Point","coordinates":[34.851612000002,31.046051]},"properties":{"size":"0.58992346938776","address":"ISRAEL","placename":"Israel","title":"ISRAEL   185  Unit  0.6%"}},{"type":"Feature","geometry":{"type":"Point","coordinates":[43.679290999998,33.223191000003]},"properties":{"size":"0.13073979591837","address":"IRAQ","placename":"Iraq","title":"IRAQ   41  Unit  0.1%"}},{"type":"Feature","geometry":{"type":"Point","coordinates":[53.688046000001,32.427908000001]},"properties":{"size":"0.0031887755102041","address":"IRAN","placename":"Iran","title":"IRAN   1  Unit  0%"}},{"type":"Feature","geometry":{"type":"Point","coordinates":[113.921327,-0.78927499999687]},"properties":{"size":"2.1747448979592","address":"INDONESIA","placename":"Indonesia","title":"INDONESIA   682  Unit  2.2%"}},{"type":"Feature","geometry":{"type":"Point","coordinates":[78.962879999997,20.593684000004]},"properties":{"size":"0.076530612244898","address":"INDIA","placename":"India","title":"INDIA   24  Unit  0.1%"}},{"type":"Feature","geometry":{"type":"Point","coordinates":[-19.020835000001,64.963051000002]},"properties":{"size":"0.028698979591837","address":"ICELAND","placename":"Iceland","title":"ICELAND   9  Unit  0%"}},{"type":"Feature","geometry":{"type":"Point","coordinates":[19.503303999996,47.162493999998]},"properties":{"size":"0.19770408163265","address":"HUNGARY","placename":"Hungary","title":"HUNGARY   62  Unit  0.2%"}},{"type":"Feature","geometry":{"type":"Point","coordinates":[114.109497,22.396428000004]},"properties":{"size":"0.0063775510204082","address":"HONGKONG","placename":"Hong Kong","title":"HONGKONG   2  Unit  0%"}},{"type":"Feature","geometry":{"type":"Point","coordinates":[21.824312000004,39.074207999997]},"properties":{"size":"0.041454081632653","address":"GREECE","placename":"Greece","title":"GREECE   13  Unit  0%"}},{"type":"Feature","geometry":{"type":"Point","coordinates":[-1.0231940000024,7.9465270000027]},"properties":{"size":"0.044642857142857","address":"GHANA","placename":"Ghana","title":"GHANA   14  Unit  0%"}},{"type":"Feature","geometry":{"type":"Point","coordinates":[10.451526000003,51.165690999999]},"properties":{"size":"2.8316326530612","address":"GERMANY","placename":"Germany","title":"GERMANY   888  Unit  2.8%"}},{"type":"Feature","geometry":{"type":"Point","coordinates":[-3.4359729999961,55.378051000001]},"properties":{"size":"3.3227040816327","address":"G.BRITAIN","placename":"United Kingdom","title":"G.BRITAIN   1042  Unit  3.3%"}},{"type":"Feature","geometry":{"type":"Point","coordinates":[2.2137489999989,46.227638]},"properties":{"size":"2.2161989795918","address":"FRANCE","placename":"France","title":"FRANCE   695  Unit  2.2%"}},{"type":"Feature","geometry":{"type":"Point","coordinates":[25.748150999997,61.924109999999]},"properties":{"size":"2.4043367346939","address":"FINLAND","placename":"Finland","title":"FINLAND   754  Unit  2.4%"}},{"type":"Feature","geometry":{"type":"Point","coordinates":[0,0]},"properties":{"size":"0.019132653061224","address":"EUD PULL PRODUCTION","title":"EUD PULL PRODUCTION   6  Unit  0%"}},{"type":"Feature","geometry":{"type":"Point","coordinates":[40.489672999999,9.1449999999959]},"properties":{"size":"0.67602040816327","address":"ETHIOPIA","placename":"Ethiopia","title":"ETHIOPIA   212  Unit  0.7%"}},{"type":"Feature","geometry":{"type":"Point","coordinates":[25.013606999999,58.595272000001]},"properties":{"size":"0.59630102040816","address":"ESTONIA","placename":"Estonia","title":"ESTONIA   187  Unit  0.6%"}},{"type":"Feature","geometry":{"type":"Point","coordinates":[30.802498000002,26.820553000001]},"properties":{"size":"0.13073979591837","address":"EGYPT","placename":"Egypt","title":"EGYPT   41  Unit  0.1%"}},{"type":"Feature","geometry":{"type":"Point","coordinates":[-78.183406000002,-1.8312390000011]},"properties":{"size":"0.041454081632653","address":"ECUADOR","placename":"Ecuador","title":"ECUADOR   13  Unit  0%"}},{"type":"Feature","geometry":{"type":"Point","coordinates":[0,0]},"properties":{"size":"0.01594387755102","address":"DOM REP","title":"DOM REP   5  Unit  0%"}},{"type":"Feature","geometry":{"type":"Point","coordinates":[9.5017849999985,56.263920000001]},"properties":{"size":"3.1696428571429","address":"DENMARK","placename":"Denmark","title":"DENMARK   994  Unit  3.2%"}},{"type":"Feature","geometry":{"type":"Point","coordinates":[15.472962000003,49.817492]},"properties":{"size":"0.58354591836735","address":"CZECH REP","placename":"Czech Republic","title":"CZECH REP   183  Unit  0.6%"}},{"type":"Feature","geometry":{"type":"Point","coordinates":[15.200000000002,45.100000000003]},"properties":{"size":"0.11160714285714","address":"CROATIA","placename":"Croatia","title":"CROATIA   35  Unit  0.1%"}},{"type":"Feature","geometry":{"type":"Point","coordinates":[15.827659000004,-0.22802099999814]},"properties":{"size":"0.01594387755102","address":"CONGO","placename":"Congo","title":"CONGO   5  Unit  0%"}},{"type":"Feature","geometry":{"type":"Point","coordinates":[-74.297332999997,4.5708679999982]},"properties":{"size":"0.20727040816327","address":"COLOMBIA","placename":"Colombia","title":"COLOMBIA   65  Unit  0.2%"}},{"type":"Feature","geometry":{"type":"Point","coordinates":[104.195397,35.861660000001]},"properties":{"size":"3.4917091836735","address":"CHINA","placename":"China","title":"CHINA   1095  Unit  3.5%"}},{"type":"Feature","geometry":{"type":"Point","coordinates":[-71.542969,-35.675146999998]},"properties":{"size":"1.3871173469388","address":"CHILE","placename":"Chile","title":"CHILE   435  Unit  1.4%"}},{"type":"Feature","geometry":{"type":"Point","coordinates":[25.485830000001,42.733883000002]},"properties":{"size":"0.16581632653061","address":"BULGARIA","placename":"Bulgaria","title":"BULGARIA   52  Unit  0.2%"}},{"type":"Feature","geometry":{"type":"Point","coordinates":[17.679076000004,43.915885999999]},"properties":{"size":"0.0095663265306122","address":"BOSNIA-HERZEGOVINA","placename":"Bosnia and Herzegovina","title":"BOSNIA-HERZEGOVINA   3  Unit  0%"}},{"type":"Feature","geometry":{"type":"Point","coordinates":[4.4699360000043,50.503887000001]},"properties":{"size":"0.92474489795918","address":"BELGIUM","placename":"Belgium","title":"BELGIUM   290  Unit  0.9%"}},{"type":"Feature","geometry":{"type":"Point","coordinates":[27.953388999997,53.709807000002]},"properties":{"size":"0.48469387755102","address":"BELARUS","placename":"Belarus","title":"BELARUS   152  Unit  0.5%"}},{"type":"Feature","geometry":{"type":"Point","coordinates":[90.356330999996,23.684993999998]},"properties":{"size":"0.022321428571429","address":"BANGLADESH","placename":"Bangladesh","title":"BANGLADESH   7  Unit  0%"}},{"type":"Feature","geometry":{"type":"Point","coordinates":[14.550071999996,47.516230999997]},"properties":{"size":"0.32206632653061","address":"AUSTRIA","placename":"Austria","title":"AUSTRIA   101  Unit  0.3%"}},{"type":"Feature","geometry":{"type":"Point","coordinates":[133.775136,-25.274397999999]},"properties":{"size":"0.057397959183673","address":"AUSTRALIA","placename":"Australia","title":"AUSTRALIA   18  Unit  0.1%"}},{"type":"Feature","geometry":{"type":"Point","coordinates":[17.873887000004,-11.202692000003]},"properties":{"size":"1.0267857142857","address":"ANGOLA","placename":"Angola","title":"ANGOLA   322  Unit  1%"}},{"type":"Feature","geometry":{"type":"Point","coordinates":[1.6596259999975,28.033885999997]},"properties":{"size":"0.25829081632653","address":"ALGERIA","placename":"Algeria","title":"ALGERIA   81  Unit  0.3%"}},{"type":"Feature","geometry":{"type":"Point","coordinates":[18.643501000001,60.128160999999]},"properties":{"address":"Sweden","placename":"Sweden","title":"VT Tuve,Sweden 180.4M 0.5%\/19901 Complete 11459 CKD 27.3%"}},{"type":"Feature","geometry":{"type":"Point","coordinates":[0,0]},"properties":{"size":"0.7843137254902","address":"Private Importers","title":"Private Importers   198  Unit  0.8%"}},{"type":"Feature","geometry":{"type":"Point","coordinates":[-75.015152,-9.1899670000004]},"properties":{"size":"8.0808080808081","address":"Peru","placename":"Peru","title":"Peru   2040  Unit  8.1%"}},{"type":"Feature","geometry":{"type":"Point","coordinates":[-71.542969,-35.675146999998]},"properties":{"size":"4.9871261635968","address":"Chile","placename":"Chile","title":"Chile   1259  Unit  5%"}},{"type":"Feature","geometry":{"type":"Point","coordinates":[-63.616672000003,-38.416096999997]},"properties":{"size":"3.6918201624084","address":"Argentina","placename":"Argentina","title":"Argentina   932  Unit  3.7%"}},{"type":"Feature","geometry":{"type":"Point","coordinates":[-51.925279999999,-14.235004]},"properties":{"size":"82.455931867697","address":"Brazil","placename":"Brazil","title":"Brazil   20816  Unit  82.5%"}},{"type":"Feature","geometry":{"type":"Point","coordinates":[-49.273251500001,-25.428356300003]},"properties":{"address":"Curitiba, Brazil","placename":"Curitiba - Paran\u00e1, Brazil","title":"VT Curitiba, Brazil 11488.9M 30.3%\/25245 Unit 21.9%"}},{"type":"Feature","geometry":{"type":"Point","coordinates":[-102.552784,23.634501000001]},"properties":{"size":"2.8800380831482","address":"MEXICO","placename":"Mexico","title":"MEXICO   726  Unit  2.9%"}},{"type":"Feature","geometry":{"type":"Point","coordinates":[-95.712890999999,37.090240000003]},"properties":{"size":"85.310218978102","address":"USA","placename":"United States","title":"USA   21505  Unit  85.3%"}},{"type":"Feature","geometry":{"type":"Point","coordinates":[-106.346771,56.130366000001]},"properties":{"size":"11.80974293875","address":"CANADA","placename":"Canada","title":"CANADA   2977  Unit  11.8%"}},{"type":"Feature","geometry":{"type":"Point","coordinates":[-80.679961500001,37.137916799999]},"properties":{"address":"New River Valley, USA","placename":"New River Valley Airport (PSK), Dublin, VA 24084, USA","title":"VT New River Valley, USA 12299.9M 32.4%\/25208 Unit 21.9%"}},{"type":"Feature","geometry":{"type":"Point","coordinates":[32.290275000002,1.3733329999983]},"properties":{"size":"0.0098629056119933","address":"UGANDA","placename":"Uganda","title":"UGANDA   2  Unit  0%"}},{"type":"Feature","geometry":{"type":"Point","coordinates":[8.6752770000036,9.0819989999966]},"properties":{"size":"1.8986093303087","address":"NIGERIA","placename":"Nigeria","title":"NIGERIA   385  Unit  1.9%"}},{"type":"Feature","geometry":{"type":"Point","coordinates":[174.885971,-40.900556999999]},"properties":{"size":"0.22191537626985","address":"NEW ZEALAND","placename":"New Zealand","title":"NEW ZEALAND   45  Unit  0.2%"}},{"type":"Feature","geometry":{"type":"Point","coordinates":[133.775136,-25.274397999999]},"properties":{"size":"3.9352993391853","address":"AUSTRALIA","placename":"Australia","title":"AUSTRALIA   798  Unit  3.9%"}},{"type":"Feature","geometry":{"type":"Point","coordinates":[74.766098,41.204379999997]},"properties":{"size":"0.01479435841799","address":"KYRGYZSTAN","placename":"Kyrgyzstan","title":"KYRGYZSTAN   3  Unit  0%"}},{"type":"Feature","geometry":{"type":"Point","coordinates":[47.481765999997,29.311660000002]},"properties":{"size":"0.0098629056119933","address":"KUWAIT","placename":"Kuwait","title":"KUWAIT   2  Unit  0%"}},{"type":"Feature","geometry":{"type":"Point","coordinates":[50.637772000001,25.930413999997]},"properties":{"size":"0.01479435841799","address":"BAHRAIN","placename":"Bahrain","title":"BAHRAIN   3  Unit  0%"}},{"type":"Feature","geometry":{"type":"Point","coordinates":[-66.589730000004,6.4237500000005]},"properties":{"size":"4.5024164118749","address":"VENEZUELA","placename":"Venezuela","title":"VENEZUELA   913  Unit  4.5%"}},{"type":"Feature","geometry":{"type":"Point","coordinates":[-56.027783,3.9193050000025]},"properties":{"size":"0.40931058289772","address":"SURINAME","placename":"Suriname","title":"SURINAME   83  Unit  0.4%"}},{"type":"Feature","geometry":{"type":"Point","coordinates":[-75.015152,-9.1899670000004]},"properties":{"size":"0.57697997830161","address":"PERU","placename":"Peru","title":"PERU   117  Unit  0.6%"}},{"type":"Feature","geometry":{"type":"Point","coordinates":[-78.183406000002,-1.8312390000011]},"properties":{"size":"1.8295689910248","address":"ECUADOR","placename":"Ecuador","title":"ECUADOR   371  Unit  1.8%"}},{"type":"Feature","geometry":{"type":"Point","coordinates":[-74.297332999997,4.5708679999982]},"properties":{"size":"1.2230002958872","address":"COLOMBIA","placename":"Colombia","title":"COLOMBIA   248  Unit  1.2%"}},{"type":"Feature","geometry":{"type":"Point","coordinates":[-71.542969,-35.675146999998]},"properties":{"size":"5.4640497090443","address":"CHILE","placename":"Chile","title":"CHILE   1108  Unit  5.5%"}},{"type":"Feature","geometry":{"type":"Point","coordinates":[-63.588652999998,-16.290154000002]},"properties":{"size":"0.1479435841799","address":"BOLIVIA","placename":"Bolivia","title":"BOLIVIA   30  Unit  0.1%"}},{"type":"Feature","geometry":{"type":"Point","coordinates":[-63.616672000003,-38.416096999997]},"properties":{"size":"0.0098629056119933","address":"ARGENTINA","placename":"Argentina","title":"ARGENTINA   2  Unit  0%"}},{"type":"Feature","geometry":{"type":"Point","coordinates":[-77.009311200002,38.895692099997]},"properties":{"size":"0.019725811223987","address":"VIRGIN ISLANDS (US)","placename":"US Virgin Islands Dept of Tourism, 444 North Capitol St NW, Washington, DC 20001, USA","title":"VIRGIN ISLANDS (US)   4  Unit  0%"}},{"type":"Feature","geometry":{"type":"Point","coordinates":[-80.782127000004,8.5379810000007]},"properties":{"size":"0.46848801656968","address":"PANAMA","placename":"Panama","title":"PANAMA   95  Unit  0.5%"}},{"type":"Feature","geometry":{"type":"Point","coordinates":[-102.552784,23.634501000001]},"properties":{"size":"0.33533879080777","address":"MEXICO","placename":"Mexico","title":"MEXICO   68  Unit  0.3%"}},{"type":"Feature","geometry":{"type":"Point","coordinates":[-77.297508,18.109580999997]},"properties":{"size":"0.039451622447973","address":"JAMAICA","placename":"Jamaica","title":"JAMAICA   8  Unit  0%"}},{"type":"Feature","geometry":{"type":"Point","coordinates":[-72.285214999997,18.971187000004]},"properties":{"size":"0.024657264029983","address":"HAITI","placename":"Haiti","title":"HAITI   5  Unit  0%"}},{"type":"Feature","geometry":{"type":"Point","coordinates":[-90.230759000004,15.783470999998]},"properties":{"size":"0.0049314528059966","address":"GUATEMALA","placename":"Guatemala","title":"GUATEMALA   1  Unit  0%"}},{"type":"Feature","geometry":{"type":"Point","coordinates":[-88.89653,13.794185]},"properties":{"size":"0.01479435841799","address":"EL SALVADOR","placename":"El Salvador","title":"EL SALVADOR   3  Unit  0%"}},{"type":"Feature","geometry":{"type":"Point","coordinates":[-70.162650999999,18.735693]},"properties":{"size":"0.17260084820988","address":"DOM. REPUBLIC","placename":"Dominican Republic","title":"DOM. REPUBLIC   35  Unit  0.2%"}},{"type":"Feature","geometry":{"type":"Point","coordinates":[-83.753427999999,9.7489169999974]},"properties":{"size":"0.019725811223987","address":"COSTA RICA","placename":"Costa Rica","title":"COSTA RICA   4  Unit  0%"}},{"type":"Feature","geometry":{"type":"Point","coordinates":[-59.543197999999,13.193887]},"properties":{"size":"0.0049314528059966","address":"BARBADOS","placename":"Barbados","title":"BARBADOS   1  Unit  0%"}},{"type":"Feature","geometry":{"type":"Point","coordinates":[-77.396280000003,25.034279999999]},"properties":{"size":"0.0049314528059966","address":"BAHAMAS","placename":"The Bahamas","title":"BAHAMAS   1  Unit  0%"}},{"type":"Feature","geometry":{"type":"Point","coordinates":[-69.968338000003,12.521110000004]},"properties":{"size":"0.0098629056119933","address":"ARUBA","placename":"Aruba","title":"ARUBA   2  Unit  0%"}},{"type":"Feature","geometry":{"type":"Point","coordinates":[-95.712890999999,37.090240000003]},"properties":{"size":"69.666633790315","address":"USA","placename":"United States","title":"USA   14127  Unit  69.7%"}},{"type":"Feature","geometry":{"type":"Point","coordinates":[-106.346771,56.130366000001]},"properties":{"size":"8.6744254857481","address":"CANADA","placename":"Canada","title":"CANADA   1759  Unit  8.7%"}},{"type":"Feature","geometry":{"type":"Point","coordinates":[105.318756,61.52401]},"properties":{"size":"0.27122990432982","address":"RUSSIA","placename":"Russia","title":"RUSSIA   55  Unit  0.3%"}},{"type":"Feature","geometry":{"type":"Point","coordinates":[-75.555185799998,40.515930399997]},"properties":{"address":"Macungie, USA","placename":"Macungie, PA, USA","title":"Mack Macungie, USA 6664.5M 20278 Unit"}},{"type":"Feature","geometry":{"type":"Point","coordinates":[174.885971,-40.900556999999]},"properties":{"size":"0.71005917159763","address":"New Zealand","placename":"New Zealand","title":"New Zealand   6  Unit  0.7%"}},{"type":"Feature","geometry":{"type":"Point","coordinates":[133.775136,-25.274397999999]},"properties":{"size":"99.289940828402","address":"Australia","placename":"Australia","title":"Australia   839  Unit  99.3%"}},{"type":"Feature","geometry":{"type":"Point","coordinates":[153.0235024,-27.4709331]},"properties":{"address":"Brisbane","placename":"Brisbane QLD, Australia","title":"Mack Brisbane 7522M 845 Unit"}},{"type":"Feature","geometry":{"type":"Point","coordinates":[-66.589730000004,6.4237500000005]},"properties":{"size":"100","address":"Venezuela","placename":"Venezuela","title":"Venezuela   691  Unit  100%"}},{"type":"Feature","geometry":{"type":"Point","coordinates":[-67.173842999997,10.251411000002]},"properties":{"address":"Venezuela Las Tejerias","placename":"Las Tejerias, Venezuela","title":"Mack Venezuela Las Tejerias 525.7M 691 Unit"}},{"type":"Feature","geometry":{"type":"Point","coordinates":[3.7303799999963,51.053468000003]},"properties":{"address":"Ghent","placename":"Gent, Belgium","title":"Volvo Ghent"}},{"type":"Feature","geometry":{"type":"Point","coordinates":[11.934279999997,57.755900000002]},"properties":{"address":"Tuve,Sweden","placename":"Tuve, Sweden","title":"Volvo Tuve,Sweden"}},{"type":"Feature","geometry":{"type":"Point","coordinates":[-49.273251500001,-25.428356300003]},"properties":{"address":"Curitiba, Brazil","placename":"Curitiba - Paran\u00e1, Brazil","title":"Volvo Curitiba, Brazil"}},{"type":"Feature","geometry":{"type":"Point","coordinates":[-80.679961500001,37.137916799999]},"properties":{"address":"New River Valley, USA","placename":"New River Valley Airport (PSK), Dublin, VA 24084, USA","title":"Volvo New River Valley, USA"}},{"type":"Feature","geometry":{"type":"Point","coordinates":[5.2192460000015,46.20279]},"properties":{"address":"Bourg-en-Bresse, FR","placename":"Bourg-en-Bresse, France","title":"Renault Bourg-en-Bresse, FR"}},{"type":"Feature","geometry":{"type":"Point","coordinates":[6.4059880000016,48.555827999998]},"properties":{"address":"France,Blainville","placename":"Blainville-sur-l'Eau, France","title":"Renault France,Blainville"}},{"type":"Feature","geometry":{"type":"Point","coordinates":[139.5932055,35.977380500002]},"properties":{"address":"Ageo,Japan","placename":"Ageo, Saitama Prefecture, Japan","title":"UD Ageo,Japan"}},{"type":"Feature","geometry":{"type":"Point","coordinates":[-75.555185799998,40.515930399997]},"properties":{"address":"Macungie, USA","placename":"Macungie, PA, USA","title":"Mack  Macungie, USA"}},{"type":"Feature","geometry":{"type":"Point","coordinates":[153.0235024,-27.4709331]},"properties":{"address":"Brisbane","placename":"Brisbane QLD, Australia","title":"Mack  Brisbane"}},{"type":"Feature","geometry":{"type":"Point","coordinates":[-67.173842999997,10.251411000002]},"properties":{"address":"Venezuela Las Tejerias,","placename":"Las Tejerias, Venezuela","title":"Mack  Venezuela Las Tejerias,"}},{"type":"Feature","geometry":{"type":"LineString","coordinates":[[-67.173842999997,10.251411000002],[-66.589730000004,6.4237500000005]]},"properties":[]},{"type":"Feature","geometry":{"type":"LineString","coordinates":[[153.0235024,-27.4709331],[133.775136,-25.274397999999]]},"properties":[]},{"type":"Feature","geometry":{"type":"LineString","coordinates":[[153.0235024,-27.4709331],[174.885971,-40.900556999999]]},"properties":[]},{"type":"Feature","geometry":{"type":"LineString","coordinates":[[-75.555185799998,40.515930399997],[105.318756,61.52401]]},"properties":[]},{"type":"Feature","geometry":{"type":"LineString","coordinates":[[-75.555185799998,40.515930399997],[-106.346771,56.130366000001]]},"properties":[]},{"type":"Feature","geometry":{"type":"LineString","coordinates":[[-75.555185799998,40.515930399997],[-95.712890999999,37.090240000003]]},"properties":[]},{"type":"Feature","geometry":{"type":"LineString","coordinates":[[-75.555185799998,40.515930399997],[-69.968338000003,12.521110000004]]},"properties":[]},{"type":"Feature","geometry":{"type":"LineString","coordinates":[[-75.555185799998,40.515930399997],[-77.396280000003,25.034279999999]]},"properties":[]},{"type":"Feature","geometry":{"type":"LineString","coordinates":[[-75.555185799998,40.515930399997],[-59.543197999999,13.193887]]},"properties":[]},{"type":"Feature","geometry":{"type":"LineString","coordinates":[[-75.555185799998,40.515930399997],[-83.753427999999,9.7489169999974]]},"properties":[]},{"type":"Feature","geometry":{"type":"LineString","coordinates":[[-75.555185799998,40.515930399997],[-70.162650999999,18.735693]]},"properties":[]},{"type":"Feature","geometry":{"type":"LineString","coordinates":[[-75.555185799998,40.515930399997],[-88.89653,13.794185]]},"properties":[]},{"type":"Feature","geometry":{"type":"LineString","coordinates":[[-75.555185799998,40.515930399997],[-90.230759000004,15.783470999998]]},"properties":[]},{"type":"Feature","geometry":{"type":"LineString","coordinates":[[-75.555185799998,40.515930399997],[-72.285214999997,18.971187000004]]},"properties":[]},{"type":"Feature","geometry":{"type":"LineString","coordinates":[[-75.555185799998,40.515930399997],[-77.297508,18.109580999997]]},"properties":[]},{"type":"Feature","geometry":{"type":"LineString","coordinates":[[-75.555185799998,40.515930399997],[-102.552784,23.634501000001]]},"properties":[]},{"type":"Feature","geometry":{"type":"LineString","coordinates":[[-75.555185799998,40.515930399997],[-80.782127000004,8.5379810000007]]},"properties":[]},{"type":"Feature","geometry":{"type":"LineString","coordinates":[[-75.555185799998,40.515930399997],[-77.009311200002,38.895692099997]]},"properties":[]},{"type":"Feature","geometry":{"type":"LineString","coordinates":[[-75.555185799998,40.515930399997],[-63.616672000003,-38.416096999997]]},"properties":[]},{"type":"Feature","geometry":{"type":"LineString","coordinates":[[-75.555185799998,40.515930399997],[-63.588652999998,-16.290154000002]]},"properties":[]},{"type":"Feature","geometry":{"type":"LineString","coordinates":[[-75.555185799998,40.515930399997],[-71.542969,-35.675146999998]]},"properties":[]},{"type":"Feature","geometry":{"type":"LineString","coordinates":[[-75.555185799998,40.515930399997],[-74.297332999997,4.5708679999982]]},"properties":[]},{"type":"Feature","geometry":{"type":"LineString","coordinates":[[-75.555185799998,40.515930399997],[-78.183406000002,-1.8312390000011]]},"properties":[]},{"type":"Feature","geometry":{"type":"LineString","coordinates":[[-75.555185799998,40.515930399997],[-75.015152,-9.1899670000004]]},"properties":[]},{"type":"Feature","geometry":{"type":"LineString","coordinates":[[-75.555185799998,40.515930399997],[-56.027783,3.9193050000025]]},"properties":[]},{"type":"Feature","geometry":{"type":"LineString","coordinates":[[-75.555185799998,40.515930399997],[-66.589730000004,6.4237500000005]]},"properties":[]},{"type":"Feature","geometry":{"type":"LineString","coordinates":[[-75.555185799998,40.515930399997],[50.637772000001,25.930413999997]]},"properties":[]},{"type":"Feature","geometry":{"type":"LineString","coordinates":[[-75.555185799998,40.515930399997],[47.481765999997,29.311660000002]]},"properties":[]},{"type":"Feature","geometry":{"type":"LineString","coordinates":[[-75.555185799998,40.515930399997],[74.766098,41.204379999997]]},"properties":[]},{"type":"Feature","geometry":{"type":"LineString","coordinates":[[-75.555185799998,40.515930399997],[133.775136,-25.274397999999]]},"properties":[]},{"type":"Feature","geometry":{"type":"LineString","coordinates":[[-75.555185799998,40.515930399997],[174.885971,-40.900556999999]]},"properties":[]},{"type":"Feature","geometry":{"type":"LineString","coordinates":[[-75.555185799998,40.515930399997],[8.6752770000036,9.0819989999966]]},"properties":[]},{"type":"Feature","geometry":{"type":"LineString","coordinates":[[-75.555185799998,40.515930399997],[32.290275000002,1.3733329999983]]},"properties":[]},{"type":"Feature","geometry":{"type":"LineString","coordinates":[[-80.679961500001,37.137916799999],[-106.346771,56.130366000001]]},"properties":[]},{"type":"Feature","geometry":{"type":"LineString","coordinates":[[-80.679961500001,37.137916799999],[-95.712890999999,37.090240000003]]},"properties":[]},{"type":"Feature","geometry":{"type":"LineString","coordinates":[[-80.679961500001,37.137916799999],[-102.552784,23.634501000001]]},"properties":[]},{"type":"Feature","geometry":{"type":"LineString","coordinates":[[-49.273251500001,-25.428356300003],[-51.925279999999,-14.235004]]},"properties":[]},{"type":"Feature","geometry":{"type":"LineString","coordinates":[[-49.273251500001,-25.428356300003],[-63.616672000003,-38.416096999997]]},"properties":[]},{"type":"Feature","geometry":{"type":"LineString","coordinates":[[-49.273251500001,-25.428356300003],[-71.542969,-35.675146999998]]},"properties":[]},{"type":"Feature","geometry":{"type":"LineString","coordinates":[[-49.273251500001,-25.428356300003],[-75.015152,-9.1899670000004]]},"properties":[]},{"type":"Feature","geometry":{"type":"LineString","coordinates":[[-49.273251500001,-25.428356300003],[0,0]]},"properties":[]},{"type":"Feature","geometry":{"type":"LineString","coordinates":[[18.643501000001,60.128160999999],[1.6596259999975,28.033885999997]]},"properties":[]},{"type":"Feature","geometry":{"type":"LineString","coordinates":[[18.643501000001,60.128160999999],[17.873887000004,-11.202692000003]]},"properties":[]},{"type":"Feature","geometry":{"type":"LineString","coordinates":[[18.643501000001,60.128160999999],[133.775136,-25.274397999999]]},"properties":[]},{"type":"Feature","geometry":{"type":"LineString","coordinates":[[18.643501000001,60.128160999999],[14.550071999996,47.516230999997]]},"properties":[]},{"type":"Feature","geometry":{"type":"LineString","coordinates":[[18.643501000001,60.128160999999],[90.356330999996,23.684993999998]]},"properties":[]},{"type":"Feature","geometry":{"type":"LineString","coordinates":[[18.643501000001,60.128160999999],[27.953388999997,53.709807000002]]},"properties":[]},{"type":"Feature","geometry":{"type":"LineString","coordinates":[[18.643501000001,60.128160999999],[4.4699360000043,50.503887000001]]},"properties":[]},{"type":"Feature","geometry":{"type":"LineString","coordinates":[[18.643501000001,60.128160999999],[17.679076000004,43.915885999999]]},"properties":[]},{"type":"Feature","geometry":{"type":"LineString","coordinates":[[18.643501000001,60.128160999999],[25.485830000001,42.733883000002]]},"properties":[]},{"type":"Feature","geometry":{"type":"LineString","coordinates":[[18.643501000001,60.128160999999],[-71.542969,-35.675146999998]]},"properties":[]},{"type":"Feature","geometry":{"type":"LineString","coordinates":[[18.643501000001,60.128160999999],[104.195397,35.861660000001]]},"properties":[]},{"type":"Feature","geometry":{"type":"LineString","coordinates":[[18.643501000001,60.128160999999],[-74.297332999997,4.5708679999982]]},"properties":[]},{"type":"Feature","geometry":{"type":"LineString","coordinates":[[18.643501000001,60.128160999999],[15.827659000004,-0.22802099999814]]},"properties":[]},{"type":"Feature","geometry":{"type":"LineString","coordinates":[[18.643501000001,60.128160999999],[15.200000000002,45.100000000003]]},"properties":[]},{"type":"Feature","geometry":{"type":"LineString","coordinates":[[18.643501000001,60.128160999999],[15.472962000003,49.817492]]},"properties":[]},{"type":"Feature","geometry":{"type":"LineString","coordinates":[[18.643501000001,60.128160999999],[9.5017849999985,56.263920000001]]},"properties":[]},{"type":"Feature","geometry":{"type":"LineString","coordinates":[[18.643501000001,60.128160999999],[0,0]]},"properties":[]},{"type":"Feature","geometry":{"type":"LineString","coordinates":[[18.643501000001,60.128160999999],[-78.183406000002,-1.8312390000011]]},"properties":[]},{"type":"Feature","geometry":{"type":"LineString","coordinates":[[18.643501000001,60.128160999999],[30.802498000002,26.820553000001]]},"properties":[]},{"type":"Feature","geometry":{"type":"LineString","coordinates":[[18.643501000001,60.128160999999],[25.013606999999,58.595272000001]]},"properties":[]},{"type":"Feature","geometry":{"type":"LineString","coordinates":[[18.643501000001,60.128160999999],[40.489672999999,9.1449999999959]]},"properties":[]},{"type":"Feature","geometry":{"type":"LineString","coordinates":[[18.643501000001,60.128160999999],[0,0]]},"properties":[]},{"type":"Feature","geometry":{"type":"LineString","coordinates":[[18.643501000001,60.128160999999],[25.748150999997,61.924109999999]]},"properties":[]},{"type":"Feature","geometry":{"type":"LineString","coordinates":[[18.643501000001,60.128160999999],[2.2137489999989,46.227638]]},"properties":[]},{"type":"Feature","geometry":{"type":"LineString","coordinates":[[18.643501000001,60.128160999999],[-3.4359729999961,55.378051000001]]},"properties":[]},{"type":"Feature","geometry":{"type":"LineString","coordinates":[[18.643501000001,60.128160999999],[10.451526000003,51.165690999999]]},"properties":[]},{"type":"Feature","geometry":{"type":"LineString","coordinates":[[18.643501000001,60.128160999999],[-1.0231940000024,7.9465270000027]]},"properties":[]},{"type":"Feature","geometry":{"type":"LineString","coordinates":[[18.643501000001,60.128160999999],[21.824312000004,39.074207999997]]},"properties":[]},{"type":"Feature","geometry":{"type":"LineString","coordinates":[[18.643501000001,60.128160999999],[114.109497,22.396428000004]]},"properties":[]},{"type":"Feature","geometry":{"type":"LineString","coordinates":[[18.643501000001,60.128160999999],[19.503303999996,47.162493999998]]},"properties":[]},{"type":"Feature","geometry":{"type":"LineString","coordinates":[[18.643501000001,60.128160999999],[-19.020835000001,64.963051000002]]},"properties":[]},{"type":"Feature","geometry":{"type":"LineString","coordinates":[[18.643501000001,60.128160999999],[78.962879999997,20.593684000004]]},"properties":[]},{"type":"Feature","geometry":{"type":"LineString","coordinates":[[18.643501000001,60.128160999999],[113.921327,-0.78927499999687]]},"properties":[]},{"type":"Feature","geometry":{"type":"LineString","coordinates":[[18.643501000001,60.128160999999],[53.688046000001,32.427908000001]]},"properties":[]},{"type":"Feature","geometry":{"type":"LineString","coordinates":[[18.643501000001,60.128160999999],[43.679290999998,33.223191000003]]},"properties":[]},{"type":"Feature","geometry":{"type":"LineString","coordinates":[[18.643501000001,60.128160999999],[34.851612000002,31.046051]]},"properties":[]},{"type":"Feature","geometry":{"type":"LineString","coordinates":[[18.643501000001,60.128160999999],[12.567380000004,41.871939999999]]},"properties":[]},{"type":"Feature","geometry":{"type":"LineString","coordinates":[[18.643501000001,60.128160999999],[138.252924,36.204824000001]]},"properties":[]},{"type":"Feature","geometry":{"type":"LineString","coordinates":[[18.643501000001,60.128160999999],[36.238414000001,30.585164000002]]},"properties":[]},{"type":"Feature","geometry":{"type":"LineString","coordinates":[[18.643501000001,60.128160999999],[66.923684,48.019573000002]]},"properties":[]},{"type":"Feature","geometry":{"type":"LineString","coordinates":[[18.643501000001,60.128160999999],[37.906193000004,-0.023558999995522]]},"properties":[]},{"type":"Feature","geometry":{"type":"LineString","coordinates":[[18.643501000001,60.128160999999],[47.481765999997,29.311660000002]]},"properties":[]},{"type":"Feature","geometry":{"type":"LineString","coordinates":[[18.643501000001,60.128160999999],[24.603189000003,56.879635000001]]},"properties":[]},{"type":"Feature","geometry":{"type":"LineString","coordinates":[[18.643501000001,60.128160999999],[35.862284999998,33.854721000002]]},"properties":[]},{"type":"Feature","geometry":{"type":"LineString","coordinates":[[18.643501000001,60.128160999999],[23.881274999999,55.169437999999]]},"properties":[]},{"type":"Feature","geometry":{"type":"LineString","coordinates":[[18.643501000001,60.128160999999],[21.745275000003,41.608635000001]]},"properties":[]},{"type":"Feature","geometry":{"type":"LineString","coordinates":[[18.643501000001,60.128160999999],[101.975766,4.2104840000023]]},"properties":[]},{"type":"Feature","geometry":{"type":"LineString","coordinates":[[18.643501000001,60.128160999999],[28.369885000002,47.411630999998]]},"properties":[]},{"type":"Feature","geometry":{"type":"LineString","coordinates":[[18.643501000001,60.128160999999],[19.374389999997,42.708678]]},"properties":[]},{"type":"Feature","geometry":{"type":"LineString","coordinates":[[18.643501000001,60.128160999999],[-7.0926199999983,31.791702]]},"properties":[]},{"type":"Feature","geometry":{"type":"LineString","coordinates":[[18.643501000001,60.128160999999],[5.2912660000021,52.132633000001]]},"properties":[]},{"type":"Feature","geometry":{"type":"LineString","coordinates":[[18.643501000001,60.128160999999],[8.4689460000024,60.472024]]},"properties":[]},{"type":"Feature","geometry":{"type":"LineString","coordinates":[[18.643501000001,60.128160999999],[55.923254999996,21.512583000003]]},"properties":[]},{"type":"Feature","geometry":{"type":"LineString","coordinates":[[18.643501000001,60.128160999999],[69.345115999996,30.375321000001]]},"properties":[]},{"type":"Feature","geometry":{"type":"LineString","coordinates":[[18.643501000001,60.128160999999],[35.233154,31.952162000002]]},"properties":[]},{"type":"Feature","geometry":{"type":"LineString","coordinates":[[18.643501000001,60.128160999999],[-75.015152,-9.1899670000004]]},"properties":[]},{"type":"Feature","geometry":{"type":"LineString","coordinates":[[18.643501000001,60.128160999999],[121.774017,12.879720999999]]},"properties":[]},{"type":"Feature","geometry":{"type":"LineString","coordinates":[[18.643501000001,60.128160999999],[19.145136,51.919437999998]]},"properties":[]},{"type":"Feature","geometry":{"type":"LineString","coordinates":[[18.643501000001,60.128160999999],[-8.2244540000027,39.399871999999]]},"properties":[]},{"type":"Feature","geometry":{"type":"LineString","coordinates":[[18.643501000001,60.128160999999],[51.183884,25.354825999999]]},"properties":[]},{"type":"Feature","geometry":{"type":"LineString","coordinates":[[18.643501000001,60.128160999999],[15.827659000004,-0.22802099999814]]},"properties":[]},{"type":"Feature","geometry":{"type":"LineString","coordinates":[[18.643501000001,60.128160999999],[24.966760000001,45.943161000003]]},"properties":[]},{"type":"Feature","geometry":{"type":"LineString","coordinates":[[18.643501000001,60.128160999999],[105.318756,61.52401]]},"properties":[]},{"type":"Feature","geometry":{"type":"LineString","coordinates":[[18.643501000001,60.128160999999],[127.766922,35.907756999999]]},"properties":[]},{"type":"Feature","geometry":{"type":"LineString","coordinates":[[18.643501000001,60.128160999999],[22.937506000003,-30.559481999999]]},"properties":[]},{"type":"Feature","geometry":{"type":"LineString","coordinates":[[18.643501000001,60.128160999999],[31.222366099998,30.0976491]]},"properties":[]},{"type":"Feature","geometry":{"type":"LineString","coordinates":[[18.643501000001,60.128160999999],[21.005858999997,44.016521000002]]},"properties":[]},{"type":"Feature","geometry":{"type":"LineString","coordinates":[[18.643501000001,60.128160999999],[103.819836,1.3520830000039]]},"properties":[]},{"type":"Feature","geometry":{"type":"LineString","coordinates":[[18.643501000001,60.128160999999],[-75.679209999998,45.44389]]},"properties":[]},{"type":"Feature","geometry":{"type":"LineString","coordinates":[[18.643501000001,60.128160999999],[14.995462999997,46.151240999997]]},"properties":[]},{"type":"Feature","geometry":{"type":"LineString","coordinates":[[18.643501000001,60.128160999999],[-3.7492200000004,40.463667000002]]},"properties":[]},{"type":"Feature","geometry":{"type":"LineString","coordinates":[[18.643501000001,60.128160999999],[30.217635999996,12.862807000002]]},"properties":[]},{"type":"Feature","geometry":{"type":"LineString","coordinates":[[18.643501000001,60.128160999999],[18.643501000001,60.128160999999]]},"properties":[]},{"type":"Feature","geometry":{"type":"LineString","coordinates":[[18.643501000001,60.128160999999],[8.2275120000041,46.818187999999]]},"properties":[]},{"type":"Feature","geometry":{"type":"LineString","coordinates":[[18.643501000001,60.128160999999],[38.996814999996,34.802074999999]]},"properties":[]},{"type":"Feature","geometry":{"type":"LineString","coordinates":[[18.643501000001,60.128160999999],[120.960515,23.697810000004]]},"properties":[]},{"type":"Feature","geometry":{"type":"LineString","coordinates":[[18.643501000001,60.128160999999],[34.888821999999,-6.3690280000008]]},"properties":[]},{"type":"Feature","geometry":{"type":"LineString","coordinates":[[18.643501000001,60.128160999999],[100.992541,15.870032]]},"properties":[]},{"type":"Feature","geometry":{"type":"LineString","coordinates":[[18.643501000001,60.128160999999],[9.5374989999968,33.886917000001]]},"properties":[]},{"type":"Feature","geometry":{"type":"LineString","coordinates":[[18.643501000001,60.128160999999],[35.243321999997,38.963745000001]]},"properties":[]},{"type":"Feature","geometry":{"type":"LineString","coordinates":[[18.643501000001,60.128160999999],[53.847818000001,23.424076000003]]},"properties":[]},{"type":"Feature","geometry":{"type":"LineString","coordinates":[[18.643501000001,60.128160999999],[31.16558,48.379433000003]]},"properties":[]},{"type":"Feature","geometry":{"type":"LineString","coordinates":[[18.643501000001,60.128160999999],[48.516388000001,15.552727]]},"properties":[]},{"type":"Feature","geometry":{"type":"LineString","coordinates":[[18.643501000001,60.128160999999],[78.962879999997,20.593684000004]]},"properties":[]},{"type":"Feature","geometry":{"type":"LineString","coordinates":[[18.643501000001,60.128160999999],[22.937506000003,-30.559481999999]]},"properties":[]},{"type":"Feature","geometry":{"type":"LineString","coordinates":[[18.643501000001,60.128160999999],[45.079161999996,23.885942]]},"properties":[]},{"type":"Feature","geometry":{"type":"LineString","coordinates":[[18.643501000001,60.128160999999],[53.688046000001,32.427908000001]]},"properties":[]},{"type":"Feature","geometry":{"type":"LineString","coordinates":[[18.643501000001,60.128160999999],[101.975766,4.2104840000023]]},"properties":[]},{"type":"Feature","geometry":{"type":"LineString","coordinates":[[18.643501000001,60.128160999999],[-7.0926199999983,31.791702]]},"properties":[]},{"type":"Feature","geometry":{"type":"LineString","coordinates":[[18.643501000001,60.128160999999],[120.960515,23.697810000004]]},"properties":[]},{"type":"Feature","geometry":{"type":"LineString","coordinates":[[18.643501000001,60.128160999999],[100.992541,15.870032]]},"properties":[]},{"type":"Feature","geometry":{"type":"LineString","coordinates":[[18.643501000001,60.128160999999],[9.5374989999968,33.886917000001]]},"properties":[]},{"type":"Feature","geometry":{"type":"LineString","coordinates":[[18.643501000001,60.128160999999],[133.775136,-25.274397999999]]},"properties":[]},{"type":"Feature","geometry":{"type":"LineString","coordinates":[[3.7303799999963,51.053468000003],[1.6596259999975,28.033885999997]]},"properties":[]},{"type":"Feature","geometry":{"type":"LineString","coordinates":[[3.7303799999963,51.053468000003],[17.873887000004,-11.202692000003]]},"properties":[]},{"type":"Feature","geometry":{"type":"LineString","coordinates":[[3.7303799999963,51.053468000003],[133.775136,-25.274397999999]]},"properties":[]},{"type":"Feature","geometry":{"type":"LineString","coordinates":[[3.7303799999963,51.053468000003],[14.550071999996,47.516230999997]]},"properties":[]},{"type":"Feature","geometry":{"type":"LineString","coordinates":[[3.7303799999963,51.053468000003],[47.576927000002,40.143105000001]]},"properties":[]},{"type":"Feature","geometry":{"type":"LineString","coordinates":[[3.7303799999963,51.053468000003],[50.637772000001,25.930413999997]]},"properties":[]},{"type":"Feature","geometry":{"type":"LineString","coordinates":[[3.7303799999963,51.053468000003],[27.953388999997,53.709807000002]]},"properties":[]},{"type":"Feature","geometry":{"type":"LineString","coordinates":[[3.7303799999963,51.053468000003],[4.4699360000043,50.503887000001]]},"properties":[]},{"type":"Feature","geometry":{"type":"LineString","coordinates":[[3.7303799999963,51.053468000003],[17.679076000004,43.915885999999]]},"properties":[]},{"type":"Feature","geometry":{"type":"LineString","coordinates":[[3.7303799999963,51.053468000003],[25.485830000001,42.733883000002]]},"properties":[]},{"type":"Feature","geometry":{"type":"LineString","coordinates":[[3.7303799999963,51.053468000003],[104.195397,35.861660000001]]},"properties":[]},{"type":"Feature","geometry":{"type":"LineString","coordinates":[[3.7303799999963,51.053468000003],[15.200000000002,45.100000000003]]},"properties":[]},{"type":"Feature","geometry":{"type":"LineString","coordinates":[[3.7303799999963,51.053468000003],[15.472962000003,49.817492]]},"properties":[]},{"type":"Feature","geometry":{"type":"LineString","coordinates":[[3.7303799999963,51.053468000003],[9.5017849999985,56.263920000001]]},"properties":[]},{"type":"Feature","geometry":{"type":"LineString","coordinates":[[3.7303799999963,51.053468000003],[30.802498000002,26.820553000001]]},"properties":[]},{"type":"Feature","geometry":{"type":"LineString","coordinates":[[3.7303799999963,51.053468000003],[25.013606999999,58.595272000001]]},"properties":[]},{"type":"Feature","geometry":{"type":"LineString","coordinates":[[3.7303799999963,51.053468000003],[25.748150999997,61.924109999999]]},"properties":[]},{"type":"Feature","geometry":{"type":"LineString","coordinates":[[3.7303799999963,51.053468000003],[2.2137489999989,46.227638]]},"properties":[]},{"type":"Feature","geometry":{"type":"LineString","coordinates":[[3.7303799999963,51.053468000003],[10.451526000003,51.165690999999]]},"properties":[]},{"type":"Feature","geometry":{"type":"LineString","coordinates":[[3.7303799999963,51.053468000003],[21.824312000004,39.074207999997]]},"properties":[]},{"type":"Feature","geometry":{"type":"LineString","coordinates":[[3.7303799999963,51.053468000003],[19.503303999996,47.162493999998]]},"properties":[]},{"type":"Feature","geometry":{"type":"LineString","coordinates":[[3.7303799999963,51.053468000003],[-19.020835000001,64.963051000002]]},"properties":[]},{"type":"Feature","geometry":{"type":"LineString","coordinates":[[3.7303799999963,51.053468000003],[47.0605507,38.473983499998]]},"properties":[]},{"type":"Feature","geometry":{"type":"LineString","coordinates":[[3.7303799999963,51.053468000003],[43.679290999998,33.223191000003]]},"properties":[]},{"type":"Feature","geometry":{"type":"LineString","coordinates":[[3.7303799999963,51.053468000003],[34.851612000002,31.046051]]},"properties":[]},{"type":"Feature","geometry":{"type":"LineString","coordinates":[[3.7303799999963,51.053468000003],[12.567380000004,41.871939999999]]},"properties":[]},{"type":"Feature","geometry":{"type":"LineString","coordinates":[[3.7303799999963,51.053468000003],[66.923684,48.019573000002]]},"properties":[]},{"type":"Feature","geometry":{"type":"LineString","coordinates":[[3.7303799999963,51.053468000003],[24.603189000003,56.879635000001]]},"properties":[]},{"type":"Feature","geometry":{"type":"LineString","coordinates":[[3.7303799999963,51.053468000003],[23.881274999999,55.169437999999]]},"properties":[]},{"type":"Feature","geometry":{"type":"LineString","coordinates":[[3.7303799999963,51.053468000003],[21.745275000003,41.608635000001]]},"properties":[]},{"type":"Feature","geometry":{"type":"LineString","coordinates":[[3.7303799999963,51.053468000003],[-102.552784,23.634501000001]]},"properties":[]},{"type":"Feature","geometry":{"type":"LineString","coordinates":[[3.7303799999963,51.053468000003],[19.374389999997,42.708678]]},"properties":[]},{"type":"Feature","geometry":{"type":"LineString","coordinates":[[3.7303799999963,51.053468000003],[5.2912660000021,52.132633000001]]},"properties":[]},{"type":"Feature","geometry":{"type":"LineString","coordinates":[[3.7303799999963,51.053468000003],[8.4689460000024,60.472024]]},"properties":[]},{"type":"Feature","geometry":{"type":"LineString","coordinates":[[3.7303799999963,51.053468000003],[55.923254999996,21.512583000003]]},"properties":[]},{"type":"Feature","geometry":{"type":"LineString","coordinates":[[3.7303799999963,51.053468000003],[121.774017,12.879720999999]]},"properties":[]},{"type":"Feature","geometry":{"type":"LineString","coordinates":[[3.7303799999963,51.053468000003],[19.145136,51.919437999998]]},"properties":[]},{"type":"Feature","geometry":{"type":"LineString","coordinates":[[3.7303799999963,51.053468000003],[-8.2244540000027,39.399871999999]]},"properties":[]},{"type":"Feature","geometry":{"type":"LineString","coordinates":[[3.7303799999963,51.053468000003],[51.183884,25.354825999999]]},"properties":[]},{"type":"Feature","geometry":{"type":"LineString","coordinates":[[3.7303799999963,51.053468000003],[24.966760000001,45.943161000003]]},"properties":[]},{"type":"Feature","geometry":{"type":"LineString","coordinates":[[3.7303799999963,51.053468000003],[105.318756,61.52401]]},"properties":[]},{"type":"Feature","geometry":{"type":"LineString","coordinates":[[3.7303799999963,51.053468000003],[21.005858999997,44.016521000002]]},"properties":[]},{"type":"Feature","geometry":{"type":"LineString","coordinates":[[3.7303799999963,51.053468000003],[103.819836,1.3520830000039]]},"properties":[]},{"type":"Feature","geometry":{"type":"LineString","coordinates":[[3.7303799999963,51.053468000003],[14.995462999997,46.151240999997]]},"properties":[]},{"type":"Feature","geometry":{"type":"LineString","coordinates":[[3.7303799999963,51.053468000003],[22.937506000003,-30.559481999999]]},"properties":[]},{"type":"Feature","geometry":{"type":"LineString","coordinates":[[3.7303799999963,51.053468000003],[-3.7492200000004,40.463667000002]]},"properties":[]},{"type":"Feature","geometry":{"type":"LineString","coordinates":[[3.7303799999963,51.053468000003],[18.643501000001,60.128160999999]]},"properties":[]},{"type":"Feature","geometry":{"type":"LineString","coordinates":[[3.7303799999963,51.053468000003],[8.2275120000041,46.818187999999]]},"properties":[]},{"type":"Feature","geometry":{"type":"LineString","coordinates":[[3.7303799999963,51.053468000003],[35.243321999997,38.963745000001]]},"properties":[]},{"type":"Feature","geometry":{"type":"LineString","coordinates":[[3.7303799999963,51.053468000003],[31.16558,48.379433000003]]},"properties":[]},{"type":"Feature","geometry":{"type":"LineString","coordinates":[[3.7303799999963,51.053468000003],[53.847818000001,23.424076000003]]},"properties":[]},{"type":"Feature","geometry":{"type":"LineString","coordinates":[[3.7303799999963,51.053468000003],[-3.4359729999961,55.378051000001]]},"properties":[]},{"type":"Feature","geometry":{"type":"LineString","coordinates":[[3.7303799999963,51.053468000003],[48.516388000001,15.552727]]},"properties":[]},{"type":"Feature","geometry":{"type":"LineString","coordinates":[[3.7303799999963,51.053468000003],[35.233154,31.952162000002]]},"properties":[]},{"type":"Feature","geometry":{"type":"LineString","coordinates":[[3.7303799999963,51.053468000003],[-75.679209999998,45.44389]]},"properties":[]},{"type":"Feature","geometry":{"type":"LineString","coordinates":[[6.4059880000016,48.555827999998],[1.6596259999975,28.033885999997]]},"properties":[]},{"type":"Feature","geometry":{"type":"LineString","coordinates":[[6.4059880000016,48.555827999998],[17.873887000004,-11.202692000003]]},"properties":[]},{"type":"Feature","geometry":{"type":"LineString","coordinates":[[6.4059880000016,48.555827999998],[14.550071999996,47.516230999997]]},"properties":[]},{"type":"Feature","geometry":{"type":"LineString","coordinates":[[6.4059880000016,48.555827999998],[47.576927000002,40.143105000001]]},"properties":[]},{"type":"Feature","geometry":{"type":"LineString","coordinates":[[6.4059880000016,48.555827999998],[4.4699360000043,50.503887000001]]},"properties":[]},{"type":"Feature","geometry":{"type":"LineString","coordinates":[[6.4059880000016,48.555827999998],[25.485830000001,42.733883000002]]},"properties":[]},{"type":"Feature","geometry":{"type":"LineString","coordinates":[[6.4059880000016,48.555827999998],[-1.5615929999969,12.238332999997]]},"properties":[]},{"type":"Feature","geometry":{"type":"LineString","coordinates":[[6.4059880000016,48.555827999998],[104.990963,12.565679000004]]},"properties":[]},{"type":"Feature","geometry":{"type":"LineString","coordinates":[[6.4059880000016,48.555827999998],[12.354721999996,7.3697219999967]]},"properties":[]},{"type":"Feature","geometry":{"type":"LineString","coordinates":[[6.4059880000016,48.555827999998],[-24.013197000004,16.002082000001]]},"properties":[]},{"type":"Feature","geometry":{"type":"LineString","coordinates":[[6.4059880000016,48.555827999998],[18.732206999998,15.454166000003]]},"properties":[]},{"type":"Feature","geometry":{"type":"LineString","coordinates":[[6.4059880000016,48.555827999998],[-71.542969,-35.675146999998]]},"properties":[]},{"type":"Feature","geometry":{"type":"LineString","coordinates":[[6.4059880000016,48.555827999998],[-74.297332999997,4.5708679999982]]},"properties":[]},{"type":"Feature","geometry":{"type":"LineString","coordinates":[[6.4059880000016,48.555827999998],[15.827659000004,-0.22802099999814]]},"properties":[]},{"type":"Feature","geometry":{"type":"LineString","coordinates":[[6.4059880000016,48.555827999998],[-5.547080000004,7.5399890000007]]},"properties":[]},{"type":"Feature","geometry":{"type":"LineString","coordinates":[[6.4059880000016,48.555827999998],[15.200000000002,45.100000000003]]},"properties":[]},{"type":"Feature","geometry":{"type":"LineString","coordinates":[[6.4059880000016,48.555827999998],[-77.781167000004,21.521757]]},"properties":[]},{"type":"Feature","geometry":{"type":"LineString","coordinates":[[6.4059880000016,48.555827999998],[15.472962000003,49.817492]]},"properties":[]},{"type":"Feature","geometry":{"type":"LineString","coordinates":[[6.4059880000016,48.555827999998],[21.758664000001,-4.0383329999964]]},"properties":[]},{"type":"Feature","geometry":{"type":"LineString","coordinates":[[6.4059880000016,48.555827999998],[9.5017849999985,56.263920000001]]},"properties":[]},{"type":"Feature","geometry":{"type":"LineString","coordinates":[[6.4059880000016,48.555827999998],[42.590274999996,11.825138]]},"properties":[]},{"type":"Feature","geometry":{"type":"LineString","coordinates":[[6.4059880000016,48.555827999998],[-70.162650999999,18.735693]]},"properties":[]},{"type":"Feature","geometry":{"type":"LineString","coordinates":[[6.4059880000016,48.555827999998],[-78.183406000002,-1.8312390000011]]},"properties":[]},{"type":"Feature","geometry":{"type":"LineString","coordinates":[[6.4059880000016,48.555827999998],[30.802498000002,26.820553000001]]},"properties":[]},{"type":"Feature","geometry":{"type":"LineString","coordinates":[[6.4059880000016,48.555827999998],[25.748150999997,61.924109999999]]},"properties":[]},{"type":"Feature","geometry":{"type":"LineString","coordinates":[[6.4059880000016,48.555827999998],[2.2137489999989,46.227638]]},"properties":[]},{"type":"Feature","geometry":{"type":"LineString","coordinates":[[6.4059880000016,48.555827999998],[-149.406843,-17.679742000001]]},"properties":[]},{"type":"Feature","geometry":{"type":"LineString","coordinates":[[6.4059880000016,48.555827999998],[11.609444,-0.80368899999725]]},"properties":[]},{"type":"Feature","geometry":{"type":"LineString","coordinates":[[6.4059880000016,48.555827999998],[10.451526000003,51.165690999999]]},"properties":[]},{"type":"Feature","geometry":{"type":"LineString","coordinates":[[6.4059880000016,48.555827999998],[-90.230759000004,15.783470999998]]},"properties":[]},{"type":"Feature","geometry":{"type":"LineString","coordinates":[[6.4059880000016,48.555827999998],[-9.6966449999987,9.9455870000035]]},"properties":[]},{"type":"Feature","geometry":{"type":"LineString","coordinates":[[6.4059880000016,48.555827999998],[-58.93018,4.8604159999962]]},"properties":[]},{"type":"Feature","geometry":{"type":"LineString","coordinates":[[6.4059880000016,48.555827999998],[-72.285214999997,18.971187000004]]},"properties":[]},{"type":"Feature","geometry":{"type":"LineString","coordinates":[[6.4059880000016,48.555827999998],[19.503303999996,47.162493999998]]},"properties":[]},{"type":"Feature","geometry":{"type":"LineString","coordinates":[[6.4059880000016,48.555827999998],[43.679290999998,33.223191000003]]},"properties":[]},{"type":"Feature","geometry":{"type":"LineString","coordinates":[[6.4059880000016,48.555827999998],[-8.2438900000022,53.412910000001]]},"properties":[]},{"type":"Feature","geometry":{"type":"LineString","coordinates":[[6.4059880000016,48.555827999998],[34.851612000002,31.046051]]},"properties":[]},{"type":"Feature","geometry":{"type":"LineString","coordinates":[[6.4059880000016,48.555827999998],[12.567380000004,41.871939999999]]},"properties":[]},{"type":"Feature","geometry":{"type":"LineString","coordinates":[[6.4059880000016,48.555827999998],[37.906193000004,-0.023558999995522]]},"properties":[]},{"type":"Feature","geometry":{"type":"LineString","coordinates":[[6.4059880000016,48.555827999998],[24.603189000003,56.879635000001]]},"properties":[]},{"type":"Feature","geometry":{"type":"LineString","coordinates":[[6.4059880000016,48.555827999998],[23.881274999999,55.169437999999]]},"properties":[]},{"type":"Feature","geometry":{"type":"LineString","coordinates":[[6.4059880000016,48.555827999998],[6.129582999999,49.815273000002]]},"properties":[]},{"type":"Feature","geometry":{"type":"LineString","coordinates":[[6.4059880000016,48.555827999998],[46.869106999996,-18.766946999998]]},"properties":[]},{"type":"Feature","geometry":{"type":"LineString","coordinates":[[6.4059880000016,48.555827999998],[-3.9961659999965,17.570691999998]]},"properties":[]},{"type":"Feature","geometry":{"type":"LineString","coordinates":[[6.4059880000016,48.555827999998],[-61.024173999999,14.641528]]},"properties":[]},{"type":"Feature","geometry":{"type":"LineString","coordinates":[[6.4059880000016,48.555827999998],[57.552151999999,-20.348403999997]]},"properties":[]},{"type":"Feature","geometry":{"type":"LineString","coordinates":[[6.4059880000016,48.555827999998],[45.166244000002,-12.827500000003]]},"properties":[]},{"type":"Feature","geometry":{"type":"LineString","coordinates":[[6.4059880000016,48.555827999998],[-7.0926199999983,31.791702]]},"properties":[]},{"type":"Feature","geometry":{"type":"LineString","coordinates":[[6.4059880000016,48.555827999998],[5.2912660000021,52.132633000001]]},"properties":[]},{"type":"Feature","geometry":{"type":"LineString","coordinates":[[6.4059880000016,48.555827999998],[165.618042,-20.904305000001]]},"properties":[]},{"type":"Feature","geometry":{"type":"LineString","coordinates":[[6.4059880000016,48.555827999998],[8.0816659999972,17.607788999999]]},"properties":[]},{"type":"Feature","geometry":{"type":"LineString","coordinates":[[6.4059880000016,48.555827999998],[8.4689460000024,60.472024]]},"properties":[]},{"type":"Feature","geometry":{"type":"LineString","coordinates":[[6.4059880000016,48.555827999998],[55.923254999996,21.512583000003]]},"properties":[]},{"type":"Feature","geometry":{"type":"LineString","coordinates":[[6.4059880000016,48.555827999998],[69.345115999996,30.375321000001]]},"properties":[]},{"type":"Feature","geometry":{"type":"LineString","coordinates":[[6.4059880000016,48.555827999998],[-80.782127000004,8.5379810000007]]},"properties":[]},{"type":"Feature","geometry":{"type":"LineString","coordinates":[[6.4059880000016,48.555827999998],[19.145136,51.919437999998]]},"properties":[]},{"type":"Feature","geometry":{"type":"LineString","coordinates":[[6.4059880000016,48.555827999998],[-8.2244540000027,39.399871999999]]},"properties":[]},{"type":"Feature","geometry":{"type":"LineString","coordinates":[[6.4059880000016,48.555827999998],[51.183884,25.354825999999]]},"properties":[]},{"type":"Feature","geometry":{"type":"LineString","coordinates":[[6.4059880000016,48.555827999998],[55.536384000003,-21.115141]]},"properties":[]},{"type":"Feature","geometry":{"type":"LineString","coordinates":[[6.4059880000016,48.555827999998],[24.966760000001,45.943161000003]]},"properties":[]},{"type":"Feature","geometry":{"type":"LineString","coordinates":[[6.4059880000016,48.555827999998],[105.318756,61.52401]]},"properties":[]},{"type":"Feature","geometry":{"type":"LineString","coordinates":[[6.4059880000016,48.555827999998],[45.079161999996,23.885942]]},"properties":[]},{"type":"Feature","geometry":{"type":"LineString","coordinates":[[6.4059880000016,48.555827999998],[-14.452361999999,14.497400999997]]},"properties":[]},{"type":"Feature","geometry":{"type":"LineString","coordinates":[[6.4059880000016,48.555827999998],[21.005858999997,44.016521000002]]},"properties":[]},{"type":"Feature","geometry":{"type":"LineString","coordinates":[[6.4059880000016,48.555827999998],[19.699023999996,48.669026]]},"properties":[]},{"type":"Feature","geometry":{"type":"LineString","coordinates":[[6.4059880000016,48.555827999998],[14.995462999997,46.151240999997]]},"properties":[]},{"type":"Feature","geometry":{"type":"LineString","coordinates":[[6.4059880000016,48.555827999998],[22.937506000003,-30.559481999999]]},"properties":[]},{"type":"Feature","geometry":{"type":"LineString","coordinates":[[6.4059880000016,48.555827999998],[-3.7492200000004,40.463667000002]]},"properties":[]},{"type":"Feature","geometry":{"type":"LineString","coordinates":[[6.4059880000016,48.555827999998],[8.2275120000041,46.818187999999]]},"properties":[]},{"type":"Feature","geometry":{"type":"LineString","coordinates":[[6.4059880000016,48.555827999998],[38.996814999996,34.802074999999]]},"properties":[]},{"type":"Feature","geometry":{"type":"LineString","coordinates":[[6.4059880000016,48.555827999998],[9.5374989999968,33.886917000001]]},"properties":[]},{"type":"Feature","geometry":{"type":"LineString","coordinates":[[6.4059880000016,48.555827999998],[35.243321999997,38.963745000001]]},"properties":[]},{"type":"Feature","geometry":{"type":"LineString","coordinates":[[6.4059880000016,48.555827999998],[31.16558,48.379433000003]]},"properties":[]},{"type":"Feature","geometry":{"type":"LineString","coordinates":[[6.4059880000016,48.555827999998],[53.847818000001,23.424076000003]]},"properties":[]},{"type":"Feature","geometry":{"type":"LineString","coordinates":[[6.4059880000016,48.555827999998],[-3.4359729999961,55.378051000001]]},"properties":[]},{"type":"Feature","geometry":{"type":"LineString","coordinates":[[6.4059880000016,48.555827999998],[-63.616672000003,-38.416096999997]]},"properties":[]},{"type":"Feature","geometry":{"type":"LineString","coordinates":[[6.4059880000016,48.555827999998],[-7.0926199999983,31.791702]]},"properties":[]},{"type":"Feature","geometry":{"type":"LineString","coordinates":[[6.4059880000016,48.555827999998],[-55.765835000003,-32.522779000001]]},"properties":[]},{"type":"Feature","geometry":{"type":"LineString","coordinates":[[5.2192460000015,46.20279],[1.6596259999975,28.033885999997]]},"properties":[]},{"type":"Feature","geometry":{"type":"LineString","coordinates":[[5.2192460000015,46.20279],[17.873887000004,-11.202692000003]]},"properties":[]},{"type":"Feature","geometry":{"type":"LineString","coordinates":[[5.2192460000015,46.20279],[133.775136,-25.274397999999]]},"properties":[]},{"type":"Feature","geometry":{"type":"LineString","coordinates":[[5.2192460000015,46.20279],[14.550071999996,47.516230999997]]},"properties":[]},{"type":"Feature","geometry":{"type":"LineString","coordinates":[[5.2192460000015,46.20279],[47.576927000002,40.143105000001]]},"properties":[]},{"type":"Feature","geometry":{"type":"LineString","coordinates":[[5.2192460000015,46.20279],[27.953388999997,53.709807000002]]},"properties":[]},{"type":"Feature","geometry":{"type":"LineString","coordinates":[[5.2192460000015,46.20279],[4.4699360000043,50.503887000001]]},"properties":[]},{"type":"Feature","geometry":{"type":"LineString","coordinates":[[5.2192460000015,46.20279],[2.3158340000022,9.3076899999976]]},"properties":[]},{"type":"Feature","geometry":{"type":"LineString","coordinates":[[5.2192460000015,46.20279],[-63.588652999998,-16.290154000002]]},"properties":[]},{"type":"Feature","geometry":{"type":"LineString","coordinates":[[5.2192460000015,46.20279],[25.485830000001,42.733883000002]]},"properties":[]},{"type":"Feature","geometry":{"type":"LineString","coordinates":[[5.2192460000015,46.20279],[-1.5615929999969,12.238332999997]]},"properties":[]},{"type":"Feature","geometry":{"type":"LineString","coordinates":[[5.2192460000015,46.20279],[29.918886,-3.3730559999993]]},"properties":[]},{"type":"Feature","geometry":{"type":"LineString","coordinates":[[5.2192460000015,46.20279],[12.354721999996,7.3697219999967]]},"properties":[]},{"type":"Feature","geometry":{"type":"LineString","coordinates":[[5.2192460000015,46.20279],[20.939443999998,6.6111109999958]]},"properties":[]},{"type":"Feature","geometry":{"type":"LineString","coordinates":[[5.2192460000015,46.20279],[18.732206999998,15.454166000003]]},"properties":[]},{"type":"Feature","geometry":{"type":"LineString","coordinates":[[5.2192460000015,46.20279],[-71.542969,-35.675146999998]]},"properties":[]},{"type":"Feature","geometry":{"type":"LineString","coordinates":[[5.2192460000015,46.20279],[-74.297332999997,4.5708679999982]]},"properties":[]},{"type":"Feature","geometry":{"type":"LineString","coordinates":[[5.2192460000015,46.20279],[15.827659000004,-0.22802099999814]]},"properties":[]},{"type":"Feature","geometry":{"type":"LineString","coordinates":[[5.2192460000015,46.20279],[-5.547080000004,7.5399890000007]]},"properties":[]},{"type":"Feature","geometry":{"type":"LineString","coordinates":[[5.2192460000015,46.20279],[15.200000000002,45.100000000003]]},"properties":[]},{"type":"Feature","geometry":{"type":"LineString","coordinates":[[5.2192460000015,46.20279],[-77.781167000004,21.521757]]},"properties":[]},{"type":"Feature","geometry":{"type":"LineString","coordinates":[[5.2192460000015,46.20279],[33.429859000001,35.126413]]},"properties":[]},{"type":"Feature","geometry":{"type":"LineString","coordinates":[[5.2192460000015,46.20279],[15.472962000003,49.817492]]},"properties":[]},{"type":"Feature","geometry":{"type":"LineString","coordinates":[[5.2192460000015,46.20279],[21.758664000001,-4.0383329999964]]},"properties":[]},{"type":"Feature","geometry":{"type":"LineString","coordinates":[[5.2192460000015,46.20279],[9.5017849999985,56.263920000001]]},"properties":[]},{"type":"Feature","geometry":{"type":"LineString","coordinates":[[5.2192460000015,46.20279],[42.590274999996,11.825138]]},"properties":[]},{"type":"Feature","geometry":{"type":"LineString","coordinates":[[5.2192460000015,46.20279],[-78.183406000002,-1.8312390000011]]},"properties":[]},{"type":"Feature","geometry":{"type":"LineString","coordinates":[[5.2192460000015,46.20279],[30.802498000002,26.820553000001]]},"properties":[]},{"type":"Feature","geometry":{"type":"LineString","coordinates":[[5.2192460000015,46.20279],[10.267895000002,1.6508009999994]]},"properties":[]},{"type":"Feature","geometry":{"type":"LineString","coordinates":[[5.2192460000015,46.20279],[25.013606999999,58.595272000001]]},"properties":[]},{"type":"Feature","geometry":{"type":"LineString","coordinates":[[5.2192460000015,46.20279],[40.489672999999,9.1449999999959]]},"properties":[]},{"type":"Feature","geometry":{"type":"LineString","coordinates":[[5.2192460000015,46.20279],[25.748150999997,61.924109999999]]},"properties":[]},{"type":"Feature","geometry":{"type":"LineString","coordinates":[[5.2192460000015,46.20279],[2.2137489999989,46.227638]]},"properties":[]},{"type":"Feature","geometry":{"type":"LineString","coordinates":[[5.2192460000015,46.20279],[-149.406843,-17.679742000001]]},"properties":[]},{"type":"Feature","geometry":{"type":"LineString","coordinates":[[5.2192460000015,46.20279],[11.609444,-0.80368899999725]]},"properties":[]},{"type":"Feature","geometry":{"type":"LineString","coordinates":[[5.2192460000015,46.20279],[10.451526000003,51.165690999999]]},"properties":[]},{"type":"Feature","geometry":{"type":"LineString","coordinates":[[5.2192460000015,46.20279],[-1.0231940000024,7.9465270000027]]},"properties":[]},{"type":"Feature","geometry":{"type":"LineString","coordinates":[[5.2192460000015,46.20279],[-90.230759000004,15.783470999998]]},"properties":[]},{"type":"Feature","geometry":{"type":"LineString","coordinates":[[5.2192460000015,46.20279],[-9.6966449999987,9.9455870000035]]},"properties":[]},{"type":"Feature","geometry":{"type":"LineString","coordinates":[[5.2192460000015,46.20279],[-58.93018,4.8604159999962]]},"properties":[]},{"type":"Feature","geometry":{"type":"LineString","coordinates":[[5.2192460000015,46.20279],[-72.285214999997,18.971187000004]]},"properties":[]},{"type":"Feature","geometry":{"type":"LineString","coordinates":[[5.2192460000015,46.20279],[19.503303999996,47.162493999998]]},"properties":[]},{"type":"Feature","geometry":{"type":"LineString","coordinates":[[5.2192460000015,46.20279],[-19.020835000001,64.963051000002]]},"properties":[]},{"type":"Feature","geometry":{"type":"LineString","coordinates":[[5.2192460000015,46.20279],[113.921327,-0.78927499999687]]},"properties":[]},{"type":"Feature","geometry":{"type":"LineString","coordinates":[[5.2192460000015,46.20279],[43.679290999998,33.223191000003]]},"properties":[]},{"type":"Feature","geometry":{"type":"LineString","coordinates":[[5.2192460000015,46.20279],[-8.2438900000022,53.412910000001]]},"properties":[]},{"type":"Feature","geometry":{"type":"LineString","coordinates":[[5.2192460000015,46.20279],[34.851612000002,31.046051]]},"properties":[]},{"type":"Feature","geometry":{"type":"LineString","coordinates":[[5.2192460000015,46.20279],[12.567380000004,41.871939999999]]},"properties":[]},{"type":"Feature","geometry":{"type":"LineString","coordinates":[[5.2192460000015,46.20279],[66.923684,48.019573000002]]},"properties":[]},{"type":"Feature","geometry":{"type":"LineString","coordinates":[[5.2192460000015,46.20279],[37.906193000004,-0.023558999995522]]},"properties":[]},{"type":"Feature","geometry":{"type":"LineString","coordinates":[[5.2192460000015,46.20279],[47.481765999997,29.311660000002]]},"properties":[]},{"type":"Feature","geometry":{"type":"LineString","coordinates":[[5.2192460000015,46.20279],[24.603189000003,56.879635000001]]},"properties":[]},{"type":"Feature","geometry":{"type":"LineString","coordinates":[[5.2192460000015,46.20279],[35.862284999998,33.854721000002]]},"properties":[]},{"type":"Feature","geometry":{"type":"LineString","coordinates":[[5.2192460000015,46.20279],[-9.4294990000029,6.4280549999963]]},"properties":[]},{"type":"Feature","geometry":{"type":"LineString","coordinates":[[5.2192460000015,46.20279],[17.228331,26.3351]]},"properties":[]},{"type":"Feature","geometry":{"type":"LineString","coordinates":[[5.2192460000015,46.20279],[23.881274999999,55.169437999999]]},"properties":[]},{"type":"Feature","geometry":{"type":"LineString","coordinates":[[5.2192460000015,46.20279],[6.129582999999,49.815273000002]]},"properties":[]},{"type":"Feature","geometry":{"type":"LineString","coordinates":[[5.2192460000015,46.20279],[46.869106999996,-18.766946999998]]},"properties":[]},{"type":"Feature","geometry":{"type":"LineString","coordinates":[[5.2192460000015,46.20279],[-3.9961659999965,17.570691999998]]},"properties":[]},{"type":"Feature","geometry":{"type":"LineString","coordinates":[[5.2192460000015,46.20279],[-61.024173999999,14.641528]]},"properties":[]},{"type":"Feature","geometry":{"type":"LineString","coordinates":[[5.2192460000015,46.20279],[-10.940834999998,21.007889999999]]},"properties":[]},{"type":"Feature","geometry":{"type":"LineString","coordinates":[[5.2192460000015,46.20279],[57.552151999999,-20.348403999997]]},"properties":[]},{"type":"Feature","geometry":{"type":"LineString","coordinates":[[5.2192460000015,46.20279],[45.166244000002,-12.827500000003]]},"properties":[]},{"type":"Feature","geometry":{"type":"LineString","coordinates":[[5.2192460000015,46.20279],[-7.0926199999983,31.791702]]},"properties":[]},{"type":"Feature","geometry":{"type":"LineString","coordinates":[[5.2192460000015,46.20279],[5.2912660000021,52.132633000001]]},"properties":[]},{"type":"Feature","geometry":{"type":"LineString","coordinates":[[5.2192460000015,46.20279],[165.618042,-20.904305000001]]},"properties":[]},{"type":"Feature","geometry":{"type":"LineString","coordinates":[[5.2192460000015,46.20279],[174.885971,-40.900556999999]]},"properties":[]},{"type":"Feature","geometry":{"type":"LineString","coordinates":[[5.2192460000015,46.20279],[8.0816659999972,17.607788999999]]},"properties":[]},{"type":"Feature","geometry":{"type":"LineString","coordinates":[[5.2192460000015,46.20279],[8.6752770000036,9.0819989999966]]},"properties":[]},{"type":"Feature","geometry":{"type":"LineString","coordinates":[[5.2192460000015,46.20279],[8.4689460000024,60.472024]]},"properties":[]},{"type":"Feature","geometry":{"type":"LineString","coordinates":[[5.2192460000015,46.20279],[55.923254999996,21.512583000003]]},"properties":[]},{"type":"Feature","geometry":{"type":"LineString","coordinates":[[5.2192460000015,46.20279],[-80.782127000004,8.5379810000007]]},"properties":[]},{"type":"Feature","geometry":{"type":"LineString","coordinates":[[5.2192460000015,46.20279],[143.95555,-6.3149930000017]]},"properties":[]},{"type":"Feature","geometry":{"type":"LineString","coordinates":[[5.2192460000015,46.20279],[-75.015152,-9.1899670000004]]},"properties":[]},{"type":"Feature","geometry":{"type":"LineString","coordinates":[[5.2192460000015,46.20279],[19.145136,51.919437999998]]},"properties":[]},{"type":"Feature","geometry":{"type":"LineString","coordinates":[[5.2192460000015,46.20279],[-8.2244540000027,39.399871999999]]},"properties":[]},{"type":"Feature","geometry":{"type":"LineString","coordinates":[[5.2192460000015,46.20279],[51.183884,25.354825999999]]},"properties":[]},{"type":"Feature","geometry":{"type":"LineString","coordinates":[[5.2192460000015,46.20279],[55.536384000003,-21.115141]]},"properties":[]},{"type":"Feature","geometry":{"type":"LineString","coordinates":[[5.2192460000015,46.20279],[24.966760000001,45.943161000003]]},"properties":[]},{"type":"Feature","geometry":{"type":"LineString","coordinates":[[5.2192460000015,46.20279],[105.318756,61.52401]]},"properties":[]},{"type":"Feature","geometry":{"type":"LineString","coordinates":[[5.2192460000015,46.20279],[45.079161999996,23.885942]]},"properties":[]},{"type":"Feature","geometry":{"type":"LineString","coordinates":[[5.2192460000015,46.20279],[-14.452361999999,14.497400999997]]},"properties":[]},{"type":"Feature","geometry":{"type":"LineString","coordinates":[[5.2192460000015,46.20279],[21.005858999997,44.016521000002]]},"properties":[]},{"type":"Feature","geometry":{"type":"LineString","coordinates":[[5.2192460000015,46.20279],[19.699023999996,48.669026]]},"properties":[]},{"type":"Feature","geometry":{"type":"LineString","coordinates":[[5.2192460000015,46.20279],[14.995462999997,46.151240999997]]},"properties":[]},{"type":"Feature","geometry":{"type":"LineString","coordinates":[[5.2192460000015,46.20279],[22.937506000003,-30.559481999999]]},"properties":[]},{"type":"Feature","geometry":{"type":"LineString","coordinates":[[5.2192460000015,46.20279],[-3.7492200000004,40.463667000002]]},"properties":[]},{"type":"Feature","geometry":{"type":"LineString","coordinates":[[5.2192460000015,46.20279],[30.217635999996,12.862807000002]]},"properties":[]},{"type":"Feature","geometry":{"type":"LineString","coordinates":[[5.2192460000015,46.20279],[8.2275120000041,46.818187999999]]},"properties":[]},{"type":"Feature","geometry":{"type":"LineString","coordinates":[[5.2192460000015,46.20279],[38.996814999996,34.802074999999]]},"properties":[]},{"type":"Feature","geometry":{"type":"LineString","coordinates":[[5.2192460000015,46.20279],[34.888821999999,-6.3690280000008]]},"properties":[]},{"type":"Feature","geometry":{"type":"LineString","coordinates":[[5.2192460000015,46.20279],[0.82478199999589,8.6195430000029]]},"properties":[]},{"type":"Feature","geometry":{"type":"LineString","coordinates":[[5.2192460000015,46.20279],[-61.222503000003,10.691803000003]]},"properties":[]},{"type":"Feature","geometry":{"type":"LineString","coordinates":[[5.2192460000015,46.20279],[9.5374989999968,33.886917000001]]},"properties":[]},{"type":"Feature","geometry":{"type":"LineString","coordinates":[[5.2192460000015,46.20279],[35.243321999997,38.963745000001]]},"properties":[]},{"type":"Feature","geometry":{"type":"LineString","coordinates":[[5.2192460000015,46.20279],[31.16558,48.379433000003]]},"properties":[]},{"type":"Feature","geometry":{"type":"LineString","coordinates":[[5.2192460000015,46.20279],[53.847818000001,23.424076000003]]},"properties":[]},{"type":"Feature","geometry":{"type":"LineString","coordinates":[[5.2192460000015,46.20279],[-3.4359729999961,55.378051000001]]},"properties":[]},{"type":"Feature","geometry":{"type":"LineString","coordinates":[[5.2192460000015,46.20279],[-55.765835000003,-32.522779000001]]},"properties":[]},{"type":"Feature","geometry":{"type":"LineString","coordinates":[[5.2192460000015,46.20279],[-77.059004200002,38.903799599998]]},"properties":[]},{"type":"Feature","geometry":{"type":"LineString","coordinates":[[5.2192460000015,46.20279],[-55.765835000003,-32.522779000001]]},"properties":[]},{"type":"Feature","geometry":{"type":"LineString","coordinates":[[5.2192460000015,46.20279],[-77.059004200002,38.903799599998]]},"properties":[]},{"type":"Feature","geometry":{"type":"LineString","coordinates":[[5.2192460000015,46.20279],[-63.616672000003,-38.416096999997]]},"properties":[]},{"type":"Feature","geometry":{"type":"LineString","coordinates":[[5.2192460000015,46.20279],[47.0605507,38.473983499998]]},"properties":[]},{"type":"Feature","geometry":{"type":"LineString","coordinates":[[5.2192460000015,46.20279],[-7.0926199999983,31.791702]]},"properties":[]},{"type":"Feature","geometry":{"type":"LineString","coordinates":[[5.2192460000015,46.20279],[22.937506000003,-30.559481999999]]},"properties":[]},{"type":"Feature","geometry":{"type":"LineString","coordinates":[[5.2192460000015,46.20279],[-55.765835000003,-32.522779000001]]},"properties":[]},{"type":"Feature","geometry":{"type":"LineString","coordinates":[[139.5932055,35.977380500002],[-95.712890999999,37.090240000003]]},"properties":[]},{"type":"Feature","geometry":{"type":"LineString","coordinates":[[139.5932055,35.977380500002],[-74.297332999997,4.5708679999982]]},"properties":[]},{"type":"Feature","geometry":{"type":"LineString","coordinates":[[139.5932055,35.977380500002],[-78.183406000002,-1.8312390000011]]},"properties":[]},{"type":"Feature","geometry":{"type":"LineString","coordinates":[[139.5932055,35.977380500002],[-63.588652999998,-16.290154000002]]},"properties":[]},{"type":"Feature","geometry":{"type":"LineString","coordinates":[[139.5932055,35.977380500002],[-2.8821179999988,51.080493999999]]},"properties":[]},{"type":"Feature","geometry":{"type":"LineString","coordinates":[[139.5932055,35.977380500002],[22.937506000003,-30.559481999999]]},"properties":[]},{"type":"Feature","geometry":{"type":"LineString","coordinates":[[139.5932055,35.977380500002],[47.481765999997,29.311660000002]]},"properties":[]},{"type":"Feature","geometry":{"type":"LineString","coordinates":[[139.5932055,35.977380500002],[37.906193000004,-0.023558999995522]]},"properties":[]},{"type":"Feature","geometry":{"type":"LineString","coordinates":[[139.5932055,35.977380500002],[45.079161999996,23.885942]]},"properties":[]},{"type":"Feature","geometry":{"type":"LineString","coordinates":[[139.5932055,35.977380500002],[55.311666699998,25.264444400002]]},"properties":[]},{"type":"Feature","geometry":{"type":"LineString","coordinates":[[139.5932055,35.977380500002],[51.183884,25.354825999999]]},"properties":[]},{"type":"Feature","geometry":{"type":"LineString","coordinates":[[139.5932055,35.977380500002],[40.489672999999,9.1449999999959]]},"properties":[]},{"type":"Feature","geometry":{"type":"LineString","coordinates":[[139.5932055,35.977380500002],[54.366666700003,24.466666700002]]},"properties":[]},{"type":"Feature","geometry":{"type":"LineString","coordinates":[[139.5932055,35.977380500002],[55.923254999996,21.512583000003]]},"properties":[]},{"type":"Feature","geometry":{"type":"LineString","coordinates":[[139.5932055,35.977380500002],[30.217635999996,12.862807000002]]},"properties":[]},{"type":"Feature","geometry":{"type":"LineString","coordinates":[[139.5932055,35.977380500002],[50.637772000001,25.930413999997]]},"properties":[]},{"type":"Feature","geometry":{"type":"LineString","coordinates":[[139.5932055,35.977380500002],[-2.8821179999988,51.080493999999]]},"properties":[]},{"type":"Feature","geometry":{"type":"LineString","coordinates":[[139.5932055,35.977380500002],[138.252924,36.204824000001]]},"properties":[]},{"type":"Feature","geometry":{"type":"LineString","coordinates":[[139.5932055,35.977380500002],[113.921327,-0.78927499999687]]},"properties":[]},{"type":"Feature","geometry":{"type":"LineString","coordinates":[[139.5932055,35.977380500002],[101.975766,4.2104840000023]]},"properties":[]},{"type":"Feature","geometry":{"type":"LineString","coordinates":[[139.5932055,35.977380500002],[104.195397,35.861660000001]]},"properties":[]},{"type":"Feature","geometry":{"type":"LineString","coordinates":[[139.5932055,35.977380500002],[133.775136,-25.274397999999]]},"properties":[]},{"type":"Feature","geometry":{"type":"LineString","coordinates":[[139.5932055,35.977380500002],[120.960515,23.697810000004]]},"properties":[]},{"type":"Feature","geometry":{"type":"LineString","coordinates":[[139.5932055,35.977380500002],[114.109497,22.396428000004]]},"properties":[]},{"type":"Feature","geometry":{"type":"LineString","coordinates":[[139.5932055,35.977380500002],[57.552151999999,-20.348403999997]]},"properties":[]},{"type":"Feature","geometry":{"type":"LineString","coordinates":[[139.5932055,35.977380500002],[174.885971,-40.900556999999]]},"properties":[]},{"type":"Feature","geometry":{"type":"LineString","coordinates":[[139.5932055,35.977380500002],[103.819836,1.3520830000039]]},"properties":[]},{"type":"Feature","geometry":{"type":"LineString","coordinates":[[139.5932055,35.977380500002],[-2.8821179999988,51.080493999999]]},"properties":[]},{"type":"Feature","geometry":{"type":"LineString","coordinates":[[139.5932055,35.977380500002],[-78.183406000002,-1.8312390000011]]},"properties":[]},{"type":"Feature","geometry":{"type":"LineString","coordinates":[[139.5932055,35.977380500002],[22.937506000003,-30.559481999999]]},"properties":[]},{"type":"Feature","geometry":{"type":"LineString","coordinates":[[139.5932055,35.977380500002],[37.906193000004,-0.023558999995522]]},"properties":[]},{"type":"Feature","geometry":{"type":"LineString","coordinates":[[139.5932055,35.977380500002],[113.921327,-0.78927499999687]]},"properties":[]},{"type":"Feature","geometry":{"type":"LineString","coordinates":[[139.5932055,35.977380500002],[101.975766,4.2104840000023]]},"properties":[]},{"type":"Feature","geometry":{"type":"LineString","coordinates":[[139.5932055,35.977380500002],[104.195397,35.861660000001]]},"properties":[]},{"type":"Feature","geometry":{"type":"LineString","coordinates":[[139.5932055,35.977380500002],[120.960515,23.697810000004]]},"properties":[]},{"type":"Feature","geometry":{"type":"LineString","coordinates":[[139.5932055,35.977380500002],[69.345115999996,30.375321000001]]},"properties":[]},{"type":"Feature","geometry":{"type":"LineString","coordinates":[[139.5932055,35.977380500002],[57.552151999999,-20.348403999997]]},"properties":[]},{"type":"Feature","geometry":{"type":"LineString","coordinates":[[139.5932055,35.977380500002],[-2.8821179999988,51.080493999999]]},"properties":[]}],"properties":{"title":"9","description":"","tags":""}}