{"type":"FeatureCollection","features":[{"type":"Feature","geometry":{"type":"Point","coordinates":[-75.679209999998,45.44389]},"properties":{"size":"1.6829238921002","address":"SLOVAK REP","placename":"Slovak Republic Embassy of The, 50 Rideau Terr, Ottawa, ON K1M, Canada","title":"SLOVAK REP   559  Unit  1.7%"}},{"type":"Feature","geometry":{"type":"Point","coordinates":[35.233154,31.952162000002]},"properties":{"size":"0.16257225433526","address":"PALESTINE","placename":"","title":"PALESTINE   54  Unit  0.2%"}},{"type":"Feature","geometry":{"type":"Point","coordinates":[48.516388000001,15.552727]},"properties":{"size":"0.0030105973025048","address":"Yemen","placename":"Yemen","title":"Yemen   1  Unit  0%"}},{"type":"Feature","geometry":{"type":"Point","coordinates":[-3.4359729999961,55.378051000001]},"properties":{"size":"11.494460500963","address":"United Kingdom of Great Britain and Northern Ireland","placename":"United Kingdom","title":"United Kingdom of Great Britain and Northern Ireland   3818  Unit  11.5%"}},{"type":"Feature","geometry":{"type":"Point","coordinates":[53.847818000001,23.424076000003]},"properties":{"size":"0.0030105973025048","address":"United Arab Emirates","placename":"United Arab Emirates","title":"United Arab Emirates   1  Unit  0%"}},{"type":"Feature","geometry":{"type":"Point","coordinates":[31.16558,48.379433000003]},"properties":{"size":"0.42750481695568","address":"Ukraine","placename":"Ukraine","title":"Ukraine   142  Unit  0.4%"}},{"type":"Feature","geometry":{"type":"Point","coordinates":[35.243321999997,38.963745000001]},"properties":{"size":"2.9323217726397","address":"Turkey","placename":"Turkey","title":"Turkey   974  Unit  2.9%"}},{"type":"Feature","geometry":{"type":"Point","coordinates":[8.2275120000041,46.818187999999]},"properties":{"size":"1.1560693641618","address":"Switzerland","placename":"Switzerland","title":"Switzerland   384  Unit  1.2%"}},{"type":"Feature","geometry":{"type":"Point","coordinates":[18.643501000001,60.128160999999]},"properties":{"size":"1.896676300578","address":"Sweden","placename":"Sweden","title":"Sweden   630  Unit  1.9%"}},{"type":"Feature","geometry":{"type":"Point","coordinates":[-3.7492200000004,40.463667000002]},"properties":{"size":"5.933887283237","address":"Spain","placename":"Spain","title":"Spain   1971  Unit  5.9%"}},{"type":"Feature","geometry":{"type":"Point","coordinates":[22.937506000003,-30.559481999999]},"properties":{"size":"0.0060211946050096","address":"South Africa","placename":"South Africa","title":"South Africa   2  Unit  0%"}},{"type":"Feature","geometry":{"type":"Point","coordinates":[14.995462999997,46.151240999997]},"properties":{"size":"0.65028901734104","address":"Slovenia","placename":"Slovenia","title":"Slovenia   216  Unit  0.7%"}},{"type":"Feature","geometry":{"type":"Point","coordinates":[103.819836,1.3520830000039]},"properties":{"size":"0.0060211946050096","address":"Singapore","placename":"Singapore","title":"Singapore   2  Unit  0%"}},{"type":"Feature","geometry":{"type":"Point","coordinates":[21.005858999997,44.016521000002]},"properties":{"size":"0.30407032755299","address":"Serbia","placename":"Serbia","title":"Serbia   101  Unit  0.3%"}},{"type":"Feature","geometry":{"type":"Point","coordinates":[105.318756,61.52401]},"properties":{"size":"3.7030346820809","address":"Russian Federation","placename":"Russian Federation","title":"Russian Federation   1230  Unit  3.7%"}},{"type":"Feature","geometry":{"type":"Point","coordinates":[24.966760000001,45.943161000003]},"properties":{"size":"1.0777938342967","address":"Romania","placename":"Romania","title":"Romania   358  Unit  1.1%"}},{"type":"Feature","geometry":{"type":"Point","coordinates":[51.183884,25.354825999999]},"properties":{"size":"0.0090317919075144","address":"Qatar","placename":"Qatar","title":"Qatar   3  Unit  0%"}},{"type":"Feature","geometry":{"type":"Point","coordinates":[-8.2244540000027,39.399871999999]},"properties":{"size":"1.0597302504817","address":"Portugal","placename":"Portugal","title":"Portugal   352  Unit  1.1%"}},{"type":"Feature","geometry":{"type":"Point","coordinates":[19.145136,51.919437999998]},"properties":{"size":"6.3884874759152","address":"Poland","placename":"Poland","title":"Poland   2122  Unit  6.4%"}},{"type":"Feature","geometry":{"type":"Point","coordinates":[121.774017,12.879720999999]},"properties":{"size":"0.0030105973025048","address":"Philippines","placename":"Philippines","title":"Philippines   1  Unit  0%"}},{"type":"Feature","geometry":{"type":"Point","coordinates":[55.923254999996,21.512583000003]},"properties":{"size":"0.0060211946050096","address":"Oman","placename":"Oman","title":"Oman   2  Unit  0%"}},{"type":"Feature","geometry":{"type":"Point","coordinates":[8.4689460000024,60.472024]},"properties":{"size":"0.46965317919075","address":"Norway","placename":"Norway","title":"Norway   156  Unit  0.5%"}},{"type":"Feature","geometry":{"type":"Point","coordinates":[5.2912660000021,52.132633000001]},"properties":{"size":"6.3132225433526","address":"Netherlands","placename":"The Netherlands","title":"Netherlands   2097  Unit  6.3%"}},{"type":"Feature","geometry":{"type":"Point","coordinates":[19.374389999997,42.708678]},"properties":{"size":"0.012042389210019","address":"Montenegro","placename":"Montenegro","title":"Montenegro   4  Unit  0%"}},{"type":"Feature","geometry":{"type":"Point","coordinates":[-102.552784,23.634501000001]},"properties":{"size":"0.072254335260116","address":"Mexico","placename":"Mexico","title":"Mexico   24  Unit  0.1%"}},{"type":"Feature","geometry":{"type":"Point","coordinates":[21.745275000003,41.608635000001]},"properties":{"size":"0.15956165703276","address":"The former Yugoslav Republic of Macedonia","placename":"Macedonia (FYROM)","title":"The former Yugoslav Republic of Macedonia   53  Unit  0.2%"}},{"type":"Feature","geometry":{"type":"Point","coordinates":[23.881274999999,55.169437999999]},"properties":{"size":"2.1525770712909","address":"Lithuania","placename":"Lithuania","title":"Lithuania   715  Unit  2.2%"}},{"type":"Feature","geometry":{"type":"Point","coordinates":[24.603189000003,56.879635000001]},"properties":{"size":"0.21676300578035","address":"Latvia","placename":"Latvia","title":"Latvia   72  Unit  0.2%"}},{"type":"Feature","geometry":{"type":"Point","coordinates":[66.923684,48.019573000002]},"properties":{"size":"0.24084778420039","address":"Kazakhstan","placename":"Kazakhstan","title":"Kazakhstan   80  Unit  0.2%"}},{"type":"Feature","geometry":{"type":"Point","coordinates":[12.567380000004,41.871939999999]},"properties":{"size":"4.1094653179191","address":"Italy","placename":"Italy","title":"Italy   1365  Unit  4.1%"}},{"type":"Feature","geometry":{"type":"Point","coordinates":[34.851612000002,31.046051]},"properties":{"size":"2.4054672447013","address":"Israel","placename":"Israel","title":"Israel   799  Unit  2.4%"}},{"type":"Feature","geometry":{"type":"Point","coordinates":[43.679290999998,33.223191000003]},"properties":{"size":"0.015052986512524","address":"Iraq","placename":"Iraq","title":"Iraq   5  Unit  0%"}},{"type":"Feature","geometry":{"type":"Point","coordinates":[47.0605507,38.473983499998]},"properties":{"size":"0.0030105973025048","address":"Iran (Islamic Republic of)","placename":"Islamic Republic, Ahar, Iran","title":"Iran (Islamic Republic of)   1  Unit  0%"}},{"type":"Feature","geometry":{"type":"Point","coordinates":[-19.020835000001,64.963051000002]},"properties":{"size":"0.0060211946050096","address":"Iceland","placename":"Iceland","title":"Iceland   2  Unit  0%"}},{"type":"Feature","geometry":{"type":"Point","coordinates":[19.503303999996,47.162493999998]},"properties":{"size":"1.9598988439306","address":"Hungary","placename":"Hungary","title":"Hungary   651  Unit  2%"}},{"type":"Feature","geometry":{"type":"Point","coordinates":[21.824312000004,39.074207999997]},"properties":{"size":"0.033116570327553","address":"Greece","placename":"Greece","title":"Greece   11  Unit  0%"}},{"type":"Feature","geometry":{"type":"Point","coordinates":[10.451526000003,51.165690999999]},"properties":{"size":"13.674132947977","address":"Germany","placename":"Germany","title":"Germany   4542  Unit  13.7%"}},{"type":"Feature","geometry":{"type":"Point","coordinates":[2.2137489999989,46.227638]},"properties":{"size":"16.254214836224","address":"France","placename":"France","title":"France   5399  Unit  16.3%"}},{"type":"Feature","geometry":{"type":"Point","coordinates":[25.748150999997,61.924109999999]},"properties":{"size":"0.36729287090559","address":"Finland","placename":"Finland","title":"Finland   122  Unit  0.4%"}},{"type":"Feature","geometry":{"type":"Point","coordinates":[25.013606999999,58.595272000001]},"properties":{"size":"0.090317919075145","address":"Estonia","placename":"Estonia","title":"Estonia   30  Unit  0.1%"}},{"type":"Feature","geometry":{"type":"Point","coordinates":[30.802498000002,26.820553000001]},"properties":{"size":"0.0030105973025048","address":"Egypt","placename":"Egypt","title":"Egypt   1  Unit  0%"}},{"type":"Feature","geometry":{"type":"Point","coordinates":[9.5017849999985,56.263920000001]},"properties":{"size":"0.83092485549133","address":"Denmark","placename":"Denmark","title":"Denmark   276  Unit  0.8%"}},{"type":"Feature","geometry":{"type":"Point","coordinates":[15.472962000003,49.817492]},"properties":{"size":"2.6312620423892","address":"Czech Republic","placename":"Czech Republic","title":"Czech Republic   874  Unit  2.6%"}},{"type":"Feature","geometry":{"type":"Point","coordinates":[15.200000000002,45.100000000003]},"properties":{"size":"0.21074181117534","address":"Croatia","placename":"Croatia","title":"Croatia   70  Unit  0.2%"}},{"type":"Feature","geometry":{"type":"Point","coordinates":[104.195397,35.861660000001]},"properties":{"size":"0.16257225433526","address":"China","placename":"China","title":"China   54  Unit  0.2%"}},{"type":"Feature","geometry":{"type":"Point","coordinates":[25.485830000001,42.733883000002]},"properties":{"size":"0.34320809248555","address":"Bulgaria","placename":"Bulgaria","title":"Bulgaria   114  Unit  0.3%"}},{"type":"Feature","geometry":{"type":"Point","coordinates":[17.679076000004,43.915885999999]},"properties":{"size":"0.08730732177264","address":"Bosnia and Herzegovina","placename":"Bosnia and Herzegovina","title":"Bosnia and Herzegovina   29  Unit  0.1%"}},{"type":"Feature","geometry":{"type":"Point","coordinates":[4.4699360000043,50.503887000001]},"properties":{"size":"5.325746628131","address":"Belgium","placename":"Belgium","title":"Belgium   1769  Unit  5.3%"}},{"type":"Feature","geometry":{"type":"Point","coordinates":[27.953388999997,53.709807000002]},"properties":{"size":"0.41546242774566","address":"Belarus","placename":"Belarus","title":"Belarus   138  Unit  0.4%"}},{"type":"Feature","geometry":{"type":"Point","coordinates":[50.637772000001,25.930413999997]},"properties":{"size":"0.0060211946050096","address":"Bahrain","placename":"Bahrain","title":"Bahrain   2  Unit  0%"}},{"type":"Feature","geometry":{"type":"Point","coordinates":[47.576927000002,40.143105000001]},"properties":{"size":"0.036127167630058","address":"Azerbaijan","placename":"Azerbaijan","title":"Azerbaijan   12  Unit  0%"}},{"type":"Feature","geometry":{"type":"Point","coordinates":[14.550071999996,47.516230999997]},"properties":{"size":"2.2248314065511","address":"Austria","placename":"Austria","title":"Austria   739  Unit  2.2%"}},{"type":"Feature","geometry":{"type":"Point","coordinates":[133.775136,-25.274397999999]},"properties":{"size":"0.22579479768786","address":"Australia","placename":"Australia","title":"Australia   75  Unit  0.2%"}},{"type":"Feature","geometry":{"type":"Point","coordinates":[17.873887000004,-11.202692000003]},"properties":{"size":"0.015052986512524","address":"Angola","placename":"Angola","title":"Angola   5  Unit  0%"}},{"type":"Feature","geometry":{"type":"Point","coordinates":[1.6596259999975,28.033885999997]},"properties":{"size":"0.021074181117534","address":"Algeria","placename":"Algeria","title":"Algeria   7  Unit  0%"}},{"type":"Feature","geometry":{"type":"Point","coordinates":[133.775136,-25.274397999999]},"properties":{"size":"3.9700255102041","address":"Australia","placename":"Australia","title":"Australia CKD  1245  Unit  4%"}},{"type":"Feature","geometry":{"type":"Point","coordinates":[9.5374989999968,33.886917000001]},"properties":{"size":"0.80357142857143","address":"Tunisia","placename":"Tunisia","title":"Tunisia CKD  252  Unit  0.8%"}},{"type":"Feature","geometry":{"type":"Point","coordinates":[100.992541,15.870032]},"properties":{"size":"3.3960459183673","address":"Thailand","placename":"Thailand","title":"Thailand CKD  1065  Unit  3.4%"}},{"type":"Feature","geometry":{"type":"Point","coordinates":[120.960515,23.697810000004]},"properties":{"size":"1.0586734693878","address":"Taiwan","placename":"Taiwan","title":"Taiwan CKD  332  Unit  1.1%"}},{"type":"Feature","geometry":{"type":"Point","coordinates":[-7.0926199999983,31.791702]},"properties":{"size":"0.92474489795918","address":"Marocco","placename":"Morocco","title":"Marocco CKD  290  Unit  0.9%"}},{"type":"Feature","geometry":{"type":"Point","coordinates":[101.975766,4.2104840000023]},"properties":{"size":"0.90880102040816","address":"Malaysia","placename":"Malaysia","title":"Malaysia CKD  285  Unit  0.9%"}},{"type":"Feature","geometry":{"type":"Point","coordinates":[53.688046000001,32.427908000001]},"properties":{"size":"13.673469387755","address":"Iran","placename":"Iran","title":"Iran CKD  4288  Unit  13.7%"}},{"type":"Feature","geometry":{"type":"Point","coordinates":[45.079161999996,23.885942]},"properties":{"size":"5.2551020408163","address":"Saudi Arabia","placename":"Saudi Arabia","title":"Saudi Arabia CKD  1648  Unit  5.3%"}},{"type":"Feature","geometry":{"type":"Point","coordinates":[22.937506000003,-30.559481999999]},"properties":{"size":"4.5854591836735","address":"South Africa","placename":"South Africa","title":"South Africa CKD  1438  Unit  4.6%"}},{"type":"Feature","geometry":{"type":"Point","coordinates":[78.962879999997,20.593684000004]},"properties":{"size":"1.9642857142857","address":"India","placename":"India","title":"India CKD  616  Unit  2%"}},{"type":"Feature","geometry":{"type":"Point","coordinates":[48.516388000001,15.552727]},"properties":{"size":"0.01594387755102","address":"YEMEN R","placename":"Yemen","title":"YEMEN R   5  Unit  0%"}},{"type":"Feature","geometry":{"type":"Point","coordinates":[31.16558,48.379433000003]},"properties":{"size":"0.27423469387755","address":"UKRAINE","placename":"Ukraine","title":"UKRAINE   86  Unit  0.3%"}},{"type":"Feature","geometry":{"type":"Point","coordinates":[53.847818000001,23.424076000003]},"properties":{"size":"0.97576530612245","address":"UAE","placename":"United Arab Emirates","title":"UAE   306  Unit  1%"}},{"type":"Feature","geometry":{"type":"Point","coordinates":[35.243321999997,38.963745000001]},"properties":{"size":"0.77168367346939","address":"TURKEY","placename":"Turkey","title":"TURKEY   242  Unit  0.8%"}},{"type":"Feature","geometry":{"type":"Point","coordinates":[9.5374989999968,33.886917000001]},"properties":{"size":"0.24234693877551","address":"TUNISIA","placename":"Tunisia","title":"TUNISIA   76  Unit  0.2%"}},{"type":"Feature","geometry":{"type":"Point","coordinates":[100.992541,15.870032]},"properties":{"size":"0.10522959183673","address":"THAILAND","placename":"Thailand","title":"THAILAND   33  Unit  0.1%"}},{"type":"Feature","geometry":{"type":"Point","coordinates":[34.888821999999,-6.3690280000008]},"properties":{"size":"0.012755102040816","address":"TANZANIA","placename":"Tanzania","title":"TANZANIA   4  Unit  0%"}},{"type":"Feature","geometry":{"type":"Point","coordinates":[120.960515,23.697810000004]},"properties":{"size":"0.0031887755102041","address":"TAIWAN","placename":"Taiwan","title":"TAIWAN   1  Unit  0%"}},{"type":"Feature","geometry":{"type":"Point","coordinates":[38.996814999996,34.802074999999]},"properties":{"size":"0.15625","address":"SYRIA","placename":"Syria","title":"SYRIA   49  Unit  0.2%"}},{"type":"Feature","geometry":{"type":"Point","coordinates":[8.2275120000041,46.818187999999]},"properties":{"size":"0.33801020408163","address":"SWITZERLAND","placename":"Switzerland","title":"SWITZERLAND   106  Unit  0.3%"}},{"type":"Feature","geometry":{"type":"Point","coordinates":[18.643501000001,60.128160999999]},"properties":{"size":"6.3073979591837","address":"SWEDEN","placename":"Sweden","title":"SWEDEN   1978  Unit  6.3%"}},{"type":"Feature","geometry":{"type":"Point","coordinates":[30.217635999996,12.862807000002]},"properties":{"size":"0.20408163265306","address":"SUDAN","placename":"Sudan","title":"SUDAN   64  Unit  0.2%"}},{"type":"Feature","geometry":{"type":"Point","coordinates":[-3.7492200000004,40.463667000002]},"properties":{"size":"0.50063775510204","address":"SPAIN","placename":"Spain","title":"SPAIN   157  Unit  0.5%"}},{"type":"Feature","geometry":{"type":"Point","coordinates":[14.995462999997,46.151240999997]},"properties":{"size":"0.21045918367347","address":"SLOVENIA","placename":"Slovenia","title":"SLOVENIA   66  Unit  0.2%"}},{"type":"Feature","geometry":{"type":"Point","coordinates":[-75.679209999998,45.44389]},"properties":{"size":"0.59311224489796","address":"SLOVAK REP","placename":"Slovak Republic Embassy of The, 50 Rideau Terr, Ottawa, ON K1M, Canada","title":"SLOVAK REP   186  Unit  0.6%"}},{"type":"Feature","geometry":{"type":"Point","coordinates":[103.819836,1.3520830000039]},"properties":{"size":"0.29017857142857","address":"SINGAPORE","placename":"Singapore","title":"SINGAPORE   91  Unit  0.3%"}},{"type":"Feature","geometry":{"type":"Point","coordinates":[21.005858999997,44.016521000002]},"properties":{"size":"0.066964285714286","address":"SERBIA","placename":"Serbia","title":"SERBIA   21  Unit  0.1%"}},{"type":"Feature","geometry":{"type":"Point","coordinates":[31.222366099998,30.0976491]},"properties":{"size":"0.4719387755102","address":"SAUDI","placename":"Al Saudi, Warraq Al Arab, Al Warraq, Giza, Egypt","title":"SAUDI   148  Unit  0.5%"}},{"type":"Feature","geometry":{"type":"Point","coordinates":[22.937506000003,-30.559481999999]},"properties":{"size":"0.72385204081633","address":"S.AFRICA","placename":"South Africa","title":"S.AFRICA   227  Unit  0.7%"}},{"type":"Feature","geometry":{"type":"Point","coordinates":[127.766922,35.907756999999]},"properties":{"size":"4.0561224489796","address":"S KOREA","placename":"South Korea","title":"S KOREA   1272  Unit  4.1%"}},{"type":"Feature","geometry":{"type":"Point","coordinates":[105.318756,61.52401]},"properties":{"size":"2.1524234693878","address":"RUSSIA","placename":"Russia","title":"RUSSIA   675  Unit  2.2%"}},{"type":"Feature","geometry":{"type":"Point","coordinates":[24.966760000001,45.943161000003]},"properties":{"size":"0.87372448979592","address":"ROMANIA","placename":"Romania","title":"ROMANIA   274  Unit  0.9%"}},{"type":"Feature","geometry":{"type":"Point","coordinates":[15.827659000004,-0.22802099999814]},"properties":{"size":"0.031887755102041","address":"REP. CONGO","placename":"Congo","title":"REP. CONGO   10  Unit  0%"}},{"type":"Feature","geometry":{"type":"Point","coordinates":[51.183884,25.354825999999]},"properties":{"size":"0.11479591836735","address":"QATAR","placename":"Qatar","title":"QATAR   36  Unit  0.1%"}},{"type":"Feature","geometry":{"type":"Point","coordinates":[-8.2244540000027,39.399871999999]},"properties":{"size":"0.07015306122449","address":"PORTUGAL","placename":"Portugal","title":"PORTUGAL   22  Unit  0.1%"}},{"type":"Feature","geometry":{"type":"Point","coordinates":[19.145136,51.919437999998]},"properties":{"size":"1.5625","address":"POLAND","placename":"Poland","title":"POLAND   490  Unit  1.6%"}},{"type":"Feature","geometry":{"type":"Point","coordinates":[121.774017,12.879720999999]},"properties":{"size":"0.3093112244898","address":"PHILLIPINES","placename":"Philippines","title":"PHILLIPINES   97  Unit  0.3%"}},{"type":"Feature","geometry":{"type":"Point","coordinates":[-75.015152,-9.1899670000004]},"properties":{"size":"3.1186224489796","address":"PERU","placename":"Peru","title":"PERU   978  Unit  3.1%"}},{"type":"Feature","geometry":{"type":"Point","coordinates":[35.233154,31.952162000002]},"properties":{"size":"0.038265306122449","address":"PALESTINE","placename":"","title":"PALESTINE   12  Unit  0%"}},{"type":"Feature","geometry":{"type":"Point","coordinates":[69.345115999996,30.375321000001]},"properties":{"size":"0.012755102040816","address":"PAKISTAN","placename":"Pakistan","title":"PAKISTAN   4  Unit  0%"}},{"type":"Feature","geometry":{"type":"Point","coordinates":[55.923254999996,21.512583000003]},"properties":{"size":"0.55484693877551","address":"OMAN","placename":"Oman","title":"OMAN   174  Unit  0.6%"}},{"type":"Feature","geometry":{"type":"Point","coordinates":[8.4689460000024,60.472024]},"properties":{"size":"3.5522959183673","address":"NORWAY","placename":"Norway","title":"NORWAY   1114  Unit  3.6%"}},{"type":"Feature","geometry":{"type":"Point","coordinates":[5.2912660000021,52.132633000001]},"properties":{"size":"0.97576530612245","address":"NETHERLANDS","placename":"The Netherlands","title":"NETHERLANDS   306  Unit  1%"}},{"type":"Feature","geometry":{"type":"Point","coordinates":[-7.0926199999983,31.791702]},"properties":{"size":"1.218112244898","address":"MOROCCO","placename":"Morocco","title":"MOROCCO   382  Unit  1.2%"}},{"type":"Feature","geometry":{"type":"Point","coordinates":[19.374389999997,42.708678]},"properties":{"size":"0.0063775510204082","address":"MONTENEGRO","placename":"Montenegro","title":"MONTENEGRO   2  Unit  0%"}},{"type":"Feature","geometry":{"type":"Point","coordinates":[28.369885000002,47.411630999998]},"properties":{"size":"0.0095663265306122","address":"MOLDOVA","placename":"Moldova","title":"MOLDOVA   3  Unit  0%"}},{"type":"Feature","geometry":{"type":"Point","coordinates":[101.975766,4.2104840000023]},"properties":{"size":"0.0095663265306122","address":"MALAYSIA","placename":"Malaysia","title":"MALAYSIA   3  Unit  0%"}},{"type":"Feature","geometry":{"type":"Point","coordinates":[21.745275000003,41.608635000001]},"properties":{"size":"0.073341836734694","address":"MACEDONIA","placename":"Macedonia (FYROM)","title":"MACEDONIA   23  Unit  0.1%"}},{"type":"Feature","geometry":{"type":"Point","coordinates":[23.881274999999,55.169437999999]},"properties":{"size":"1.5051020408163","address":"LITHUANIA","placename":"Lithuania","title":"LITHUANIA   472  Unit  1.5%"}},{"type":"Feature","geometry":{"type":"Point","coordinates":[35.862284999998,33.854721000002]},"properties":{"size":"0.022321428571429","address":"LEBANON","placename":"Lebanon","title":"LEBANON   7  Unit  0%"}},{"type":"Feature","geometry":{"type":"Point","coordinates":[24.603189000003,56.879635000001]},"properties":{"size":"1.3807397959184","address":"LATVIA","placename":"Latvia","title":"LATVIA   433  Unit  1.4%"}},{"type":"Feature","geometry":{"type":"Point","coordinates":[47.481765999997,29.311660000002]},"properties":{"size":"0.092474489795918","address":"KUWAIT","placename":"Kuwait","title":"KUWAIT   29  Unit  0.1%"}},{"type":"Feature","geometry":{"type":"Point","coordinates":[37.906193000004,-0.023558999995522]},"properties":{"size":"0.19132653061224","address":"KENYA","placename":"Kenya","title":"KENYA   60  Unit  0.2%"}},{"type":"Feature","geometry":{"type":"Point","coordinates":[66.923684,48.019573000002]},"properties":{"size":"0.0063775510204082","address":"KAZAKHSTAN","placename":"Kazakhstan","title":"KAZAKHSTAN   2  Unit  0%"}},{"type":"Feature","geometry":{"type":"Point","coordinates":[36.238414000001,30.585164000002]},"properties":{"size":"0.012755102040816","address":"JORDAN","placename":"Jordan","title":"JORDAN   4  Unit  0%"}},{"type":"Feature","geometry":{"type":"Point","coordinates":[138.252924,36.204824000001]},"properties":{"size":"0.72704081632653","address":"JAPAN","placename":"Japan","title":"JAPAN   228  Unit  0.7%"}},{"type":"Feature","geometry":{"type":"Point","coordinates":[12.567380000004,41.871939999999]},"properties":{"size":"0.73022959183673","address":"ITALY","placename":"Italy","title":"ITALY   229  Unit  0.7%"}},{"type":"Feature","geometry":{"type":"Point","coordinates":[34.851612000002,31.046051]},"properties":{"size":"0.58992346938776","address":"ISRAEL","placename":"Israel","title":"ISRAEL   185  Unit  0.6%"}},{"type":"Feature","geometry":{"type":"Point","coordinates":[43.679290999998,33.223191000003]},"properties":{"size":"0.13073979591837","address":"IRAQ","placename":"Iraq","title":"IRAQ   41  Unit  0.1%"}},{"type":"Feature","geometry":{"type":"Point","coordinates":[53.688046000001,32.427908000001]},"properties":{"size":"0.0031887755102041","address":"IRAN","placename":"Iran","title":"IRAN   1  Unit  0%"}},{"type":"Feature","geometry":{"type":"Point","coordinates":[113.921327,-0.78927499999687]},"properties":{"size":"2.1747448979592","address":"INDONESIA","placename":"Indonesia","title":"INDONESIA   682  Unit  2.2%"}},{"type":"Feature","geometry":{"type":"Point","coordinates":[78.962879999997,20.593684000004]},"properties":{"size":"0.076530612244898","address":"INDIA","placename":"India","title":"INDIA   24  Unit  0.1%"}},{"type":"Feature","geometry":{"type":"Point","coordinates":[-19.020835000001,64.963051000002]},"properties":{"size":"0.028698979591837","address":"ICELAND","placename":"Iceland","title":"ICELAND   9  Unit  0%"}},{"type":"Feature","geometry":{"type":"Point","coordinates":[19.503303999996,47.162493999998]},"properties":{"size":"0.19770408163265","address":"HUNGARY","placename":"Hungary","title":"HUNGARY   62  Unit  0.2%"}},{"type":"Feature","geometry":{"type":"Point","coordinates":[114.109497,22.396428000004]},"properties":{"size":"0.0063775510204082","address":"HONGKONG","placename":"Hong Kong","title":"HONGKONG   2  Unit  0%"}},{"type":"Feature","geometry":{"type":"Point","coordinates":[21.824312000004,39.074207999997]},"properties":{"size":"0.041454081632653","address":"GREECE","placename":"Greece","title":"GREECE   13  Unit  0%"}},{"type":"Feature","geometry":{"type":"Point","coordinates":[-1.0231940000024,7.9465270000027]},"properties":{"size":"0.044642857142857","address":"GHANA","placename":"Ghana","title":"GHANA   14  Unit  0%"}},{"type":"Feature","geometry":{"type":"Point","coordinates":[10.451526000003,51.165690999999]},"properties":{"size":"2.8316326530612","address":"GERMANY","placename":"Germany","title":"GERMANY   888  Unit  2.8%"}},{"type":"Feature","geometry":{"type":"Point","coordinates":[-3.4359729999961,55.378051000001]},"properties":{"size":"3.3227040816327","address":"G.BRITAIN","placename":"United Kingdom","title":"G.BRITAIN   1042  Unit  3.3%"}},{"type":"Feature","geometry":{"type":"Point","coordinates":[2.2137489999989,46.227638]},"properties":{"size":"2.2161989795918","address":"FRANCE","placename":"France","title":"FRANCE   695  Unit  2.2%"}},{"type":"Feature","geometry":{"type":"Point","coordinates":[25.748150999997,61.924109999999]},"properties":{"size":"2.4043367346939","address":"FINLAND","placename":"Finland","title":"FINLAND   754  Unit  2.4%"}},{"type":"Feature","geometry":{"type":"Point","coordinates":[0,0]},"properties":{"size":"0.019132653061224","address":"EUD PULL PRODUCTION","title":"EUD PULL PRODUCTION   6  Unit  0%"}},{"type":"Feature","geometry":{"type":"Point","coordinates":[40.489672999999,9.1449999999959]},"properties":{"size":"0.67602040816327","address":"ETHIOPIA","placename":"Ethiopia","title":"ETHIOPIA   212  Unit  0.7%"}},{"type":"Feature","geometry":{"type":"Point","coordinates":[25.013606999999,58.595272000001]},"properties":{"size":"0.59630102040816","address":"ESTONIA","placename":"Estonia","title":"ESTONIA   187  Unit  0.6%"}},{"type":"Feature","geometry":{"type":"Point","coordinates":[30.802498000002,26.820553000001]},"properties":{"size":"0.13073979591837","address":"EGYPT","placename":"Egypt","title":"EGYPT   41  Unit  0.1%"}},{"type":"Feature","geometry":{"type":"Point","coordinates":[-78.183406000002,-1.8312390000011]},"properties":{"size":"0.041454081632653","address":"ECUADOR","placename":"Ecuador","title":"ECUADOR   13  Unit  0%"}},{"type":"Feature","geometry":{"type":"Point","coordinates":[0,0]},"properties":{"size":"0.01594387755102","address":"DOM REP","title":"DOM REP   5  Unit  0%"}},{"type":"Feature","geometry":{"type":"Point","coordinates":[9.5017849999985,56.263920000001]},"properties":{"size":"3.1696428571429","address":"DENMARK","placename":"Denmark","title":"DENMARK   994  Unit  3.2%"}},{"type":"Feature","geometry":{"type":"Point","coordinates":[15.472962000003,49.817492]},"properties":{"size":"0.58354591836735","address":"CZECH REP","placename":"Czech Republic","title":"CZECH REP   183  Unit  0.6%"}},{"type":"Feature","geometry":{"type":"Point","coordinates":[15.200000000002,45.100000000003]},"properties":{"size":"0.11160714285714","address":"CROATIA","placename":"Croatia","title":"CROATIA   35  Unit  0.1%"}},{"type":"Feature","geometry":{"type":"Point","coordinates":[15.827659000004,-0.22802099999814]},"properties":{"size":"0.01594387755102","address":"CONGO","placename":"Congo","title":"CONGO   5  Unit  0%"}},{"type":"Feature","geometry":{"type":"Point","coordinates":[-74.297332999997,4.5708679999982]},"properties":{"size":"0.20727040816327","address":"COLOMBIA","placename":"Colombia","title":"COLOMBIA   65  Unit  0.2%"}},{"type":"Feature","geometry":{"type":"Point","coordinates":[104.195397,35.861660000001]},"properties":{"size":"3.4917091836735","address":"CHINA","placename":"China","title":"CHINA   1095  Unit  3.5%"}},{"type":"Feature","geometry":{"type":"Point","coordinates":[-71.542969,-35.675146999998]},"properties":{"size":"1.3871173469388","address":"CHILE","placename":"Chile","title":"CHILE   435  Unit  1.4%"}},{"type":"Feature","geometry":{"type":"Point","coordinates":[25.485830000001,42.733883000002]},"properties":{"size":"0.16581632653061","address":"BULGARIA","placename":"Bulgaria","title":"BULGARIA   52  Unit  0.2%"}},{"type":"Feature","geometry":{"type":"Point","coordinates":[17.679076000004,43.915885999999]},"properties":{"size":"0.0095663265306122","address":"BOSNIA-HERZEGOVINA","placename":"Bosnia and Herzegovina","title":"BOSNIA-HERZEGOVINA   3  Unit  0%"}},{"type":"Feature","geometry":{"type":"Point","coordinates":[4.4699360000043,50.503887000001]},"properties":{"size":"0.92474489795918","address":"BELGIUM","placename":"Belgium","title":"BELGIUM   290  Unit  0.9%"}},{"type":"Feature","geometry":{"type":"Point","coordinates":[27.953388999997,53.709807000002]},"properties":{"size":"0.48469387755102","address":"BELARUS","placename":"Belarus","title":"BELARUS   152  Unit  0.5%"}},{"type":"Feature","geometry":{"type":"Point","coordinates":[90.356330999996,23.684993999998]},"properties":{"size":"0.022321428571429","address":"BANGLADESH","placename":"Bangladesh","title":"BANGLADESH   7  Unit  0%"}},{"type":"Feature","geometry":{"type":"Point","coordinates":[14.550071999996,47.516230999997]},"properties":{"size":"0.32206632653061","address":"AUSTRIA","placename":"Austria","title":"AUSTRIA   101  Unit  0.3%"}},{"type":"Feature","geometry":{"type":"Point","coordinates":[133.775136,-25.274397999999]},"properties":{"size":"0.057397959183673","address":"AUSTRALIA","placename":"Australia","title":"AUSTRALIA   18  Unit  0.1%"}},{"type":"Feature","geometry":{"type":"Point","coordinates":[17.873887000004,-11.202692000003]},"properties":{"size":"1.0267857142857","address":"ANGOLA","placename":"Angola","title":"ANGOLA   322  Unit  1%"}},{"type":"Feature","geometry":{"type":"Point","coordinates":[1.6596259999975,28.033885999997]},"properties":{"size":"0.25829081632653","address":"ALGERIA","placename":"Algeria","title":"ALGERIA   81  Unit  0.3%"}},{"type":"Feature","geometry":{"type":"Point","coordinates":[11.934279999997,57.755900000002]},"properties":{"address":"Tuve,Sweden","placename":"Tuve, Sweden","title":"VT Tuve,Sweden 180.4M 0.5%\/19901 Complete 11459 CKD 27.3%"}},{"type":"Feature","geometry":{"type":"Point","coordinates":[0,0]},"properties":{"size":"0.7843137254902","address":"Private Importers","title":"Private Importers   198  Unit  0.8%"}},{"type":"Feature","geometry":{"type":"Point","coordinates":[-75.015152,-9.1899670000004]},"properties":{"size":"8.0808080808081","address":"Peru","placename":"Peru","title":"Peru   2040  Unit  8.1%"}},{"type":"Feature","geometry":{"type":"Point","coordinates":[-71.542969,-35.675146999998]},"properties":{"size":"4.9871261635968","address":"Chile","placename":"Chile","title":"Chile   1259  Unit  5%"}},{"type":"Feature","geometry":{"type":"Point","coordinates":[-63.616672000003,-38.416096999997]},"properties":{"size":"3.6918201624084","address":"Argentina","placename":"Argentina","title":"Argentina   932  Unit  3.7%"}},{"type":"Feature","geometry":{"type":"Point","coordinates":[-51.925279999999,-14.235004]},"properties":{"size":"82.455931867697","address":"Brazil","placename":"Brazil","title":"Brazil   20816  Unit  82.5%"}},{"type":"Feature","geometry":{"type":"Point","coordinates":[-102.552784,23.634501000001]},"properties":{"size":"2.8800380831482","address":"MEXICO","placename":"Mexico","title":"MEXICO   726  Unit  2.9%"}},{"type":"Feature","geometry":{"type":"Point","coordinates":[-95.712890999999,37.090240000003]},"properties":{"size":"85.310218978102","address":"USA","placename":"United States","title":"USA   21505  Unit  85.3%"}},{"type":"Feature","geometry":{"type":"Point","coordinates":[-106.346771,56.130366000001]},"properties":{"size":"11.80974293875","address":"CANADA","placename":"Canada","title":"CANADA   2977  Unit  11.8%"}},{"type":"Feature","geometry":{"type":"Point","coordinates":[114.109497,22.396428000004]},"properties":{"size":"0.027547199494109","address":"Hong Kong","placename":"Hong Kong","title":"Hong Kong   3853.7M  0%"}},{"type":"Feature","geometry":{"type":"Point","coordinates":[-95.712890999999,37.090240000003]},"properties":{"size":"0.18450925328583","address":"United States of America","placename":"United States","title":"United States of America   25811.6M  0.2%"}},{"type":"Feature","geometry":{"type":"Point","coordinates":[-3.4359729999961,55.378051000001]},"properties":{"size":"1.254599974053","address":"United Kingdom of Great Britain and Northern Ireland","placename":"United Kingdom","title":"United Kingdom of Great Britain and Northern Ireland   175510.4M  1.3%"}},{"type":"Feature","geometry":{"type":"Point","coordinates":[35.243321999997,38.963745000001]},"properties":{"size":"0.018964564837881","address":"Turkey","placename":"Turkey","title":"Turkey   2653M  0%"}},{"type":"Feature","geometry":{"type":"Point","coordinates":[100.992541,15.870032]},"properties":{"size":"0.0031108034997835","address":"Thailand","placename":"Thailand","title":"Thailand   435.2M  0%"}},{"type":"Feature","geometry":{"type":"Point","coordinates":[8.2275120000041,46.818187999999]},"properties":{"size":"0.0038856352562203","address":"Switzerland","placename":"Switzerland","title":"Switzerland   543.6M  0%"}},{"type":"Feature","geometry":{"type":"Point","coordinates":[18.643501000001,60.128160999999]},"properties":{"size":"48.377289560297","address":"Sweden","placename":"Sweden","title":"Sweden   6767668.7M  48.4%"}},{"type":"Feature","geometry":{"type":"Point","coordinates":[-3.7492200000004,40.463667000002]},"properties":{"size":"0.77644982546386","address":"Spain","placename":"Spain","title":"Spain   108620.3M  0.8%"}},{"type":"Feature","geometry":{"type":"Point","coordinates":[22.937506000003,-30.559481999999]},"properties":{"size":"1.638407096782","address":"South Africa","placename":"South Africa","title":"South Africa   229202.5M  1.6%"}},{"type":"Feature","geometry":{"type":"Point","coordinates":[14.995462999997,46.151240999997]},"properties":{"size":"0.027492099119349","address":"Slovenia","placename":"Slovenia","title":"Slovenia   3846M  0%"}},{"type":"Feature","geometry":{"type":"Point","coordinates":[19.699023999996,48.669026]},"properties":{"size":"0.1327035006253","address":"Slovakia","placename":"Slovakia","title":"Slovakia   18564.4M  0.1%"}},{"type":"Feature","geometry":{"type":"Point","coordinates":[24.966760000001,45.943161000003]},"properties":{"size":"0.040729417473973","address":"Romania","placename":"Romania","title":"Romania   5697.8M  0%"}},{"type":"Feature","geometry":{"type":"Point","coordinates":[-8.2244540000027,39.399871999999]},"properties":{"size":"0.10382848670425","address":"Portugal","placename":"Portugal","title":"Portugal   14524.9M  0.1%"}},{"type":"Feature","geometry":{"type":"Point","coordinates":[19.145136,51.919437999998]},"properties":{"size":"0.74241429596922","address":"Poland","placename":"Poland","title":"Poland   103858.9M  0.7%"}},{"type":"Feature","geometry":{"type":"Point","coordinates":[8.4689460000024,60.472024]},"properties":{"size":"0.97497007027972","address":"Norway","placename":"Norway","title":"Norway   136392M  1%"}},{"type":"Feature","geometry":{"type":"Point","coordinates":[5.2912660000021,52.132633000001]},"properties":{"size":"2.265434822381","address":"Netherlands","placename":"The Netherlands","title":"Netherlands   316919.6M  2.3%"}},{"type":"Feature","geometry":{"type":"Point","coordinates":[7.4246158000028,43.738417600001]},"properties":{"size":"0.45170971303854","address":"Monaco","placename":"Monaco","title":"Monaco   63191.3M  0.5%"}},{"type":"Feature","geometry":{"type":"Point","coordinates":[101.975766,4.2104840000023]},"properties":{"size":"0.054608260432999","address":"Malaysia","placename":"Malaysia","title":"Malaysia   7639.3M  0.1%"}},{"type":"Feature","geometry":{"type":"Point","coordinates":[6.129582999999,49.815273000002]},"properties":{"size":"0.17721933099246","address":"Luxembourg","placename":"Luxembourg","title":"Luxembourg   24791.8M  0.2%"}},{"type":"Feature","geometry":{"type":"Point","coordinates":[23.881274999999,55.169437999999]},"properties":{"size":"0.010574099899836","address":"Lithuania","placename":"Lithuania","title":"Lithuania   1479.2M  0%"}},{"type":"Feature","geometry":{"type":"Point","coordinates":[24.603189000003,56.879635000001]},"properties":{"size":"0.0079692699009126","address":"Latvia","placename":"Latvia","title":"Latvia   1114.8M  0%"}},{"type":"Feature","geometry":{"type":"Point","coordinates":[127.766922,35.907756999999]},"properties":{"size":"0.025772422152057","address":"Republic of Korea","placename":"South Korea","title":"Republic of Korea   3605.4M  0%"}},{"type":"Feature","geometry":{"type":"Point","coordinates":[12.567380000004,41.871939999999]},"properties":{"size":"0.67183795511503","address":"Italy","placename":"Italy","title":"Italy   93985.8M  0.7%"}},{"type":"Feature","geometry":{"type":"Point","coordinates":[78.962879999997,20.593684000004]},"properties":{"size":"0.34171652279916","address":"India","placename":"India","title":"India   47803.9M  0.3%"}},{"type":"Feature","geometry":{"type":"Point","coordinates":[19.503303999996,47.162493999998]},"properties":{"size":"0.84087848983198","address":"Hungary","placename":"Hungary","title":"Hungary   117633.4M  0.8%"}},{"type":"Feature","geometry":{"type":"Point","coordinates":[10.451526000003,51.165690999999]},"properties":{"size":"14.015979644013","address":"Germany","placename":"Germany","title":"Germany   1960744.5M  14%"}},{"type":"Feature","geometry":{"type":"Point","coordinates":[2.2137489999989,46.227638]},"properties":{"size":"15.151220576407","address":"France","placename":"France","title":"France   2119557.4M  15.2%"}},{"type":"Feature","geometry":{"type":"Point","coordinates":[25.748150999997,61.924109999999]},"properties":{"size":"0.18147313094753","address":"Finland","placename":"Finland","title":"Finland   25386.9M  0.2%"}},{"type":"Feature","geometry":{"type":"Point","coordinates":[25.013606999999,58.595272000001]},"properties":{"size":"1.2659335455591","address":"Estonia","placename":"Estonia","title":"Estonia   177095.9M  1.3%"}},{"type":"Feature","geometry":{"type":"Point","coordinates":[9.5017849999985,56.263920000001]},"properties":{"size":"0.060249011041573","address":"Denmark","placename":"Denmark","title":"Denmark   8428.4M  0.1%"}},{"type":"Feature","geometry":{"type":"Point","coordinates":[15.472962000003,49.817492]},"properties":{"size":"0.30743199237336","address":"Czech Republic","placename":"Czech Republic","title":"Czech Republic   43007.7M  0.3%"}},{"type":"Feature","geometry":{"type":"Point","coordinates":[104.195397,35.861660000001]},"properties":{"size":"0.064245336822738","address":"China","placename":"China","title":"China   8987.5M  0.1%"}},{"type":"Feature","geometry":{"type":"Point","coordinates":[-106.346771,56.130366000001]},"properties":{"size":"0.0066054899089688","address":"Canada","placename":"Canada","title":"Canada   924.1M  0%"}},{"type":"Feature","geometry":{"type":"Point","coordinates":[-51.925279999999,-14.235004]},"properties":{"size":"0.56530035748711","address":"Brazil","placename":"Brazil","title":"Brazil   79081.8M  0.6%"}},{"type":"Feature","geometry":{"type":"Point","coordinates":[4.4699360000043,50.503887000001]},"properties":{"size":"9.0774548063133","address":"Belgium","placename":"Belgium","title":"Belgium   1269877M  9.1%"}},{"type":"Feature","geometry":{"type":"Point","coordinates":[14.550071999996,47.516230999997]},"properties":{"size":"0.13200586028925","address":"Austria","placename":"Austria","title":"Austria   18466.8M  0.1%"}},{"type":"Feature","geometry":{"type":"Point","coordinates":[133.775136,-25.274397999999]},"properties":{"size":"0.017477579152205","address":"Australia","placename":"Australia","title":"Australia   2445M  0%"}},{"type":"Feature","geometry":{"type":"Point","coordinates":[3.7303799999963,51.053468000003]},"properties":{"size":"0","address":"Ghent","placename":"Gent, Belgium","title":"VT Ghent 13989.4M 36.9%\/33216 Unit 28.9%"}},{"type":"Feature","geometry":{"type":"Point","coordinates":[18.643501000001,60.128160999999]},"properties":{"size":"32.700501919823","address":"Sweden","placename":"Sweden","title":"Sweden   58979.7M  32.7%"}},{"type":"Feature","geometry":{"type":"Point","coordinates":[-3.7492200000004,40.463667000002]},"properties":{"size":"5.9814749638726","address":"Spain","placename":"Spain","title":"Spain   10788.4M  6%"}},{"type":"Feature","geometry":{"type":"Point","coordinates":[174.885971,-40.900556999999]},"properties":{"size":"5.7292331872093","address":"New Zealand","placename":"New Zealand","title":"New Zealand   10333.4M  5.7%"}},{"type":"Feature","geometry":{"type":"Point","coordinates":[10.451526000003,51.165690999999]},"properties":{"size":"18.692109262102","address":"Germany","placename":"Germany","title":"Germany   33713.7M  18.7%"}},{"type":"Feature","geometry":{"type":"Point","coordinates":[2.2137489999989,46.227638]},"properties":{"size":"18.692109262102","address":"France","placename":"France","title":"France   33713.7M  18.7%"}},{"type":"Feature","geometry":{"type":"Point","coordinates":[4.4699360000043,50.503887000001]},"properties":{"size":"18.204571404891","address":"Belgium","placename":"Belgium","title":"Belgium   32834.4M  18.2%"}},{"type":"Feature","geometry":{"type":"Point","coordinates":[18.643501000001,60.128160999999]},"properties":{"size":"0","address":"Sweden","placename":"Sweden","title":"VT Tuve,Sweden 180.4M 0.5%\/19901 Complete 11459 CKD 27.3%"}},{"type":"Feature","geometry":{"type":"Point","coordinates":[6.129582999999,49.815273000002]},"properties":{"size":"0.00028113924711681","address":"Luxembourg","placename":"Luxembourg","title":"Luxembourg   32.3M  0%"}},{"type":"Feature","geometry":{"type":"Point","coordinates":[8.2275120000041,46.818187999999]},"properties":{"size":"0.0027620067416793","address":"Switzerland","placename":"Switzerland","title":"Switzerland   317.3M  0%"}},{"type":"Feature","geometry":{"type":"Point","coordinates":[24.603189000003,56.879635000001]},"properties":{"size":"0.0036615990863836","address":"Latvia","placename":"Latvia","title":"Latvia   420.7M  0%"}},{"type":"Feature","geometry":{"type":"Point","coordinates":[-106.346771,56.130366000001]},"properties":{"size":"0.011693768674939","address":"Canada","placename":"Canada","title":"Canada   1343.5M  0%"}},{"type":"Feature","geometry":{"type":"Point","coordinates":[23.881274999999,55.169437999999]},"properties":{"size":"0.011987287633221","address":"Lithuania","placename":"Lithuania","title":"Lithuania   1377.2M  0%"}},{"type":"Feature","geometry":{"type":"Point","coordinates":[100.992541,15.870032]},"properties":{"size":"0.013428126274695","address":"Thailand","placename":"Thailand","title":"Thailand   1542.7M  0%"}},{"type":"Feature","geometry":{"type":"Point","coordinates":[14.995462999997,46.151240999997]},"properties":{"size":"0.020667994348648","address":"Slovenia","placename":"Slovenia","title":"Slovenia   2374.5M  0%"}},{"type":"Feature","geometry":{"type":"Point","coordinates":[24.966760000001,45.943161000003]},"properties":{"size":"0.030857295329025","address":"Romania","placename":"Romania","title":"Romania   3545.2M  0%"}},{"type":"Feature","geometry":{"type":"Point","coordinates":[127.766922,35.907756999999]},"properties":{"size":"0.032504728720274","address":"South Korea","placename":"South Korea","title":"South Korea   3734.4M  0%"}},{"type":"Feature","geometry":{"type":"Point","coordinates":[22.937506000003,-30.559481999999]},"properties":{"size":"0.036736460096147","address":"South Africa","placename":"South Africa","title":"South Africa   4220.6M  0%"}},{"type":"Feature","geometry":{"type":"Point","coordinates":[19.699023999996,48.669026]},"properties":{"size":"0.043955029742288","address":"Slovak Republic","placename":"Slovakia","title":"Slovak Republic   5050M  0%"}},{"type":"Feature","geometry":{"type":"Point","coordinates":[7.4246158000028,43.738417600001]},"properties":{"size":"0.045919942823108","address":"Monaco","placename":"Monaco","title":"Monaco   5275.7M  0%"}},{"type":"Feature","geometry":{"type":"Point","coordinates":[104.195397,35.861660000001]},"properties":{"size":"0.048013844507363","address":"China","placename":"China","title":"China   5516.3M  0%"}},{"type":"Feature","geometry":{"type":"Point","coordinates":[120.960515,23.697810000004]},"properties":{"size":"0.05340900250246","address":"Taiwan","placename":"Taiwan","title":"Taiwan   6136.1M  0.1%"}},{"type":"Feature","geometry":{"type":"Point","coordinates":[-102.552784,23.634501000001]},"properties":{"size":"0.053593233903033","address":"Mexico","placename":"Mexico","title":"Mexico   6157.3M  0.1%"}},{"type":"Feature","geometry":{"type":"Point","coordinates":[9.5017849999985,56.263920000001]},"properties":{"size":"0.092098927774478","address":"Denmark","placename":"Denmark","title":"Denmark   10581.2M  0.1%"}},{"type":"Feature","geometry":{"type":"Point","coordinates":[25.748150999997,61.924109999999]},"properties":{"size":"0.094489942526709","address":"Finland","placename":"Finland","title":"Finland   10855.9M  0.1%"}},{"type":"Feature","geometry":{"type":"Point","coordinates":[14.550071999996,47.516230999997]},"properties":{"size":"0.12830718686089","address":"Austria","placename":"Austria","title":"Austria   14741.1M  0.1%"}},{"type":"Feature","geometry":{"type":"Point","coordinates":[35.243321999997,38.963745000001]},"properties":{"size":"0.22427484093222","address":"Turkey","placename":"Turkey","title":"Turkey   25766.7M  0.2%"}},{"type":"Feature","geometry":{"type":"Point","coordinates":[25.013606999999,58.595272000001]},"properties":{"size":"0.26686410899107","address":"Estonia","placename":"Estonia","title":"Estonia   30659.8M  0.3%"}},{"type":"Feature","geometry":{"type":"Point","coordinates":[-95.712890999999,37.090240000003]},"properties":{"size":"0.29821086881425","address":"USA","placename":"United States","title":"USA   34261.2M  0.3%"}},{"type":"Feature","geometry":{"type":"Point","coordinates":[15.472962000003,49.817492]},"properties":{"size":"0.34568133718206","address":"Czech Republic","placename":"Czech Republic","title":"Czech Republic   39715M  0.3%"}},{"type":"Feature","geometry":{"type":"Point","coordinates":[-8.2244540000027,39.399871999999]},"properties":{"size":"0.35646566298943","address":"Portugal","placename":"Portugal","title":"Portugal   40954M  0.4%"}},{"type":"Feature","geometry":{"type":"Point","coordinates":[19.503303999996,47.162493999998]},"properties":{"size":"0.40086689479438","address":"Hungary","placename":"Hungary","title":"Hungary   46055.2M  0.4%"}},{"type":"Feature","geometry":{"type":"Point","coordinates":[78.962879999997,20.593684000004]},"properties":{"size":"0.50709027431783","address":"India","placename":"India","title":"India   58259.1M  0.5%"}},{"type":"Feature","geometry":{"type":"Point","coordinates":[-63.616672000003,-38.416096999997]},"properties":{"size":"0.62157225234051","address":"Argentina","placename":"Argentina","title":"Argentina   71411.9M  0.6%"}},{"type":"Feature","geometry":{"type":"Point","coordinates":[12.567380000004,41.871939999999]},"properties":{"size":"0.66138287426095","address":"Italy","placename":"Italy","title":"Italy   75985.7M  0.7%"}},{"type":"Feature","geometry":{"type":"Point","coordinates":[5.2912660000021,52.132633000001]},"properties":{"size":"0.69863928222605","address":"Netherlands","placename":"The Netherlands","title":"Netherlands   80266M  0.7%"}},{"type":"Feature","geometry":{"type":"Point","coordinates":[-3.7492200000004,40.463667000002]},"properties":{"size":"0.72781786209798","address":"Spain","placename":"Spain","title":"Spain   83618.3M  0.7%"}},{"type":"Feature","geometry":{"type":"Point","coordinates":[19.145136,51.919437999998]},"properties":{"size":"0.81517456180497","address":"Poland","placename":"Poland","title":"Poland   93654.7M  0.8%"}},{"type":"Feature","geometry":{"type":"Point","coordinates":[8.4689460000024,60.472024]},"properties":{"size":"1.1156920503512","address":"Norway","placename":"Norway","title":"Norway   128180.8M  1.1%"}},{"type":"Feature","geometry":{"type":"Point","coordinates":[4.4699360000043,50.503887000001]},"properties":{"size":"1.3879232300357","address":"Belgium","placename":"Belgium","title":"Belgium   159457.2M  1.4%"}},{"type":"Feature","geometry":{"type":"Point","coordinates":[-3.4359729999961,55.378051000001]},"properties":{"size":"2.8495020142823","address":"Great Britain","placename":"United Kingdom","title":"Great Britain   327376.7M  2.8%"}},{"type":"Feature","geometry":{"type":"Point","coordinates":[10.451526000003,51.165690999999]},"properties":{"size":"7.2794673089776","address":"Germany","placename":"Germany","title":"Germany   836331.4M  7.3%"}},{"type":"Feature","geometry":{"type":"Point","coordinates":[2.2137489999989,46.227638]},"properties":{"size":"7.6981166604976","address":"France","placename":"France","title":"France   884429.6M  7.7%"}},{"type":"Feature","geometry":{"type":"Point","coordinates":[18.643501000001,60.128160999999]},"properties":{"size":"7.85034366226","address":"Sweden","placename":"Sweden","title":"Sweden   901918.8M  7.9%"}},{"type":"Feature","geometry":{"type":"Point","coordinates":[-51.925279999999,-14.235004]},"properties":{"size":"65.170546736051","address":"Brazil","placename":"Brazil","title":"Brazil   7487384.7M  65.2%"}},{"type":"Feature","geometry":{"type":"Point","coordinates":[-49.273251500001,-25.428356300003]},"properties":{"size":"0","address":"Curitiba, Brazil","placename":"Curitiba - Paran\u00e1, Brazil","title":"VT Curitiba, Brazil 11488.9M 30.3%\/25245 Unit 21.9%"}},{"type":"Feature","geometry":{"type":"Point","coordinates":[-95.712890999999,37.090240000003]},"properties":{"size":"92.09856892095","address":"USA","placename":"United States","title":"USA   11328073.7M  92.1%"}},{"type":"Feature","geometry":{"type":"Point","coordinates":[8.2275120000041,46.818187999999]},"properties":{"size":"0.033150539589983","address":"Switzerland","placename":"Switzerland","title":"Switzerland   4077.5M  0%"}},{"type":"Feature","geometry":{"type":"Point","coordinates":[18.643501000001,60.128160999999]},"properties":{"size":"1.953135157216","address":"Sweden","placename":"Sweden","title":"Sweden   240234.6M  2%"}},{"type":"Feature","geometry":{"type":"Point","coordinates":[-3.7492200000004,40.463667000002]},"properties":{"size":"0.042235938581262","address":"Spain","placename":"Spain","title":"Spain   5195M  0%"}},{"type":"Feature","geometry":{"type":"Point","coordinates":[127.766922,35.907756999999]},"properties":{"size":"0.021065912789235","address":"South Korea","placename":"South Korea","title":"South Korea   2591.1M  0%"}},{"type":"Feature","geometry":{"type":"Point","coordinates":[19.699023999996,48.669026]},"properties":{"size":"0.010881742114426","address":"Slovak Republic","placename":"Slovakia","title":"Slovak Republic   1338.4M  0%"}},{"type":"Feature","geometry":{"type":"Point","coordinates":[24.966760000001,45.943161000003]},"properties":{"size":"0.00010053277573636","address":"Romania","placename":"Romania","title":"Romania   12.4M  0%"}},{"type":"Feature","geometry":{"type":"Point","coordinates":[19.145136,51.919437999998]},"properties":{"size":"0.052414094474616","address":"Poland","placename":"Poland","title":"Poland   6446.9M  0.1%"}},{"type":"Feature","geometry":{"type":"Point","coordinates":[8.4689460000024,60.472024]},"properties":{"size":"2.0049271514374E-5","address":"Norway","placename":"Norway","title":"Norway   2.5M  0%"}},{"type":"Feature","geometry":{"type":"Point","coordinates":[5.2912660000021,52.132633000001]},"properties":{"size":"0.1433218593978","address":"Netherlands","placename":"The Netherlands","title":"Netherlands   17628.5M  0.1%"}},{"type":"Feature","geometry":{"type":"Point","coordinates":[-102.552784,23.634501000001]},"properties":{"size":"2.2391272030829","address":"Mexico","placename":"Mexico","title":"Mexico   275411.4M  2.2%"}},{"type":"Feature","geometry":{"type":"Point","coordinates":[101.975766,4.2104840000023]},"properties":{"size":"0.050335844273069","address":"Malaysia","placename":"Malaysia","title":"Malaysia   6191.3M  0.1%"}},{"type":"Feature","geometry":{"type":"Point","coordinates":[12.567380000004,41.871939999999]},"properties":{"size":"0.10233871386802","address":"Italy","placename":"Italy","title":"Italy   12587.6M  0.1%"}},{"type":"Feature","geometry":{"type":"Point","coordinates":[78.962879999997,20.593684000004]},"properties":{"size":"0.0045624265467191","address":"India","placename":"India","title":"India   561.2M  0%"}},{"type":"Feature","geometry":{"type":"Point","coordinates":[19.503303999996,47.162493999998]},"properties":{"size":"0.044677796642631","address":"Hungary","placename":"Hungary","title":"Hungary   5495.3M  0%"}},{"type":"Feature","geometry":{"type":"Point","coordinates":[-3.4359729999961,55.378051000001]},"properties":{"size":"0.012497856607567","address":"Great Britain","placename":"United Kingdom","title":"Great Britain   1537.2M  0%"}},{"type":"Feature","geometry":{"type":"Point","coordinates":[10.451526000003,51.165690999999]},"properties":{"size":"0.48662768367465","address":"Germany","placename":"Germany","title":"Germany   59854.9M  0.5%"}},{"type":"Feature","geometry":{"type":"Point","coordinates":[2.2137489999989,46.227638]},"properties":{"size":"0.59307921917568","address":"France","placename":"France","title":"France   72948.4M  0.6%"}},{"type":"Feature","geometry":{"type":"Point","coordinates":[25.013606999999,58.595272000001]},"properties":{"size":"0.14951314604598","address":"Estonia","placename":"Estonia","title":"Estonia   18390M  0.1%"}},{"type":"Feature","geometry":{"type":"Point","coordinates":[9.5017849999985,56.263920000001]},"properties":{"size":"0.0031413628235968","address":"Denmark","placename":"Denmark","title":"Denmark   386.4M  0%"}},{"type":"Feature","geometry":{"type":"Point","coordinates":[15.472962000003,49.817492]},"properties":{"size":"0.044921753314236","address":"Czech Republic","placename":"Czech Republic","title":"Czech Republic   5525.4M  0%"}},{"type":"Feature","geometry":{"type":"Point","coordinates":[104.195397,35.861660000001]},"properties":{"size":"0.073760195833264","address":"China","placename":"China","title":"China   9072.5M  0.1%"}},{"type":"Feature","geometry":{"type":"Point","coordinates":[-106.346771,56.130366000001]},"properties":{"size":"1.2811563978726","address":"Canada","placename":"Canada","title":"Canada   157581.5M  1.3%"}},{"type":"Feature","geometry":{"type":"Point","coordinates":[-51.925279999999,-14.235004]},"properties":{"size":"0.4917771242495","address":"Brazil","placename":"Brazil","title":"Brazil   60488.3M  0.5%"}},{"type":"Feature","geometry":{"type":"Point","coordinates":[4.4699360000043,50.503887000001]},"properties":{"size":"0.067548143868159","address":"Belgium","placename":"Belgium","title":"Belgium   8308.4M  0.1%"}},{"type":"Feature","geometry":{"type":"Point","coordinates":[133.775136,-25.274397999999]},"properties":{"size":"4.0384961193239E-5","address":"Australia","placename":"Australia","title":"Australia   5M  0%"}},{"type":"Feature","geometry":{"type":"Point","coordinates":[-80.679961500001,37.137916799999]},"properties":{"size":"0","address":"New River Valley, USA","placename":"New River Valley Airport (PSK), Dublin, VA 24084, USA","title":"VT New River Valley, USA 12299.9M 32.4%\/25208 Unit 21.9%"}},{"type":"Feature","geometry":{"type":"LineString","coordinates":[[133.775136,-25.274397999999],[-80.679961500001,37.137916799999]]},"properties":[]},{"type":"Feature","geometry":{"type":"LineString","coordinates":[[4.4699360000043,50.503887000001],[-80.679961500001,37.137916799999]]},"properties":[]},{"type":"Feature","geometry":{"type":"LineString","coordinates":[[-51.925279999999,-14.235004],[-80.679961500001,37.137916799999]]},"properties":[]},{"type":"Feature","geometry":{"type":"LineString","coordinates":[[-106.346771,56.130366000001],[-80.679961500001,37.137916799999]]},"properties":[]},{"type":"Feature","geometry":{"type":"LineString","coordinates":[[104.195397,35.861660000001],[-80.679961500001,37.137916799999]]},"properties":[]},{"type":"Feature","geometry":{"type":"LineString","coordinates":[[15.472962000003,49.817492],[-80.679961500001,37.137916799999]]},"properties":[]},{"type":"Feature","geometry":{"type":"LineString","coordinates":[[9.5017849999985,56.263920000001],[-80.679961500001,37.137916799999]]},"properties":[]},{"type":"Feature","geometry":{"type":"LineString","coordinates":[[25.013606999999,58.595272000001],[-80.679961500001,37.137916799999]]},"properties":[]},{"type":"Feature","geometry":{"type":"LineString","coordinates":[[2.2137489999989,46.227638],[-80.679961500001,37.137916799999]]},"properties":[]},{"type":"Feature","geometry":{"type":"LineString","coordinates":[[10.451526000003,51.165690999999],[-80.679961500001,37.137916799999]]},"properties":[]},{"type":"Feature","geometry":{"type":"LineString","coordinates":[[-3.4359729999961,55.378051000001],[-80.679961500001,37.137916799999]]},"properties":[]},{"type":"Feature","geometry":{"type":"LineString","coordinates":[[19.503303999996,47.162493999998],[-80.679961500001,37.137916799999]]},"properties":[]},{"type":"Feature","geometry":{"type":"LineString","coordinates":[[78.962879999997,20.593684000004],[-80.679961500001,37.137916799999]]},"properties":[]},{"type":"Feature","geometry":{"type":"LineString","coordinates":[[12.567380000004,41.871939999999],[-80.679961500001,37.137916799999]]},"properties":[]},{"type":"Feature","geometry":{"type":"LineString","coordinates":[[101.975766,4.2104840000023],[-80.679961500001,37.137916799999]]},"properties":[]},{"type":"Feature","geometry":{"type":"LineString","coordinates":[[-102.552784,23.634501000001],[-80.679961500001,37.137916799999]]},"properties":[]},{"type":"Feature","geometry":{"type":"LineString","coordinates":[[5.2912660000021,52.132633000001],[-80.679961500001,37.137916799999]]},"properties":[]},{"type":"Feature","geometry":{"type":"LineString","coordinates":[[8.4689460000024,60.472024],[-80.679961500001,37.137916799999]]},"properties":[]},{"type":"Feature","geometry":{"type":"LineString","coordinates":[[19.145136,51.919437999998],[-80.679961500001,37.137916799999]]},"properties":[]},{"type":"Feature","geometry":{"type":"LineString","coordinates":[[24.966760000001,45.943161000003],[-80.679961500001,37.137916799999]]},"properties":[]},{"type":"Feature","geometry":{"type":"LineString","coordinates":[[19.699023999996,48.669026],[-80.679961500001,37.137916799999]]},"properties":[]},{"type":"Feature","geometry":{"type":"LineString","coordinates":[[127.766922,35.907756999999],[-80.679961500001,37.137916799999]]},"properties":[]},{"type":"Feature","geometry":{"type":"LineString","coordinates":[[-3.7492200000004,40.463667000002],[-80.679961500001,37.137916799999]]},"properties":[]},{"type":"Feature","geometry":{"type":"LineString","coordinates":[[18.643501000001,60.128160999999],[-80.679961500001,37.137916799999]]},"properties":[]},{"type":"Feature","geometry":{"type":"LineString","coordinates":[[8.2275120000041,46.818187999999],[-80.679961500001,37.137916799999]]},"properties":[]},{"type":"Feature","geometry":{"type":"LineString","coordinates":[[-95.712890999999,37.090240000003],[-80.679961500001,37.137916799999]]},"properties":[]},{"type":"Feature","geometry":{"type":"LineString","coordinates":[[-51.925279999999,-14.235004],[-49.273251500001,-25.428356300003]]},"properties":[]},{"type":"Feature","geometry":{"type":"LineString","coordinates":[[18.643501000001,60.128160999999],[-49.273251500001,-25.428356300003]]},"properties":[]},{"type":"Feature","geometry":{"type":"LineString","coordinates":[[2.2137489999989,46.227638],[-49.273251500001,-25.428356300003]]},"properties":[]},{"type":"Feature","geometry":{"type":"LineString","coordinates":[[10.451526000003,51.165690999999],[-49.273251500001,-25.428356300003]]},"properties":[]},{"type":"Feature","geometry":{"type":"LineString","coordinates":[[-3.4359729999961,55.378051000001],[-49.273251500001,-25.428356300003]]},"properties":[]},{"type":"Feature","geometry":{"type":"LineString","coordinates":[[4.4699360000043,50.503887000001],[-49.273251500001,-25.428356300003]]},"properties":[]},{"type":"Feature","geometry":{"type":"LineString","coordinates":[[8.4689460000024,60.472024],[-49.273251500001,-25.428356300003]]},"properties":[]},{"type":"Feature","geometry":{"type":"LineString","coordinates":[[19.145136,51.919437999998],[-49.273251500001,-25.428356300003]]},"properties":[]},{"type":"Feature","geometry":{"type":"LineString","coordinates":[[-3.7492200000004,40.463667000002],[-49.273251500001,-25.428356300003]]},"properties":[]},{"type":"Feature","geometry":{"type":"LineString","coordinates":[[5.2912660000021,52.132633000001],[-49.273251500001,-25.428356300003]]},"properties":[]},{"type":"Feature","geometry":{"type":"LineString","coordinates":[[12.567380000004,41.871939999999],[-49.273251500001,-25.428356300003]]},"properties":[]},{"type":"Feature","geometry":{"type":"LineString","coordinates":[[-63.616672000003,-38.416096999997],[-49.273251500001,-25.428356300003]]},"properties":[]},{"type":"Feature","geometry":{"type":"LineString","coordinates":[[78.962879999997,20.593684000004],[-49.273251500001,-25.428356300003]]},"properties":[]},{"type":"Feature","geometry":{"type":"LineString","coordinates":[[19.503303999996,47.162493999998],[-49.273251500001,-25.428356300003]]},"properties":[]},{"type":"Feature","geometry":{"type":"LineString","coordinates":[[-8.2244540000027,39.399871999999],[-49.273251500001,-25.428356300003]]},"properties":[]},{"type":"Feature","geometry":{"type":"LineString","coordinates":[[15.472962000003,49.817492],[-49.273251500001,-25.428356300003]]},"properties":[]},{"type":"Feature","geometry":{"type":"LineString","coordinates":[[-95.712890999999,37.090240000003],[-49.273251500001,-25.428356300003]]},"properties":[]},{"type":"Feature","geometry":{"type":"LineString","coordinates":[[25.013606999999,58.595272000001],[-49.273251500001,-25.428356300003]]},"properties":[]},{"type":"Feature","geometry":{"type":"LineString","coordinates":[[35.243321999997,38.963745000001],[-49.273251500001,-25.428356300003]]},"properties":[]},{"type":"Feature","geometry":{"type":"LineString","coordinates":[[14.550071999996,47.516230999997],[-49.273251500001,-25.428356300003]]},"properties":[]},{"type":"Feature","geometry":{"type":"LineString","coordinates":[[25.748150999997,61.924109999999],[-49.273251500001,-25.428356300003]]},"properties":[]},{"type":"Feature","geometry":{"type":"LineString","coordinates":[[9.5017849999985,56.263920000001],[-49.273251500001,-25.428356300003]]},"properties":[]},{"type":"Feature","geometry":{"type":"LineString","coordinates":[[-102.552784,23.634501000001],[-49.273251500001,-25.428356300003]]},"properties":[]},{"type":"Feature","geometry":{"type":"LineString","coordinates":[[120.960515,23.697810000004],[-49.273251500001,-25.428356300003]]},"properties":[]},{"type":"Feature","geometry":{"type":"LineString","coordinates":[[104.195397,35.861660000001],[-49.273251500001,-25.428356300003]]},"properties":[]},{"type":"Feature","geometry":{"type":"LineString","coordinates":[[7.4246158000028,43.738417600001],[-49.273251500001,-25.428356300003]]},"properties":[]},{"type":"Feature","geometry":{"type":"LineString","coordinates":[[19.699023999996,48.669026],[-49.273251500001,-25.428356300003]]},"properties":[]},{"type":"Feature","geometry":{"type":"LineString","coordinates":[[22.937506000003,-30.559481999999],[-49.273251500001,-25.428356300003]]},"properties":[]},{"type":"Feature","geometry":{"type":"LineString","coordinates":[[127.766922,35.907756999999],[-49.273251500001,-25.428356300003]]},"properties":[]},{"type":"Feature","geometry":{"type":"LineString","coordinates":[[24.966760000001,45.943161000003],[-49.273251500001,-25.428356300003]]},"properties":[]},{"type":"Feature","geometry":{"type":"LineString","coordinates":[[14.995462999997,46.151240999997],[-49.273251500001,-25.428356300003]]},"properties":[]},{"type":"Feature","geometry":{"type":"LineString","coordinates":[[100.992541,15.870032],[-49.273251500001,-25.428356300003]]},"properties":[]},{"type":"Feature","geometry":{"type":"LineString","coordinates":[[23.881274999999,55.169437999999],[-49.273251500001,-25.428356300003]]},"properties":[]},{"type":"Feature","geometry":{"type":"LineString","coordinates":[[-106.346771,56.130366000001],[-49.273251500001,-25.428356300003]]},"properties":[]},{"type":"Feature","geometry":{"type":"LineString","coordinates":[[24.603189000003,56.879635000001],[-49.273251500001,-25.428356300003]]},"properties":[]},{"type":"Feature","geometry":{"type":"LineString","coordinates":[[8.2275120000041,46.818187999999],[-49.273251500001,-25.428356300003]]},"properties":[]},{"type":"Feature","geometry":{"type":"LineString","coordinates":[[6.129582999999,49.815273000002],[-49.273251500001,-25.428356300003]]},"properties":[]},{"type":"Feature","geometry":{"type":"LineString","coordinates":[[4.4699360000043,50.503887000001],[18.643501000001,60.128160999999]]},"properties":[]},{"type":"Feature","geometry":{"type":"LineString","coordinates":[[2.2137489999989,46.227638],[18.643501000001,60.128160999999]]},"properties":[]},{"type":"Feature","geometry":{"type":"LineString","coordinates":[[10.451526000003,51.165690999999],[18.643501000001,60.128160999999]]},"properties":[]},{"type":"Feature","geometry":{"type":"LineString","coordinates":[[174.885971,-40.900556999999],[18.643501000001,60.128160999999]]},"properties":[]},{"type":"Feature","geometry":{"type":"LineString","coordinates":[[-3.7492200000004,40.463667000002],[18.643501000001,60.128160999999]]},"properties":[]},{"type":"Feature","geometry":{"type":"LineString","coordinates":[[18.643501000001,60.128160999999],[18.643501000001,60.128160999999]]},"properties":[]},{"type":"Feature","geometry":{"type":"LineString","coordinates":[[133.775136,-25.274397999999],[3.7303799999963,51.053468000003]]},"properties":[]},{"type":"Feature","geometry":{"type":"LineString","coordinates":[[14.550071999996,47.516230999997],[3.7303799999963,51.053468000003]]},"properties":[]},{"type":"Feature","geometry":{"type":"LineString","coordinates":[[4.4699360000043,50.503887000001],[3.7303799999963,51.053468000003]]},"properties":[]},{"type":"Feature","geometry":{"type":"LineString","coordinates":[[-51.925279999999,-14.235004],[3.7303799999963,51.053468000003]]},"properties":[]},{"type":"Feature","geometry":{"type":"LineString","coordinates":[[-106.346771,56.130366000001],[3.7303799999963,51.053468000003]]},"properties":[]},{"type":"Feature","geometry":{"type":"LineString","coordinates":[[104.195397,35.861660000001],[3.7303799999963,51.053468000003]]},"properties":[]},{"type":"Feature","geometry":{"type":"LineString","coordinates":[[15.472962000003,49.817492],[3.7303799999963,51.053468000003]]},"properties":[]},{"type":"Feature","geometry":{"type":"LineString","coordinates":[[9.5017849999985,56.263920000001],[3.7303799999963,51.053468000003]]},"properties":[]},{"type":"Feature","geometry":{"type":"LineString","coordinates":[[25.013606999999,58.595272000001],[3.7303799999963,51.053468000003]]},"properties":[]},{"type":"Feature","geometry":{"type":"LineString","coordinates":[[25.748150999997,61.924109999999],[3.7303799999963,51.053468000003]]},"properties":[]},{"type":"Feature","geometry":{"type":"LineString","coordinates":[[2.2137489999989,46.227638],[3.7303799999963,51.053468000003]]},"properties":[]},{"type":"Feature","geometry":{"type":"LineString","coordinates":[[10.451526000003,51.165690999999],[3.7303799999963,51.053468000003]]},"properties":[]},{"type":"Feature","geometry":{"type":"LineString","coordinates":[[19.503303999996,47.162493999998],[3.7303799999963,51.053468000003]]},"properties":[]},{"type":"Feature","geometry":{"type":"LineString","coordinates":[[78.962879999997,20.593684000004],[3.7303799999963,51.053468000003]]},"properties":[]},{"type":"Feature","geometry":{"type":"LineString","coordinates":[[12.567380000004,41.871939999999],[3.7303799999963,51.053468000003]]},"properties":[]},{"type":"Feature","geometry":{"type":"LineString","coordinates":[[127.766922,35.907756999999],[3.7303799999963,51.053468000003]]},"properties":[]},{"type":"Feature","geometry":{"type":"LineString","coordinates":[[24.603189000003,56.879635000001],[3.7303799999963,51.053468000003]]},"properties":[]},{"type":"Feature","geometry":{"type":"LineString","coordinates":[[23.881274999999,55.169437999999],[3.7303799999963,51.053468000003]]},"properties":[]},{"type":"Feature","geometry":{"type":"LineString","coordinates":[[6.129582999999,49.815273000002],[3.7303799999963,51.053468000003]]},"properties":[]},{"type":"Feature","geometry":{"type":"LineString","coordinates":[[101.975766,4.2104840000023],[3.7303799999963,51.053468000003]]},"properties":[]},{"type":"Feature","geometry":{"type":"LineString","coordinates":[[7.4246158000028,43.738417600001],[3.7303799999963,51.053468000003]]},"properties":[]},{"type":"Feature","geometry":{"type":"LineString","coordinates":[[5.2912660000021,52.132633000001],[3.7303799999963,51.053468000003]]},"properties":[]},{"type":"Feature","geometry":{"type":"LineString","coordinates":[[8.4689460000024,60.472024],[3.7303799999963,51.053468000003]]},"properties":[]},{"type":"Feature","geometry":{"type":"LineString","coordinates":[[19.145136,51.919437999998],[3.7303799999963,51.053468000003]]},"properties":[]},{"type":"Feature","geometry":{"type":"LineString","coordinates":[[-8.2244540000027,39.399871999999],[3.7303799999963,51.053468000003]]},"properties":[]},{"type":"Feature","geometry":{"type":"LineString","coordinates":[[24.966760000001,45.943161000003],[3.7303799999963,51.053468000003]]},"properties":[]},{"type":"Feature","geometry":{"type":"LineString","coordinates":[[19.699023999996,48.669026],[3.7303799999963,51.053468000003]]},"properties":[]},{"type":"Feature","geometry":{"type":"LineString","coordinates":[[14.995462999997,46.151240999997],[3.7303799999963,51.053468000003]]},"properties":[]},{"type":"Feature","geometry":{"type":"LineString","coordinates":[[22.937506000003,-30.559481999999],[3.7303799999963,51.053468000003]]},"properties":[]},{"type":"Feature","geometry":{"type":"LineString","coordinates":[[-3.7492200000004,40.463667000002],[3.7303799999963,51.053468000003]]},"properties":[]},{"type":"Feature","geometry":{"type":"LineString","coordinates":[[18.643501000001,60.128160999999],[3.7303799999963,51.053468000003]]},"properties":[]},{"type":"Feature","geometry":{"type":"LineString","coordinates":[[8.2275120000041,46.818187999999],[3.7303799999963,51.053468000003]]},"properties":[]},{"type":"Feature","geometry":{"type":"LineString","coordinates":[[100.992541,15.870032],[3.7303799999963,51.053468000003]]},"properties":[]},{"type":"Feature","geometry":{"type":"LineString","coordinates":[[35.243321999997,38.963745000001],[3.7303799999963,51.053468000003]]},"properties":[]},{"type":"Feature","geometry":{"type":"LineString","coordinates":[[-3.4359729999961,55.378051000001],[3.7303799999963,51.053468000003]]},"properties":[]},{"type":"Feature","geometry":{"type":"LineString","coordinates":[[-95.712890999999,37.090240000003],[3.7303799999963,51.053468000003]]},"properties":[]},{"type":"Feature","geometry":{"type":"LineString","coordinates":[[114.109497,22.396428000004],[3.7303799999963,51.053468000003]]},"properties":[]},{"type":"Feature","geometry":{"type":"LineString","coordinates":[[-80.679961500001,37.137916799999],[-106.346771,56.130366000001]]},"properties":[]},{"type":"Feature","geometry":{"type":"LineString","coordinates":[[-80.679961500001,37.137916799999],[-95.712890999999,37.090240000003]]},"properties":[]},{"type":"Feature","geometry":{"type":"LineString","coordinates":[[-80.679961500001,37.137916799999],[-102.552784,23.634501000001]]},"properties":[]},{"type":"Feature","geometry":{"type":"LineString","coordinates":[[-49.273251500001,-25.428356300003],[-51.925279999999,-14.235004]]},"properties":[]},{"type":"Feature","geometry":{"type":"LineString","coordinates":[[-49.273251500001,-25.428356300003],[-63.616672000003,-38.416096999997]]},"properties":[]},{"type":"Feature","geometry":{"type":"LineString","coordinates":[[-49.273251500001,-25.428356300003],[-71.542969,-35.675146999998]]},"properties":[]},{"type":"Feature","geometry":{"type":"LineString","coordinates":[[-49.273251500001,-25.428356300003],[-75.015152,-9.1899670000004]]},"properties":[]},{"type":"Feature","geometry":{"type":"LineString","coordinates":[[-49.273251500001,-25.428356300003],[0,0]]},"properties":[]},{"type":"Feature","geometry":{"type":"LineString","coordinates":[[11.934279999997,57.755900000002],[1.6596259999975,28.033885999997]]},"properties":[]},{"type":"Feature","geometry":{"type":"LineString","coordinates":[[11.934279999997,57.755900000002],[17.873887000004,-11.202692000003]]},"properties":[]},{"type":"Feature","geometry":{"type":"LineString","coordinates":[[11.934279999997,57.755900000002],[133.775136,-25.274397999999]]},"properties":[]},{"type":"Feature","geometry":{"type":"LineString","coordinates":[[11.934279999997,57.755900000002],[14.550071999996,47.516230999997]]},"properties":[]},{"type":"Feature","geometry":{"type":"LineString","coordinates":[[11.934279999997,57.755900000002],[90.356330999996,23.684993999998]]},"properties":[]},{"type":"Feature","geometry":{"type":"LineString","coordinates":[[11.934279999997,57.755900000002],[27.953388999997,53.709807000002]]},"properties":[]},{"type":"Feature","geometry":{"type":"LineString","coordinates":[[11.934279999997,57.755900000002],[4.4699360000043,50.503887000001]]},"properties":[]},{"type":"Feature","geometry":{"type":"LineString","coordinates":[[11.934279999997,57.755900000002],[17.679076000004,43.915885999999]]},"properties":[]},{"type":"Feature","geometry":{"type":"LineString","coordinates":[[11.934279999997,57.755900000002],[25.485830000001,42.733883000002]]},"properties":[]},{"type":"Feature","geometry":{"type":"LineString","coordinates":[[11.934279999997,57.755900000002],[-71.542969,-35.675146999998]]},"properties":[]},{"type":"Feature","geometry":{"type":"LineString","coordinates":[[11.934279999997,57.755900000002],[104.195397,35.861660000001]]},"properties":[]},{"type":"Feature","geometry":{"type":"LineString","coordinates":[[11.934279999997,57.755900000002],[-74.297332999997,4.5708679999982]]},"properties":[]},{"type":"Feature","geometry":{"type":"LineString","coordinates":[[11.934279999997,57.755900000002],[15.827659000004,-0.22802099999814]]},"properties":[]},{"type":"Feature","geometry":{"type":"LineString","coordinates":[[11.934279999997,57.755900000002],[15.200000000002,45.100000000003]]},"properties":[]},{"type":"Feature","geometry":{"type":"LineString","coordinates":[[11.934279999997,57.755900000002],[15.472962000003,49.817492]]},"properties":[]},{"type":"Feature","geometry":{"type":"LineString","coordinates":[[11.934279999997,57.755900000002],[9.5017849999985,56.263920000001]]},"properties":[]},{"type":"Feature","geometry":{"type":"LineString","coordinates":[[11.934279999997,57.755900000002],[0,0]]},"properties":[]},{"type":"Feature","geometry":{"type":"LineString","coordinates":[[11.934279999997,57.755900000002],[-78.183406000002,-1.8312390000011]]},"properties":[]},{"type":"Feature","geometry":{"type":"LineString","coordinates":[[11.934279999997,57.755900000002],[30.802498000002,26.820553000001]]},"properties":[]},{"type":"Feature","geometry":{"type":"LineString","coordinates":[[11.934279999997,57.755900000002],[25.013606999999,58.595272000001]]},"properties":[]},{"type":"Feature","geometry":{"type":"LineString","coordinates":[[11.934279999997,57.755900000002],[40.489672999999,9.1449999999959]]},"properties":[]},{"type":"Feature","geometry":{"type":"LineString","coordinates":[[11.934279999997,57.755900000002],[0,0]]},"properties":[]},{"type":"Feature","geometry":{"type":"LineString","coordinates":[[11.934279999997,57.755900000002],[25.748150999997,61.924109999999]]},"properties":[]},{"type":"Feature","geometry":{"type":"LineString","coordinates":[[11.934279999997,57.755900000002],[2.2137489999989,46.227638]]},"properties":[]},{"type":"Feature","geometry":{"type":"LineString","coordinates":[[11.934279999997,57.755900000002],[-3.4359729999961,55.378051000001]]},"properties":[]},{"type":"Feature","geometry":{"type":"LineString","coordinates":[[11.934279999997,57.755900000002],[10.451526000003,51.165690999999]]},"properties":[]},{"type":"Feature","geometry":{"type":"LineString","coordinates":[[11.934279999997,57.755900000002],[-1.0231940000024,7.9465270000027]]},"properties":[]},{"type":"Feature","geometry":{"type":"LineString","coordinates":[[11.934279999997,57.755900000002],[21.824312000004,39.074207999997]]},"properties":[]},{"type":"Feature","geometry":{"type":"LineString","coordinates":[[11.934279999997,57.755900000002],[114.109497,22.396428000004]]},"properties":[]},{"type":"Feature","geometry":{"type":"LineString","coordinates":[[11.934279999997,57.755900000002],[19.503303999996,47.162493999998]]},"properties":[]},{"type":"Feature","geometry":{"type":"LineString","coordinates":[[11.934279999997,57.755900000002],[-19.020835000001,64.963051000002]]},"properties":[]},{"type":"Feature","geometry":{"type":"LineString","coordinates":[[11.934279999997,57.755900000002],[78.962879999997,20.593684000004]]},"properties":[]},{"type":"Feature","geometry":{"type":"LineString","coordinates":[[11.934279999997,57.755900000002],[113.921327,-0.78927499999687]]},"properties":[]},{"type":"Feature","geometry":{"type":"LineString","coordinates":[[11.934279999997,57.755900000002],[53.688046000001,32.427908000001]]},"properties":[]},{"type":"Feature","geometry":{"type":"LineString","coordinates":[[11.934279999997,57.755900000002],[43.679290999998,33.223191000003]]},"properties":[]},{"type":"Feature","geometry":{"type":"LineString","coordinates":[[11.934279999997,57.755900000002],[34.851612000002,31.046051]]},"properties":[]},{"type":"Feature","geometry":{"type":"LineString","coordinates":[[11.934279999997,57.755900000002],[12.567380000004,41.871939999999]]},"properties":[]},{"type":"Feature","geometry":{"type":"LineString","coordinates":[[11.934279999997,57.755900000002],[138.252924,36.204824000001]]},"properties":[]},{"type":"Feature","geometry":{"type":"LineString","coordinates":[[11.934279999997,57.755900000002],[36.238414000001,30.585164000002]]},"properties":[]},{"type":"Feature","geometry":{"type":"LineString","coordinates":[[11.934279999997,57.755900000002],[66.923684,48.019573000002]]},"properties":[]},{"type":"Feature","geometry":{"type":"LineString","coordinates":[[11.934279999997,57.755900000002],[37.906193000004,-0.023558999995522]]},"properties":[]},{"type":"Feature","geometry":{"type":"LineString","coordinates":[[11.934279999997,57.755900000002],[47.481765999997,29.311660000002]]},"properties":[]},{"type":"Feature","geometry":{"type":"LineString","coordinates":[[11.934279999997,57.755900000002],[24.603189000003,56.879635000001]]},"properties":[]},{"type":"Feature","geometry":{"type":"LineString","coordinates":[[11.934279999997,57.755900000002],[35.862284999998,33.854721000002]]},"properties":[]},{"type":"Feature","geometry":{"type":"LineString","coordinates":[[11.934279999997,57.755900000002],[23.881274999999,55.169437999999]]},"properties":[]},{"type":"Feature","geometry":{"type":"LineString","coordinates":[[11.934279999997,57.755900000002],[21.745275000003,41.608635000001]]},"properties":[]},{"type":"Feature","geometry":{"type":"LineString","coordinates":[[11.934279999997,57.755900000002],[101.975766,4.2104840000023]]},"properties":[]},{"type":"Feature","geometry":{"type":"LineString","coordinates":[[11.934279999997,57.755900000002],[28.369885000002,47.411630999998]]},"properties":[]},{"type":"Feature","geometry":{"type":"LineString","coordinates":[[11.934279999997,57.755900000002],[19.374389999997,42.708678]]},"properties":[]},{"type":"Feature","geometry":{"type":"LineString","coordinates":[[11.934279999997,57.755900000002],[-7.0926199999983,31.791702]]},"properties":[]},{"type":"Feature","geometry":{"type":"LineString","coordinates":[[11.934279999997,57.755900000002],[5.2912660000021,52.132633000001]]},"properties":[]},{"type":"Feature","geometry":{"type":"LineString","coordinates":[[11.934279999997,57.755900000002],[8.4689460000024,60.472024]]},"properties":[]},{"type":"Feature","geometry":{"type":"LineString","coordinates":[[11.934279999997,57.755900000002],[55.923254999996,21.512583000003]]},"properties":[]},{"type":"Feature","geometry":{"type":"LineString","coordinates":[[11.934279999997,57.755900000002],[69.345115999996,30.375321000001]]},"properties":[]},{"type":"Feature","geometry":{"type":"LineString","coordinates":[[11.934279999997,57.755900000002],[35.233154,31.952162000002]]},"properties":[]},{"type":"Feature","geometry":{"type":"LineString","coordinates":[[11.934279999997,57.755900000002],[-75.015152,-9.1899670000004]]},"properties":[]},{"type":"Feature","geometry":{"type":"LineString","coordinates":[[11.934279999997,57.755900000002],[121.774017,12.879720999999]]},"properties":[]},{"type":"Feature","geometry":{"type":"LineString","coordinates":[[11.934279999997,57.755900000002],[19.145136,51.919437999998]]},"properties":[]},{"type":"Feature","geometry":{"type":"LineString","coordinates":[[11.934279999997,57.755900000002],[-8.2244540000027,39.399871999999]]},"properties":[]},{"type":"Feature","geometry":{"type":"LineString","coordinates":[[11.934279999997,57.755900000002],[51.183884,25.354825999999]]},"properties":[]},{"type":"Feature","geometry":{"type":"LineString","coordinates":[[11.934279999997,57.755900000002],[15.827659000004,-0.22802099999814]]},"properties":[]},{"type":"Feature","geometry":{"type":"LineString","coordinates":[[11.934279999997,57.755900000002],[24.966760000001,45.943161000003]]},"properties":[]},{"type":"Feature","geometry":{"type":"LineString","coordinates":[[11.934279999997,57.755900000002],[105.318756,61.52401]]},"properties":[]},{"type":"Feature","geometry":{"type":"LineString","coordinates":[[11.934279999997,57.755900000002],[127.766922,35.907756999999]]},"properties":[]},{"type":"Feature","geometry":{"type":"LineString","coordinates":[[11.934279999997,57.755900000002],[22.937506000003,-30.559481999999]]},"properties":[]},{"type":"Feature","geometry":{"type":"LineString","coordinates":[[11.934279999997,57.755900000002],[31.222366099998,30.0976491]]},"properties":[]},{"type":"Feature","geometry":{"type":"LineString","coordinates":[[11.934279999997,57.755900000002],[21.005858999997,44.016521000002]]},"properties":[]},{"type":"Feature","geometry":{"type":"LineString","coordinates":[[11.934279999997,57.755900000002],[103.819836,1.3520830000039]]},"properties":[]},{"type":"Feature","geometry":{"type":"LineString","coordinates":[[11.934279999997,57.755900000002],[-75.679209999998,45.44389]]},"properties":[]},{"type":"Feature","geometry":{"type":"LineString","coordinates":[[11.934279999997,57.755900000002],[14.995462999997,46.151240999997]]},"properties":[]},{"type":"Feature","geometry":{"type":"LineString","coordinates":[[11.934279999997,57.755900000002],[-3.7492200000004,40.463667000002]]},"properties":[]},{"type":"Feature","geometry":{"type":"LineString","coordinates":[[11.934279999997,57.755900000002],[30.217635999996,12.862807000002]]},"properties":[]},{"type":"Feature","geometry":{"type":"LineString","coordinates":[[11.934279999997,57.755900000002],[18.643501000001,60.128160999999]]},"properties":[]},{"type":"Feature","geometry":{"type":"LineString","coordinates":[[11.934279999997,57.755900000002],[8.2275120000041,46.818187999999]]},"properties":[]},{"type":"Feature","geometry":{"type":"LineString","coordinates":[[11.934279999997,57.755900000002],[38.996814999996,34.802074999999]]},"properties":[]},{"type":"Feature","geometry":{"type":"LineString","coordinates":[[11.934279999997,57.755900000002],[120.960515,23.697810000004]]},"properties":[]},{"type":"Feature","geometry":{"type":"LineString","coordinates":[[11.934279999997,57.755900000002],[34.888821999999,-6.3690280000008]]},"properties":[]},{"type":"Feature","geometry":{"type":"LineString","coordinates":[[11.934279999997,57.755900000002],[100.992541,15.870032]]},"properties":[]},{"type":"Feature","geometry":{"type":"LineString","coordinates":[[11.934279999997,57.755900000002],[9.5374989999968,33.886917000001]]},"properties":[]},{"type":"Feature","geometry":{"type":"LineString","coordinates":[[11.934279999997,57.755900000002],[35.243321999997,38.963745000001]]},"properties":[]},{"type":"Feature","geometry":{"type":"LineString","coordinates":[[11.934279999997,57.755900000002],[53.847818000001,23.424076000003]]},"properties":[]},{"type":"Feature","geometry":{"type":"LineString","coordinates":[[11.934279999997,57.755900000002],[31.16558,48.379433000003]]},"properties":[]},{"type":"Feature","geometry":{"type":"LineString","coordinates":[[11.934279999997,57.755900000002],[48.516388000001,15.552727]]},"properties":[]},{"type":"Feature","geometry":{"type":"LineString","coordinates":[[11.934279999997,57.755900000002],[78.962879999997,20.593684000004]]},"properties":[]},{"type":"Feature","geometry":{"type":"LineString","coordinates":[[11.934279999997,57.755900000002],[22.937506000003,-30.559481999999]]},"properties":[]},{"type":"Feature","geometry":{"type":"LineString","coordinates":[[11.934279999997,57.755900000002],[45.079161999996,23.885942]]},"properties":[]},{"type":"Feature","geometry":{"type":"LineString","coordinates":[[11.934279999997,57.755900000002],[53.688046000001,32.427908000001]]},"properties":[]},{"type":"Feature","geometry":{"type":"LineString","coordinates":[[11.934279999997,57.755900000002],[101.975766,4.2104840000023]]},"properties":[]},{"type":"Feature","geometry":{"type":"LineString","coordinates":[[11.934279999997,57.755900000002],[-7.0926199999983,31.791702]]},"properties":[]},{"type":"Feature","geometry":{"type":"LineString","coordinates":[[11.934279999997,57.755900000002],[120.960515,23.697810000004]]},"properties":[]},{"type":"Feature","geometry":{"type":"LineString","coordinates":[[11.934279999997,57.755900000002],[100.992541,15.870032]]},"properties":[]},{"type":"Feature","geometry":{"type":"LineString","coordinates":[[11.934279999997,57.755900000002],[9.5374989999968,33.886917000001]]},"properties":[]},{"type":"Feature","geometry":{"type":"LineString","coordinates":[[11.934279999997,57.755900000002],[133.775136,-25.274397999999]]},"properties":[]},{"type":"Feature","geometry":{"type":"LineString","coordinates":[[3.7303799999963,51.053468000003],[1.6596259999975,28.033885999997]]},"properties":[]},{"type":"Feature","geometry":{"type":"LineString","coordinates":[[3.7303799999963,51.053468000003],[17.873887000004,-11.202692000003]]},"properties":[]},{"type":"Feature","geometry":{"type":"LineString","coordinates":[[3.7303799999963,51.053468000003],[133.775136,-25.274397999999]]},"properties":[]},{"type":"Feature","geometry":{"type":"LineString","coordinates":[[3.7303799999963,51.053468000003],[14.550071999996,47.516230999997]]},"properties":[]},{"type":"Feature","geometry":{"type":"LineString","coordinates":[[3.7303799999963,51.053468000003],[47.576927000002,40.143105000001]]},"properties":[]},{"type":"Feature","geometry":{"type":"LineString","coordinates":[[3.7303799999963,51.053468000003],[50.637772000001,25.930413999997]]},"properties":[]},{"type":"Feature","geometry":{"type":"LineString","coordinates":[[3.7303799999963,51.053468000003],[27.953388999997,53.709807000002]]},"properties":[]},{"type":"Feature","geometry":{"type":"LineString","coordinates":[[3.7303799999963,51.053468000003],[4.4699360000043,50.503887000001]]},"properties":[]},{"type":"Feature","geometry":{"type":"LineString","coordinates":[[3.7303799999963,51.053468000003],[17.679076000004,43.915885999999]]},"properties":[]},{"type":"Feature","geometry":{"type":"LineString","coordinates":[[3.7303799999963,51.053468000003],[25.485830000001,42.733883000002]]},"properties":[]},{"type":"Feature","geometry":{"type":"LineString","coordinates":[[3.7303799999963,51.053468000003],[104.195397,35.861660000001]]},"properties":[]},{"type":"Feature","geometry":{"type":"LineString","coordinates":[[3.7303799999963,51.053468000003],[15.200000000002,45.100000000003]]},"properties":[]},{"type":"Feature","geometry":{"type":"LineString","coordinates":[[3.7303799999963,51.053468000003],[15.472962000003,49.817492]]},"properties":[]},{"type":"Feature","geometry":{"type":"LineString","coordinates":[[3.7303799999963,51.053468000003],[9.5017849999985,56.263920000001]]},"properties":[]},{"type":"Feature","geometry":{"type":"LineString","coordinates":[[3.7303799999963,51.053468000003],[30.802498000002,26.820553000001]]},"properties":[]},{"type":"Feature","geometry":{"type":"LineString","coordinates":[[3.7303799999963,51.053468000003],[25.013606999999,58.595272000001]]},"properties":[]},{"type":"Feature","geometry":{"type":"LineString","coordinates":[[3.7303799999963,51.053468000003],[25.748150999997,61.924109999999]]},"properties":[]},{"type":"Feature","geometry":{"type":"LineString","coordinates":[[3.7303799999963,51.053468000003],[2.2137489999989,46.227638]]},"properties":[]},{"type":"Feature","geometry":{"type":"LineString","coordinates":[[3.7303799999963,51.053468000003],[10.451526000003,51.165690999999]]},"properties":[]},{"type":"Feature","geometry":{"type":"LineString","coordinates":[[3.7303799999963,51.053468000003],[21.824312000004,39.074207999997]]},"properties":[]},{"type":"Feature","geometry":{"type":"LineString","coordinates":[[3.7303799999963,51.053468000003],[19.503303999996,47.162493999998]]},"properties":[]},{"type":"Feature","geometry":{"type":"LineString","coordinates":[[3.7303799999963,51.053468000003],[-19.020835000001,64.963051000002]]},"properties":[]},{"type":"Feature","geometry":{"type":"LineString","coordinates":[[3.7303799999963,51.053468000003],[47.0605507,38.473983499998]]},"properties":[]},{"type":"Feature","geometry":{"type":"LineString","coordinates":[[3.7303799999963,51.053468000003],[43.679290999998,33.223191000003]]},"properties":[]},{"type":"Feature","geometry":{"type":"LineString","coordinates":[[3.7303799999963,51.053468000003],[34.851612000002,31.046051]]},"properties":[]},{"type":"Feature","geometry":{"type":"LineString","coordinates":[[3.7303799999963,51.053468000003],[12.567380000004,41.871939999999]]},"properties":[]},{"type":"Feature","geometry":{"type":"LineString","coordinates":[[3.7303799999963,51.053468000003],[66.923684,48.019573000002]]},"properties":[]},{"type":"Feature","geometry":{"type":"LineString","coordinates":[[3.7303799999963,51.053468000003],[24.603189000003,56.879635000001]]},"properties":[]},{"type":"Feature","geometry":{"type":"LineString","coordinates":[[3.7303799999963,51.053468000003],[23.881274999999,55.169437999999]]},"properties":[]},{"type":"Feature","geometry":{"type":"LineString","coordinates":[[3.7303799999963,51.053468000003],[21.745275000003,41.608635000001]]},"properties":[]},{"type":"Feature","geometry":{"type":"LineString","coordinates":[[3.7303799999963,51.053468000003],[-102.552784,23.634501000001]]},"properties":[]},{"type":"Feature","geometry":{"type":"LineString","coordinates":[[3.7303799999963,51.053468000003],[19.374389999997,42.708678]]},"properties":[]},{"type":"Feature","geometry":{"type":"LineString","coordinates":[[3.7303799999963,51.053468000003],[5.2912660000021,52.132633000001]]},"properties":[]},{"type":"Feature","geometry":{"type":"LineString","coordinates":[[3.7303799999963,51.053468000003],[8.4689460000024,60.472024]]},"properties":[]},{"type":"Feature","geometry":{"type":"LineString","coordinates":[[3.7303799999963,51.053468000003],[55.923254999996,21.512583000003]]},"properties":[]},{"type":"Feature","geometry":{"type":"LineString","coordinates":[[3.7303799999963,51.053468000003],[121.774017,12.879720999999]]},"properties":[]},{"type":"Feature","geometry":{"type":"LineString","coordinates":[[3.7303799999963,51.053468000003],[19.145136,51.919437999998]]},"properties":[]},{"type":"Feature","geometry":{"type":"LineString","coordinates":[[3.7303799999963,51.053468000003],[-8.2244540000027,39.399871999999]]},"properties":[]},{"type":"Feature","geometry":{"type":"LineString","coordinates":[[3.7303799999963,51.053468000003],[51.183884,25.354825999999]]},"properties":[]},{"type":"Feature","geometry":{"type":"LineString","coordinates":[[3.7303799999963,51.053468000003],[24.966760000001,45.943161000003]]},"properties":[]},{"type":"Feature","geometry":{"type":"LineString","coordinates":[[3.7303799999963,51.053468000003],[105.318756,61.52401]]},"properties":[]},{"type":"Feature","geometry":{"type":"LineString","coordinates":[[3.7303799999963,51.053468000003],[21.005858999997,44.016521000002]]},"properties":[]},{"type":"Feature","geometry":{"type":"LineString","coordinates":[[3.7303799999963,51.053468000003],[103.819836,1.3520830000039]]},"properties":[]},{"type":"Feature","geometry":{"type":"LineString","coordinates":[[3.7303799999963,51.053468000003],[14.995462999997,46.151240999997]]},"properties":[]},{"type":"Feature","geometry":{"type":"LineString","coordinates":[[3.7303799999963,51.053468000003],[22.937506000003,-30.559481999999]]},"properties":[]},{"type":"Feature","geometry":{"type":"LineString","coordinates":[[3.7303799999963,51.053468000003],[-3.7492200000004,40.463667000002]]},"properties":[]},{"type":"Feature","geometry":{"type":"LineString","coordinates":[[3.7303799999963,51.053468000003],[18.643501000001,60.128160999999]]},"properties":[]},{"type":"Feature","geometry":{"type":"LineString","coordinates":[[3.7303799999963,51.053468000003],[8.2275120000041,46.818187999999]]},"properties":[]},{"type":"Feature","geometry":{"type":"LineString","coordinates":[[3.7303799999963,51.053468000003],[35.243321999997,38.963745000001]]},"properties":[]},{"type":"Feature","geometry":{"type":"LineString","coordinates":[[3.7303799999963,51.053468000003],[31.16558,48.379433000003]]},"properties":[]},{"type":"Feature","geometry":{"type":"LineString","coordinates":[[3.7303799999963,51.053468000003],[53.847818000001,23.424076000003]]},"properties":[]},{"type":"Feature","geometry":{"type":"LineString","coordinates":[[3.7303799999963,51.053468000003],[-3.4359729999961,55.378051000001]]},"properties":[]},{"type":"Feature","geometry":{"type":"LineString","coordinates":[[3.7303799999963,51.053468000003],[48.516388000001,15.552727]]},"properties":[]},{"type":"Feature","geometry":{"type":"LineString","coordinates":[[3.7303799999963,51.053468000003],[35.233154,31.952162000002]]},"properties":[]},{"type":"Feature","geometry":{"type":"LineString","coordinates":[[3.7303799999963,51.053468000003],[-75.679209999998,45.44389]]},"properties":[]}],"properties":{"title":"12","description":"","tags":""}}