{"supplychain":{"category":null,"created":1339789810,"enable_comments":true,"flags":0,"id":3368,"modified":1339789812,"other_perms":1,"passcode":null,"user_featured":false,"usergroup_id":null,"usergroup_perms":0,"user_id":2128,"owner":{"id":2128,"name":"footprint-aj","avatar":"http:\/\/free.sourcemap.com\/assets\/images\/default-user.png","banner_url":null,"display_name":null},"taxonomy":null,"attributes":{"title":"12","description":"","tags":""},"stops":[{"local_stop_id":267,"id":267,"geometry":"POINT(-8424571.120837 5691675.691615)","attributes":{"size":"1.6829238921002","address":"SLOVAK REP","placename":"Slovak Republic Embassy of The, 50 Rideau Terr, Ottawa, ON K1M, Canada","title":"SLOVAK REP   559  Unit  1.7%"}},{"local_stop_id":266,"id":266,"geometry":"POINT(3922136.762321 3757032.783045)","attributes":{"size":"0.16257225433526","address":"PALESTINE","placename":"","title":"PALESTINE   54  Unit  0.2%"}},{"local_stop_id":265,"id":265,"geometry":"POINT(5400819.607289 1752983.407652)","attributes":{"size":"0.0030105973025048","address":"Yemen","placename":"Yemen","title":"Yemen   1  Unit  0%"}},{"local_stop_id":264,"id":264,"geometry":"POINT(-382490.764739 7435586.530983)","attributes":{"size":"11.494460500963","address":"United Kingdom of Great Britain and Northern Ireland","placename":"United Kingdom","title":"United Kingdom of Great Britain and Northern Ireland   3818  Unit  11.5%"}},{"local_stop_id":263,"id":263,"geometry":"POINT(5994311.680089 2683384.657664)","attributes":{"size":"0.0030105973025048","address":"United Arab Emirates","placename":"United Arab Emirates","title":"United Arab Emirates   1  Unit  0%"}},{"local_stop_id":262,"id":262,"geometry":"POINT(3469336.495877 6170212.711441)","attributes":{"size":"0.42750481695568","address":"Ukraine","placename":"Ukraine","title":"Ukraine   142  Unit  0.4%"}},{"local_stop_id":261,"id":261,"geometry":"POINT(3923268.658903 4716479.684629)","attributes":{"size":"2.9323217726397","address":"Turkey","placename":"Turkey","title":"Turkey   974  Unit  2.9%"}},{"local_stop_id":260,"id":260,"geometry":"POINT(915882.446336 5912448.054871)","attributes":{"size":"1.1560693641618","address":"Switzerland","placename":"Switzerland","title":"Switzerland   384  Unit  1.2%"}},{"local_stop_id":259,"id":259,"geometry":"POINT(2075385.037924 8428326.96544)","attributes":{"size":"1.896676300578","address":"Sweden","placename":"Sweden","title":"Sweden   630  Unit  1.9%"}},{"local_stop_id":258,"id":258,"geometry":"POINT(-417361.261272 4933551.652462)","attributes":{"size":"5.933887283237","address":"Spain","placename":"Spain","title":"Spain   1971  Unit  5.9%"}},{"local_stop_id":257,"id":257,"geometry":"POINT(2553391.487988 -3575670.675527)","attributes":{"size":"0.0060211946050096","address":"South Africa","placename":"South Africa","title":"South Africa   2  Unit  0%"}},{"local_stop_id":256,"id":256,"geometry":"POINT(1669287.305369 5804618.909739)","attributes":{"size":"0.65028901734104","address":"Slovenia","placename":"Slovenia","title":"Slovenia   216  Unit  0.7%"}},{"local_stop_id":255,"id":255,"geometry":"POINT(11557171.277761 150527.162641)","attributes":{"size":"0.0060211946050096","address":"Singapore","placename":"Singapore","title":"Singapore   2  Unit  0%"}},{"local_stop_id":254,"id":254,"geometry":"POINT(2338361.527555 5467999.202178)","attributes":{"size":"0.30407032755299","address":"Serbia","placename":"Serbia","title":"Serbia   101  Unit  0.3%"}},{"local_stop_id":253,"id":253,"geometry":"POINT(11724030.288901 8747149.04879)","attributes":{"size":"3.7030346820809","address":"Russian Federation","placename":"Russian Federation","title":"Russian Federation   1230  Unit  3.7%"}},{"local_stop_id":252,"id":252,"geometry":"POINT(2779287.009958 5771245.404432)","attributes":{"size":"1.0777938342967","address":"Romania","placename":"Romania","title":"Romania   358  Unit  1.1%"}},{"local_stop_id":251,"id":251,"geometry":"POINT(5697763.903702 2919390.332888)","attributes":{"size":"0.0090317919075144","address":"Qatar","placename":"Qatar","title":"Qatar   3  Unit  0%"}},{"local_stop_id":250,"id":250,"geometry":"POINT(-915542.031333 4779112.741647)","attributes":{"size":"1.0597302504817","address":"Portugal","placename":"Portugal","title":"Portugal   352  Unit  1.1%"}},{"local_stop_id":249,"id":249,"geometry":"POINT(2131226.790688 6785571.898792)","attributes":{"size":"6.3884874759152","address":"Poland","placename":"Poland","title":"Poland   2122  Unit  6.4%"}},{"local_stop_id":248,"id":248,"geometry":"POINT(13555821.564291 1445993.997497)","attributes":{"size":"0.0030105973025048","address":"Philippines","placename":"Philippines","title":"Philippines   1  Unit  0%"}},{"local_stop_id":247,"id":247,"geometry":"POINT(6225348.270102 2453104.641232)","attributes":{"size":"0.0060211946050096","address":"Oman","placename":"Oman","title":"Oman   2  Unit  0%"}},{"local_stop_id":246,"id":246,"geometry":"POINT(942758.756276 8505587.038689)","attributes":{"size":"0.46965317919075","address":"Norway","placename":"Norway","title":"Norway   156  Unit  0.5%"}},{"local_stop_id":245,"id":245,"geometry":"POINT(589021.036772 6824142.821624)","attributes":{"size":"6.3132225433526","address":"Netherlands","placename":"The Netherlands","title":"Netherlands   2097  Unit  6.3%"}},{"local_stop_id":244,"id":244,"geometry":"POINT(2156747.22923 5267734.268962)","attributes":{"size":"0.012042389210019","address":"Montenegro","placename":"Montenegro","title":"Montenegro   4  Unit  0%"}},{"local_stop_id":243,"id":243,"geometry":"POINT(-11416123.694313 2708933.292233)","attributes":{"size":"0.072254335260116","address":"Mexico","placename":"Mexico","title":"Mexico   24  Unit  0.1%"}},{"local_stop_id":242,"id":242,"geometry":"POINT(2420672.94016 5102533.956456)","attributes":{"size":"0.15956165703276","address":"The former Yugoslav Republic of Macedonia","placename":"Macedonia (FYROM)","title":"The former Yugoslav Republic of Macedonia   53  Unit  0.2%"}},{"local_stop_id":241,"id":241,"geometry":"POINT(2658451.372494 7394820.260241)","attributes":{"size":"2.1525770712909","address":"Lithuania","placename":"Lithuania","title":"Lithuania   715  Unit  2.2%"}},{"local_stop_id":240,"id":240,"geometry":"POINT(2738814.471371 7735556.799888)","attributes":{"size":"0.21676300578035","address":"Latvia","placename":"Latvia","title":"Latvia   72  Unit  0.2%"}},{"local_stop_id":239,"id":239,"geometry":"POINT(7449910.42489 6110111.702601)","attributes":{"size":"0.24084778420039","address":"Kazakhstan","placename":"Kazakhstan","title":"Kazakhstan   80  Unit  0.2%"}},{"local_stop_id":238,"id":238,"geometry":"POINT(1398994.342206 5141815.937641)","attributes":{"size":"4.1094653179191","address":"Italy","placename":"Italy","title":"Italy   1365  Unit  4.1%"}},{"local_stop_id":237,"id":237,"geometry":"POINT(3879663.701165 3638731.187583)","attributes":{"size":"2.4054672447013","address":"Israel","placename":"Israel","title":"Israel   799  Unit  2.4%"}},{"local_stop_id":236,"id":236,"geometry":"POINT(4862356.432331 3924966.445386)","attributes":{"size":"0.015052986512524","address":"Iraq","placename":"Iraq","title":"Iraq   5  Unit  0%"}},{"local_stop_id":235,"id":235,"geometry":"POINT(5238756.540375 4646601.874365)","attributes":{"size":"0.0030105973025048","address":"Iran (Islamic Republic of)","placename":"Islamic Republic, Ahar, Iran","title":"Iran (Islamic Republic of)   1  Unit  0%"}},{"local_stop_id":234,"id":234,"geometry":"POINT(-2117389.666663 9598645.705352)","attributes":{"size":"0.0060211946050096","address":"Iceland","placename":"Iceland","title":"Iceland   2  Unit  0%"}},{"local_stop_id":233,"id":233,"geometry":"POINT(2171097.870066 5968637.679129)","attributes":{"size":"1.9598988439306","address":"Hungary","placename":"Hungary","title":"Hungary   651  Unit  2%"}},{"local_stop_id":232,"id":232,"geometry":"POINT(2429471.298754 4732306.812978)","attributes":{"size":"0.033116570327553","address":"Greece","placename":"Greece","title":"Greece   11  Unit  0%"}},{"local_stop_id":231,"id":231,"geometry":"POINT(1163458.552333 6650655.041174)","attributes":{"size":"13.674132947977","address":"Germany","placename":"Germany","title":"Germany   4542  Unit  13.7%"}},{"local_stop_id":230,"id":230,"geometry":"POINT(246433.411424 5816903.713427)","attributes":{"size":"16.254214836224","address":"France","placename":"France","title":"France   5399  Unit  16.3%"}},{"local_stop_id":229,"id":229,"geometry":"POINT(2866271.058188 8841170.394214)","attributes":{"size":"0.36729287090559","address":"Finland","placename":"Finland","title":"Finland   122  Unit  0.4%"}},{"local_stop_id":228,"id":228,"geometry":"POINT(2784501.994143 8093419.123256)","attributes":{"size":"0.090317919075145","address":"Estonia","placename":"Estonia","title":"Estonia   30  Unit  0.1%"}},{"local_stop_id":227,"id":227,"geometry":"POINT(3428918.392521 3101070.050794)","attributes":{"size":"0.0030105973025048","address":"Egypt","placename":"Egypt","title":"Egypt   1  Unit  0%"}},{"local_stop_id":226,"id":226,"geometry":"POINT(1057733.867827 7611135.068229)","attributes":{"size":"0.83092485549133","address":"Denmark","placename":"Denmark","title":"Denmark   276  Unit  0.8%"}},{"local_stop_id":225,"id":225,"geometry":"POINT(1722442.250904 6414728.45895)","attributes":{"size":"2.6312620423892","address":"Czech Republic","placename":"Czech Republic","title":"Czech Republic   874  Unit  2.6%"}},{"local_stop_id":224,"id":224,"geometry":"POINT(1692056.260058 5637278.201891)","attributes":{"size":"0.21074181117534","address":"Croatia","placename":"Croatia","title":"Croatia   70  Unit  0.2%"}},{"local_stop_id":223,"id":223,"geometry":"POINT(11598978.537043 4281602.659627)","attributes":{"size":"0.16257225433526","address":"China","placename":"China","title":"China   54  Unit  0.2%"}},{"local_stop_id":222,"id":222,"geometry":"POINT(2837069.618044 5271553.447419)","attributes":{"size":"0.34320809248555","address":"Bulgaria","placename":"Bulgaria","title":"Bulgaria   114  Unit  0.3%"}},{"local_stop_id":221,"id":221,"geometry":"POINT(1968025.738016 5452434.561675)","attributes":{"size":"0.08730732177264","address":"Bosnia and Herzegovina","placename":"Bosnia and Herzegovina","title":"Bosnia and Herzegovina   29  Unit  0.1%"}},{"local_stop_id":220,"id":220,"geometry":"POINT(497590.999399 6534001.856289)","attributes":{"size":"5.325746628131","address":"Belgium","placename":"Belgium","title":"Belgium   1769  Unit  5.3%"}},{"local_stop_id":219,"id":219,"geometry":"POINT(3111757.029426 7115387.658402)","attributes":{"size":"0.41546242774566","address":"Belarus","placename":"Belarus","title":"Belarus   138  Unit  0.4%"}},{"local_stop_id":218,"id":218,"geometry":"POINT(5636970.993946 2990464.968922)","attributes":{"size":"0.0060211946050096","address":"Bahrain","placename":"Bahrain","title":"Bahrain   2  Unit  0%"}},{"local_stop_id":217,"id":217,"geometry":"POINT(5296239.287149 4886759.751808)","attributes":{"size":"0.036127167630058","address":"Azerbaijan","placename":"Azerbaijan","title":"Azerbaijan   12  Unit  0%"}},{"local_stop_id":216,"id":216,"geometry":"POINT(1619706.606045 6026746.974644)","attributes":{"size":"2.2248314065511","address":"Austria","placename":"Austria","title":"Austria   739  Unit  2.2%"}},{"local_stop_id":215,"id":215,"geometry":"POINT(14891780.020321 -2909486.054997)","attributes":{"size":"0.22579479768786","address":"Australia","placename":"Australia","title":"Australia   75  Unit  0.2%"}},{"local_stop_id":214,"id":214,"geometry":"POINT(1989711.999337 -1255100.642297)","attributes":{"size":"0.015052986512524","address":"Angola","placename":"Angola","title":"Angola   5  Unit  0%"}},{"local_stop_id":213,"id":213,"geometry":"POINT(184748.721227 3253246.71111)","attributes":{"size":"0.021074181117534","address":"Algeria","placename":"Algeria","title":"Algeria   7  Unit  0%"}},{"local_stop_id":212,"id":212,"geometry":"POINT(14891780.020321 -2909486.054997)","attributes":{"size":"3.9700255102041","address":"Australia","placename":"Australia","title":"Australia CKD  1245  Unit  4%"}},{"local_stop_id":211,"id":211,"geometry":"POINT(1061709.532121 4013627.830394)","attributes":{"size":"0.80357142857143","address":"Tunisia","placename":"Tunisia","title":"Tunisia CKD  252  Unit  0.8%"}},{"local_stop_id":210,"id":210,"geometry":"POINT(11242438.238039 1789676.623494)","attributes":{"size":"3.3960459183673","address":"Thailand","placename":"Thailand","title":"Thailand CKD  1065  Unit  3.4%"}},{"local_stop_id":209,"id":209,"geometry":"POINT(13465262.935892 2716627.939237)","attributes":{"size":"1.0586734693878","address":"Taiwan","placename":"Taiwan","title":"Taiwan CKD  332  Unit  1.1%"}},{"local_stop_id":208,"id":208,"geometry":"POINT(-789546.84679 3735999.22766)","attributes":{"size":"0.92474489795918","address":"Marocco","placename":"Morocco","title":"Marocco CKD  290  Unit  0.9%"}},{"local_stop_id":207,"id":207,"geometry":"POINT(11351890.344374 469131.367658)","attributes":{"size":"0.90880102040816","address":"Malaysia","placename":"Malaysia","title":"Malaysia CKD  285  Unit  0.9%"}},{"local_stop_id":206,"id":206,"geometry":"POINT(5976525.942406 3819612.201442)","attributes":{"size":"13.673469387755","address":"Iran","placename":"Iran","title":"Iran CKD  4288  Unit  13.7%"}},{"local_stop_id":205,"id":205,"geometry":"POINT(5018189.359227 2739515.791932)","attributes":{"size":"5.2551020408163","address":"Saudi Arabia","placename":"Saudi Arabia","title":"Saudi Arabia CKD  1648  Unit  5.3%"}},{"local_stop_id":204,"id":204,"geometry":"POINT(2553391.487988 -3575670.675527)","attributes":{"size":"4.5854591836735","address":"South Africa","placename":"South Africa","title":"South Africa CKD  1438  Unit  4.6%"}},{"local_stop_id":203,"id":203,"geometry":"POINT(8790107.59317 2343495.165705)","attributes":{"size":"1.9642857142857","address":"India","placename":"India","title":"India CKD  616  Unit  2%"}},{"local_stop_id":202,"id":202,"geometry":"POINT(5400819.607289 1752983.407652)","attributes":{"size":"0.01594387755102","address":"YEMEN R","placename":"Yemen","title":"YEMEN R   5  Unit  0%"}},{"local_stop_id":201,"id":201,"geometry":"POINT(3469336.495877 6170212.711441)","attributes":{"size":"0.27423469387755","address":"UKRAINE","placename":"Ukraine","title":"UKRAINE   86  Unit  0.3%"}},{"local_stop_id":200,"id":200,"geometry":"POINT(5994311.680089 2683384.657664)","attributes":{"size":"0.97576530612245","address":"UAE","placename":"United Arab Emirates","title":"UAE   306  Unit  1%"}},{"local_stop_id":199,"id":199,"geometry":"POINT(3923268.658903 4716479.684629)","attributes":{"size":"0.77168367346939","address":"TURKEY","placename":"Turkey","title":"TURKEY   242  Unit  0.8%"}},{"local_stop_id":198,"id":198,"geometry":"POINT(1061709.532121 4013627.830394)","attributes":{"size":"0.24234693877551","address":"TUNISIA","placename":"Tunisia","title":"TUNISIA   76  Unit  0.2%"}},{"local_stop_id":197,"id":197,"geometry":"POINT(11242438.238039 1789676.623494)","attributes":{"size":"0.10522959183673","address":"THAILAND","placename":"Thailand","title":"THAILAND   33  Unit  0.1%"}},{"local_stop_id":196,"id":196,"geometry":"POINT(3883805.899417 -710461.619568)","attributes":{"size":"0.012755102040816","address":"TANZANIA","placename":"Tanzania","title":"TANZANIA   4  Unit  0%"}},{"local_stop_id":195,"id":195,"geometry":"POINT(13465262.935892 2716627.939237)","attributes":{"size":"0.0031887755102041","address":"TAIWAN","placename":"Taiwan","title":"TAIWAN   1  Unit  0%"}},{"local_stop_id":194,"id":194,"geometry":"POINT(4341105.588359 4137016.351319)","attributes":{"size":"0.15625","address":"SYRIA","placename":"Syria","title":"SYRIA   49  Unit  0.2%"}},{"local_stop_id":193,"id":193,"geometry":"POINT(915882.446336 5912448.054871)","attributes":{"size":"0.33801020408163","address":"SWITZERLAND","placename":"Switzerland","title":"SWITZERLAND   106  Unit  0.3%"}},{"local_stop_id":192,"id":192,"geometry":"POINT(2075385.037924 8428326.96544)","attributes":{"size":"6.3073979591837","address":"SWEDEN","placename":"Sweden","title":"SWEDEN   1978  Unit  6.3%"}},{"local_stop_id":191,"id":191,"geometry":"POINT(3363811.852496 1444062.609719)","attributes":{"size":"0.20408163265306","address":"SUDAN","placename":"Sudan","title":"SUDAN   64  Unit  0.2%"}},{"local_stop_id":190,"id":190,"geometry":"POINT(-417361.261272 4933551.652462)","attributes":{"size":"0.50063775510204","address":"SPAIN","placename":"Spain","title":"SPAIN   157  Unit  0.5%"}},{"local_stop_id":189,"id":189,"geometry":"POINT(1669287.305369 5804618.909739)","attributes":{"size":"0.21045918367347","address":"SLOVENIA","placename":"Slovenia","title":"SLOVENIA   66  Unit  0.2%"}},{"local_stop_id":188,"id":188,"geometry":"POINT(-8424571.120837 5691675.691615)","attributes":{"size":"0.59311224489796","address":"SLOVAK REP","placename":"Slovak Republic Embassy of The, 50 Rideau Terr, Ottawa, ON K1M, Canada","title":"SLOVAK REP   186  Unit  0.6%"}},{"local_stop_id":187,"id":187,"geometry":"POINT(11557171.277761 150527.162641)","attributes":{"size":"0.29017857142857","address":"SINGAPORE","placename":"Singapore","title":"SINGAPORE   91  Unit  0.3%"}},{"local_stop_id":186,"id":186,"geometry":"POINT(2338361.527555 5467999.202178)","attributes":{"size":"0.066964285714286","address":"SERBIA","placename":"Serbia","title":"SERBIA   21  Unit  0.1%"}},{"local_stop_id":185,"id":185,"geometry":"POINT(3475657.895613 3516107.910344)","attributes":{"size":"0.4719387755102","address":"SAUDI","placename":"Al Saudi, Warraq Al Arab, Al Warraq, Giza, Egypt","title":"SAUDI   148  Unit  0.5%"}},{"local_stop_id":184,"id":184,"geometry":"POINT(2553391.487988 -3575670.675527)","attributes":{"size":"0.72385204081633","address":"S.AFRICA","placename":"South Africa","title":"S.AFRICA   227  Unit  0.7%"}},{"local_stop_id":183,"id":183,"geometry":"POINT(14222948.697264 4287936.289399)","attributes":{"size":"4.0561224489796","address":"S KOREA","placename":"South Korea","title":"S KOREA   1272  Unit  4.1%"}},{"local_stop_id":182,"id":182,"geometry":"POINT(11724030.288901 8747149.04879)","attributes":{"size":"2.1524234693878","address":"RUSSIA","placename":"Russia","title":"RUSSIA   675  Unit  2.2%"}},{"local_stop_id":181,"id":181,"geometry":"POINT(2779287.009958 5771245.404432)","attributes":{"size":"0.87372448979592","address":"ROMANIA","placename":"Romania","title":"ROMANIA   274  Unit  0.9%"}},{"local_stop_id":180,"id":180,"geometry":"POINT(1761926.94033 -25383.248614)","attributes":{"size":"0.031887755102041","address":"REP. CONGO","placename":"Congo","title":"REP. CONGO   10  Unit  0%"}},{"local_stop_id":179,"id":179,"geometry":"POINT(5697763.903702 2919390.332888)","attributes":{"size":"0.11479591836735","address":"QATAR","placename":"Qatar","title":"QATAR   36  Unit  0.1%"}},{"local_stop_id":178,"id":178,"geometry":"POINT(-915542.031333 4779112.741647)","attributes":{"size":"0.07015306122449","address":"PORTUGAL","placename":"Portugal","title":"PORTUGAL   22  Unit  0.1%"}},{"local_stop_id":177,"id":177,"geometry":"POINT(2131226.790688 6785571.898792)","attributes":{"size":"1.5625","address":"POLAND","placename":"Poland","title":"POLAND   490  Unit  1.6%"}},{"local_stop_id":176,"id":176,"geometry":"POINT(13555821.564291 1445993.997497)","attributes":{"size":"0.3093112244898","address":"PHILLIPINES","placename":"Philippines","title":"PHILLIPINES   97  Unit  0.3%"}},{"local_stop_id":175,"id":175,"geometry":"POINT(-8350648.52242 -1027437.355768)","attributes":{"size":"3.1186224489796","address":"PERU","placename":"Peru","title":"PERU   978  Unit  3.1%"}},{"local_stop_id":174,"id":174,"geometry":"POINT(3922136.762321 3757032.783045)","attributes":{"size":"0.038265306122449","address":"PALESTINE","placename":"","title":"PALESTINE   12  Unit  0%"}},{"local_stop_id":173,"id":173,"geometry":"POINT(7719463.00212 3551885.664913)","attributes":{"size":"0.012755102040816","address":"PAKISTAN","placename":"Pakistan","title":"PAKISTAN   4  Unit  0%"}},{"local_stop_id":172,"id":172,"geometry":"POINT(6225348.270102 2453104.641232)","attributes":{"size":"0.55484693877551","address":"OMAN","placename":"Oman","title":"OMAN   174  Unit  0.6%"}},{"local_stop_id":171,"id":171,"geometry":"POINT(942758.756276 8505587.038689)","attributes":{"size":"3.5522959183673","address":"NORWAY","placename":"Norway","title":"NORWAY   1114  Unit  3.6%"}},{"local_stop_id":170,"id":170,"geometry":"POINT(589021.036772 6824142.821624)","attributes":{"size":"0.97576530612245","address":"NETHERLANDS","placename":"The Netherlands","title":"NETHERLANDS   306  Unit  1%"}},{"local_stop_id":169,"id":169,"geometry":"POINT(-789546.84679 3735999.22766)","attributes":{"size":"1.218112244898","address":"MOROCCO","placename":"Morocco","title":"MOROCCO   382  Unit  1.2%"}},{"local_stop_id":168,"id":168,"geometry":"POINT(2156747.22923 5267734.268962)","attributes":{"size":"0.0063775510204082","address":"MONTENEGRO","placename":"Montenegro","title":"MONTENEGRO   2  Unit  0%"}},{"local_stop_id":167,"id":167,"geometry":"POINT(3158121.152064 6009523.467887)","attributes":{"size":"0.0095663265306122","address":"MOLDOVA","placename":"Moldova","title":"MOLDOVA   3  Unit  0%"}},{"local_stop_id":166,"id":166,"geometry":"POINT(11351890.344374 469131.367658)","attributes":{"size":"0.0095663265306122","address":"MALAYSIA","placename":"Malaysia","title":"MALAYSIA   3  Unit  0%"}},{"local_stop_id":165,"id":165,"geometry":"POINT(2420672.94016 5102533.956456)","attributes":{"size":"0.073341836734694","address":"MACEDONIA","placename":"Macedonia (FYROM)","title":"MACEDONIA   23  Unit  0.1%"}},{"local_stop_id":164,"id":164,"geometry":"POINT(2658451.372494 7394820.260241)","attributes":{"size":"1.5051020408163","address":"LITHUANIA","placename":"Lithuania","title":"LITHUANIA   472  Unit  1.5%"}},{"local_stop_id":163,"id":163,"geometry":"POINT(3992171.304883 4009311.247656)","attributes":{"size":"0.022321428571429","address":"LEBANON","placename":"Lebanon","title":"LEBANON   7  Unit  0%"}},{"local_stop_id":162,"id":162,"geometry":"POINT(2738814.471371 7735556.799888)","attributes":{"size":"1.3807397959184","address":"LATVIA","placename":"Latvia","title":"LATVIA   433  Unit  1.4%"}},{"local_stop_id":161,"id":161,"geometry":"POINT(5285646.013085 3415373.48796)","attributes":{"size":"0.092474489795918","address":"KUWAIT","placename":"Kuwait","title":"KUWAIT   29  Unit  0.1%"}},{"local_stop_id":160,"id":160,"geometry":"POINT(4219698.102672 -2622.575957)","attributes":{"size":"0.19132653061224","address":"KENYA","placename":"Kenya","title":"KENYA   60  Unit  0.2%"}},{"local_stop_id":159,"id":159,"geometry":"POINT(7449910.42489 6110111.702601)","attributes":{"size":"0.0063775510204082","address":"KAZAKHSTAN","placename":"Kazakhstan","title":"KAZAKHSTAN   2  Unit  0%"}},{"local_stop_id":158,"id":158,"geometry":"POINT(4034041.793636 3578991.172208)","attributes":{"size":"0.012755102040816","address":"JORDAN","placename":"Jordan","title":"JORDAN   4  Unit  0%"}},{"local_stop_id":157,"id":157,"geometry":"POINT(15390245.100361 4328841.562513)","attributes":{"size":"0.72704081632653","address":"JAPAN","placename":"Japan","title":"JAPAN   228  Unit  0.7%"}},{"local_stop_id":156,"id":156,"geometry":"POINT(1398994.342206 5141815.937641)","attributes":{"size":"0.73022959183673","address":"ITALY","placename":"Italy","title":"ITALY   229  Unit  0.7%"}},{"local_stop_id":155,"id":155,"geometry":"POINT(3879663.701165 3638731.187583)","attributes":{"size":"0.58992346938776","address":"ISRAEL","placename":"Israel","title":"ISRAEL   185  Unit  0.6%"}},{"local_stop_id":154,"id":154,"geometry":"POINT(4862356.432331 3924966.445386)","attributes":{"size":"0.13073979591837","address":"IRAQ","placename":"Iraq","title":"IRAQ   41  Unit  0.1%"}},{"local_stop_id":153,"id":153,"geometry":"POINT(5976525.942406 3819612.201442)","attributes":{"size":"0.0031887755102041","address":"IRAN","placename":"Iran","title":"IRAN   1  Unit  0%"}},{"local_stop_id":152,"id":152,"geometry":"POINT(12681664.112134 -87864.470043)","attributes":{"size":"2.1747448979592","address":"INDONESIA","placename":"Indonesia","title":"INDONESIA   682  Unit  2.2%"}},{"local_stop_id":151,"id":151,"geometry":"POINT(8790107.59317 2343495.165705)","attributes":{"size":"0.076530612244898","address":"INDIA","placename":"India","title":"INDIA   24  Unit  0.1%"}},{"local_stop_id":150,"id":150,"geometry":"POINT(-2117389.666663 9598645.705352)","attributes":{"size":"0.028698979591837","address":"ICELAND","placename":"Iceland","title":"ICELAND   9  Unit  0%"}},{"local_stop_id":149,"id":149,"geometry":"POINT(2171097.870066 5968637.679129)","attributes":{"size":"0.19770408163265","address":"HUNGARY","placename":"Hungary","title":"HUNGARY   62  Unit  0.2%"}},{"local_stop_id":148,"id":148,"geometry":"POINT(12702611.100717 2559188.1802)","attributes":{"size":"0.0063775510204082","address":"HONGKONG","placename":"Hong Kong","title":"HONGKONG   2  Unit  0%"}},{"local_stop_id":147,"id":147,"geometry":"POINT(2429471.298754 4732306.812978)","attributes":{"size":"0.041454081632653","address":"GREECE","placename":"Greece","title":"GREECE   13  Unit  0%"}},{"local_stop_id":146,"id":146,"geometry":"POINT(-113901.435063 887453.057712)","attributes":{"size":"0.044642857142857","address":"GHANA","placename":"Ghana","title":"GHANA   14  Unit  0%"}},{"local_stop_id":145,"id":145,"geometry":"POINT(1163458.552333 6650655.041174)","attributes":{"size":"2.8316326530612","address":"GERMANY","placename":"Germany","title":"GERMANY   888  Unit  2.8%"}},{"local_stop_id":144,"id":144,"geometry":"POINT(-382490.764739 7435586.530983)","attributes":{"size":"3.3227040816327","address":"G.BRITAIN","placename":"United Kingdom","title":"G.BRITAIN   1042  Unit  3.3%"}},{"local_stop_id":143,"id":143,"geometry":"POINT(246433.411424 5816903.713427)","attributes":{"size":"2.2161989795918","address":"FRANCE","placename":"France","title":"FRANCE   695  Unit  2.2%"}},{"local_stop_id":142,"id":142,"geometry":"POINT(2866271.058188 8841170.394214)","attributes":{"size":"2.4043367346939","address":"FINLAND","placename":"Finland","title":"FINLAND   754  Unit  2.4%"}},{"local_stop_id":141,"id":141,"geometry":"POINT(0 -0)","attributes":{"size":"0.019132653061224","address":"EUD PULL PRODUCTION","title":"EUD PULL PRODUCTION   6  Unit  0%"}},{"local_stop_id":140,"id":140,"geometry":"POINT(4507289.780746 1022366.88618)","attributes":{"size":"0.67602040816327","address":"ETHIOPIA","placename":"Ethiopia","title":"ETHIOPIA   212  Unit  0.7%"}},{"local_stop_id":139,"id":139,"geometry":"POINT(2784501.994143 8093419.123256)","attributes":{"size":"0.59630102040816","address":"ESTONIA","placename":"Estonia","title":"ESTONIA   187  Unit  0.6%"}},{"local_stop_id":138,"id":138,"geometry":"POINT(3428918.392521 3101070.050794)","attributes":{"size":"0.13073979591837","address":"EGYPT","placename":"Egypt","title":"EGYPT   41  Unit  0.1%"}},{"local_stop_id":137,"id":137,"geometry":"POINT(-8703336.944404 -203887.308284)","attributes":{"size":"0.041454081632653","address":"ECUADOR","placename":"Ecuador","title":"ECUADOR   13  Unit  0%"}},{"local_stop_id":136,"id":136,"geometry":"POINT(0 -0)","attributes":{"size":"0.01594387755102","address":"DOM REP","title":"DOM REP   5  Unit  0%"}},{"local_stop_id":135,"id":135,"geometry":"POINT(1057733.867827 7611135.068229)","attributes":{"size":"3.1696428571429","address":"DENMARK","placename":"Denmark","title":"DENMARK   994  Unit  3.2%"}},{"local_stop_id":134,"id":134,"geometry":"POINT(1722442.250904 6414728.45895)","attributes":{"size":"0.58354591836735","address":"CZECH REP","placename":"Czech Republic","title":"CZECH REP   183  Unit  0.6%"}},{"local_stop_id":133,"id":133,"geometry":"POINT(1692056.260058 5637278.201891)","attributes":{"size":"0.11160714285714","address":"CROATIA","placename":"Croatia","title":"CROATIA   35  Unit  0.1%"}},{"local_stop_id":132,"id":132,"geometry":"POINT(1761926.94033 -25383.248614)","attributes":{"size":"0.01594387755102","address":"CONGO","placename":"Congo","title":"CONGO   5  Unit  0%"}},{"local_stop_id":131,"id":131,"geometry":"POINT(-8270741.276858 509367.281339)","attributes":{"size":"0.20727040816327","address":"COLOMBIA","placename":"Colombia","title":"COLOMBIA   65  Unit  0.2%"}},{"local_stop_id":130,"id":130,"geometry":"POINT(11598978.537043 4281602.659627)","attributes":{"size":"3.4917091836735","address":"CHINA","placename":"China","title":"CHINA   1095  Unit  3.5%"}},{"local_stop_id":129,"id":129,"geometry":"POINT(-7964126.878919 -4256013.675159)","attributes":{"size":"1.3871173469388","address":"CHILE","placename":"Chile","title":"CHILE   435  Unit  1.4%"}},{"local_stop_id":128,"id":128,"geometry":"POINT(2837069.618044 5271553.447419)","attributes":{"size":"0.16581632653061","address":"BULGARIA","placename":"Bulgaria","title":"BULGARIA   52  Unit  0.2%"}},{"local_stop_id":127,"id":127,"geometry":"POINT(1968025.738016 5452434.561675)","attributes":{"size":"0.0095663265306122","address":"BOSNIA-HERZEGOVINA","placename":"Bosnia and Herzegovina","title":"BOSNIA-HERZEGOVINA   3  Unit  0%"}},{"local_stop_id":126,"id":126,"geometry":"POINT(497590.999399 6534001.856289)","attributes":{"size":"0.92474489795918","address":"BELGIUM","placename":"Belgium","title":"BELGIUM   290  Unit  0.9%"}},{"local_stop_id":125,"id":125,"geometry":"POINT(3111757.029426 7115387.658402)","attributes":{"size":"0.48469387755102","address":"BELARUS","placename":"Belarus","title":"BELARUS   152  Unit  0.5%"}},{"local_stop_id":124,"id":124,"geometry":"POINT(10058420.756868 2715069.967281)","attributes":{"size":"0.022321428571429","address":"BANGLADESH","placename":"Bangladesh","title":"BANGLADESH   7  Unit  0%"}},{"local_stop_id":123,"id":123,"geometry":"POINT(1619706.606045 6026746.974644)","attributes":{"size":"0.32206632653061","address":"AUSTRIA","placename":"Austria","title":"AUSTRIA   101  Unit  0.3%"}},{"local_stop_id":122,"id":122,"geometry":"POINT(14891780.020321 -2909486.054997)","attributes":{"size":"0.057397959183673","address":"AUSTRALIA","placename":"Australia","title":"AUSTRALIA   18  Unit  0.1%"}},{"local_stop_id":121,"id":121,"geometry":"POINT(1989711.999337 -1255100.642297)","attributes":{"size":"1.0267857142857","address":"ANGOLA","placename":"Angola","title":"ANGOLA   322  Unit  1%"}},{"local_stop_id":120,"id":120,"geometry":"POINT(184748.721227 3253246.71111)","attributes":{"size":"0.25829081632653","address":"ALGERIA","placename":"Algeria","title":"ALGERIA   81  Unit  0.3%"}},{"local_stop_id":119,"id":119,"geometry":"POINT(1328517.972584 7916213.608221)","attributes":{"address":"Tuve,Sweden","placename":"Tuve, Sweden","title":"VT Tuve,Sweden 180.4M 0.5%\/19901 Complete 11459 CKD 27.3%"}},{"local_stop_id":118,"id":118,"geometry":"POINT(0 -0)","attributes":{"size":"0.7843137254902","address":"Private Importers","title":"Private Importers   198  Unit  0.8%"}},{"local_stop_id":117,"id":117,"geometry":"POINT(-8350648.52242 -1027437.355768)","attributes":{"size":"8.0808080808081","address":"Peru","placename":"Peru","title":"Peru   2040  Unit  8.1%"}},{"local_stop_id":116,"id":116,"geometry":"POINT(-7964126.878919 -4256013.675159)","attributes":{"size":"4.9871261635968","address":"Chile","placename":"Chile","title":"Chile   1259  Unit  5%"}},{"local_stop_id":115,"id":115,"geometry":"POINT(-7081775.533003 -4638374.275084)","attributes":{"size":"3.6918201624084","address":"Argentina","placename":"Argentina","title":"Argentina   932  Unit  3.7%"}},{"local_stop_id":114,"id":114,"geometry":"POINT(-5780295.728898 -1601191.813438)","attributes":{"size":"82.455931867697","address":"Brazil","placename":"Brazil","title":"Brazil   20816  Unit  82.5%"}},{"local_stop_id":113,"id":113,"geometry":"POINT(-11416123.694313 2708933.292233)","attributes":{"size":"2.8800380831482","address":"MEXICO","placename":"Mexico","title":"MEXICO   726  Unit  2.9%"}},{"local_stop_id":112,"id":112,"geometry":"POINT(-10654710.288472 4451692.554811)","attributes":{"size":"85.310218978102","address":"USA","placename":"United States","title":"USA   21505  Unit  85.3%"}},{"local_stop_id":111,"id":111,"geometry":"POINT(-11838468.395229 7584411.732747)","attributes":{"size":"11.80974293875","address":"CANADA","placename":"Canada","title":"CANADA   2977  Unit  11.8%"}},{"local_stop_id":110,"id":110,"geometry":"POINT(12702611.100717 2559188.1802)","attributes":{"size":"0.027547199494109","address":"Hong Kong","placename":"Hong Kong","title":"Hong Kong   3853.7M  0%"}},{"local_stop_id":109,"id":109,"geometry":"POINT(-10654710.288472 4451692.554811)","attributes":{"size":"0.18450925328583","address":"United States of America","placename":"United States","title":"United States of America   25811.6M  0.2%"}},{"local_stop_id":108,"id":108,"geometry":"POINT(-382490.764739 7435586.530983)","attributes":{"size":"1.254599974053","address":"United Kingdom of Great Britain and Northern Ireland","placename":"United Kingdom","title":"United Kingdom of Great Britain and Northern Ireland   175510.4M  1.3%"}},{"local_stop_id":107,"id":107,"geometry":"POINT(3923268.658903 4716479.684629)","attributes":{"size":"0.018964564837881","address":"Turkey","placename":"Turkey","title":"Turkey   2653M  0%"}},{"local_stop_id":106,"id":106,"geometry":"POINT(11242438.238039 1789676.623494)","attributes":{"size":"0.0031108034997835","address":"Thailand","placename":"Thailand","title":"Thailand   435.2M  0%"}},{"local_stop_id":105,"id":105,"geometry":"POINT(915882.446336 5912448.054871)","attributes":{"size":"0.0038856352562203","address":"Switzerland","placename":"Switzerland","title":"Switzerland   543.6M  0%"}},{"local_stop_id":104,"id":104,"geometry":"POINT(2075385.037924 8428326.96544)","attributes":{"size":"48.377289560297","address":"Sweden","placename":"Sweden","title":"Sweden   6767668.7M  48.4%"}},{"local_stop_id":103,"id":103,"geometry":"POINT(-417361.261272 4933551.652462)","attributes":{"size":"0.77644982546386","address":"Spain","placename":"Spain","title":"Spain   108620.3M  0.8%"}},{"local_stop_id":102,"id":102,"geometry":"POINT(2553391.487988 -3575670.675527)","attributes":{"size":"1.638407096782","address":"South Africa","placename":"South Africa","title":"South Africa   229202.5M  1.6%"}},{"local_stop_id":101,"id":101,"geometry":"POINT(1669287.305369 5804618.909739)","attributes":{"size":"0.027492099119349","address":"Slovenia","placename":"Slovenia","title":"Slovenia   3846M  0%"}},{"local_stop_id":100,"id":100,"geometry":"POINT(2192885.320804 6218887.493883)","attributes":{"size":"0.1327035006253","address":"Slovakia","placename":"Slovakia","title":"Slovakia   18564.4M  0.1%"}},{"local_stop_id":99,"id":99,"geometry":"POINT(2779287.009958 5771245.404432)","attributes":{"size":"0.040729417473973","address":"Romania","placename":"Romania","title":"Romania   5697.8M  0%"}},{"local_stop_id":98,"id":98,"geometry":"POINT(-915542.031333 4779112.741647)","attributes":{"size":"0.10382848670425","address":"Portugal","placename":"Portugal","title":"Portugal   14524.9M  0.1%"}},{"local_stop_id":97,"id":97,"geometry":"POINT(2131226.790688 6785571.898792)","attributes":{"size":"0.74241429596922","address":"Poland","placename":"Poland","title":"Poland   103858.9M  0.7%"}},{"local_stop_id":96,"id":96,"geometry":"POINT(942758.756276 8505587.038689)","attributes":{"size":"0.97497007027972","address":"Norway","placename":"Norway","title":"Norway   136392M  1%"}},{"local_stop_id":95,"id":95,"geometry":"POINT(589021.036772 6824142.821624)","attributes":{"size":"2.265434822381","address":"Netherlands","placename":"The Netherlands","title":"Netherlands   316919.6M  2.3%"}},{"local_stop_id":94,"id":94,"geometry":"POINT(826504.450192 5425050.538922)","attributes":{"size":"0.45170971303854","address":"Monaco","placename":"Monaco","title":"Monaco   63191.3M  0.5%"}},{"local_stop_id":93,"id":93,"geometry":"POINT(11351890.344374 469131.367658)","attributes":{"size":"0.054608260432999","address":"Malaysia","placename":"Malaysia","title":"Malaysia   7639.3M  0.1%"}},{"local_stop_id":92,"id":92,"geometry":"POINT(682342.058335 6414345.6274)","attributes":{"size":"0.17721933099246","address":"Luxembourg","placename":"Luxembourg","title":"Luxembourg   24791.8M  0.2%"}},{"local_stop_id":91,"id":91,"geometry":"POINT(2658451.372494 7394820.260241)","attributes":{"size":"0.010574099899836","address":"Lithuania","placename":"Lithuania","title":"Lithuania   1479.2M  0%"}},{"local_stop_id":90,"id":90,"geometry":"POINT(2738814.471371 7735556.799888)","attributes":{"size":"0.0079692699009126","address":"Latvia","placename":"Latvia","title":"Latvia   1114.8M  0%"}},{"local_stop_id":89,"id":89,"geometry":"POINT(14222948.697264 4287936.289399)","attributes":{"size":"0.025772422152057","address":"Republic of Korea","placename":"South Korea","title":"Republic of Korea   3605.4M  0%"}},{"local_stop_id":88,"id":88,"geometry":"POINT(1398994.342206 5141815.937641)","attributes":{"size":"0.67183795511503","address":"Italy","placename":"Italy","title":"Italy   93985.8M  0.7%"}},{"local_stop_id":87,"id":87,"geometry":"POINT(8790107.59317 2343495.165705)","attributes":{"size":"0.34171652279916","address":"India","placename":"India","title":"India   47803.9M  0.3%"}},{"local_stop_id":86,"id":86,"geometry":"POINT(2171097.870066 5968637.679129)","attributes":{"size":"0.84087848983198","address":"Hungary","placename":"Hungary","title":"Hungary   117633.4M  0.8%"}},{"local_stop_id":85,"id":85,"geometry":"POINT(1163458.552333 6650655.041174)","attributes":{"size":"14.015979644013","address":"Germany","placename":"Germany","title":"Germany   1960744.5M  14%"}},{"local_stop_id":84,"id":84,"geometry":"POINT(246433.411424 5816903.713427)","attributes":{"size":"15.151220576407","address":"France","placename":"France","title":"France   2119557.4M  15.2%"}},{"local_stop_id":83,"id":83,"geometry":"POINT(2866271.058188 8841170.394214)","attributes":{"size":"0.18147313094753","address":"Finland","placename":"Finland","title":"Finland   25386.9M  0.2%"}},{"local_stop_id":82,"id":82,"geometry":"POINT(2784501.994143 8093419.123256)","attributes":{"size":"1.2659335455591","address":"Estonia","placename":"Estonia","title":"Estonia   177095.9M  1.3%"}},{"local_stop_id":81,"id":81,"geometry":"POINT(1057733.867827 7611135.068229)","attributes":{"size":"0.060249011041573","address":"Denmark","placename":"Denmark","title":"Denmark   8428.4M  0.1%"}},{"local_stop_id":80,"id":80,"geometry":"POINT(1722442.250904 6414728.45895)","attributes":{"size":"0.30743199237336","address":"Czech Republic","placename":"Czech Republic","title":"Czech Republic   43007.7M  0.3%"}},{"local_stop_id":79,"id":79,"geometry":"POINT(11598978.537043 4281602.659627)","attributes":{"size":"0.064245336822738","address":"China","placename":"China","title":"China   8987.5M  0.1%"}},{"local_stop_id":78,"id":78,"geometry":"POINT(-11838468.395229 7584411.732747)","attributes":{"size":"0.0066054899089688","address":"Canada","placename":"Canada","title":"Canada   924.1M  0%"}},{"local_stop_id":77,"id":77,"geometry":"POINT(-5780295.728898 -1601191.813438)","attributes":{"size":"0.56530035748711","address":"Brazil","placename":"Brazil","title":"Brazil   79081.8M  0.6%"}},{"local_stop_id":76,"id":76,"geometry":"POINT(497590.999399 6534001.856289)","attributes":{"size":"9.0774548063133","address":"Belgium","placename":"Belgium","title":"Belgium   1269877M  9.1%"}},{"local_stop_id":75,"id":75,"geometry":"POINT(1619706.606045 6026746.974644)","attributes":{"size":"0.13200586028925","address":"Austria","placename":"Austria","title":"Austria   18466.8M  0.1%"}},{"local_stop_id":74,"id":74,"geometry":"POINT(14891780.020321 -2909486.054997)","attributes":{"size":"0.017477579152205","address":"Australia","placename":"Australia","title":"Australia   2445M  0%"}},{"local_stop_id":73,"id":73,"geometry":"POINT(415264.002065 6630757.048054)","attributes":{"size":"0","address":"Ghent","placename":"Gent, Belgium","title":"VT Ghent 13989.4M 36.9%\/33216 Unit 28.9%"}},{"local_stop_id":72,"id":72,"geometry":"POINT(2075385.037924 8428326.96544)","attributes":{"size":"32.700501919823","address":"Sweden","placename":"Sweden","title":"Sweden   58979.7M  32.7%"}},{"local_stop_id":71,"id":71,"geometry":"POINT(-417361.261272 4933551.652462)","attributes":{"size":"5.9814749638726","address":"Spain","placename":"Spain","title":"Spain   10788.4M  6%"}},{"local_stop_id":70,"id":70,"geometry":"POINT(19468217.238607 -4997684.890551)","attributes":{"size":"5.7292331872093","address":"New Zealand","placename":"New Zealand","title":"New Zealand   10333.4M  5.7%"}},{"local_stop_id":69,"id":69,"geometry":"POINT(1163458.552333 6650655.041174)","attributes":{"size":"18.692109262102","address":"Germany","placename":"Germany","title":"Germany   33713.7M  18.7%"}},{"local_stop_id":68,"id":68,"geometry":"POINT(246433.411424 5816903.713427)","attributes":{"size":"18.692109262102","address":"France","placename":"France","title":"France   33713.7M  18.7%"}},{"local_stop_id":67,"id":67,"geometry":"POINT(497590.999399 6534001.856289)","attributes":{"size":"18.204571404891","address":"Belgium","placename":"Belgium","title":"Belgium   32834.4M  18.2%"}},{"local_stop_id":66,"id":66,"geometry":"POINT(2075385.037924 8428326.96544)","attributes":{"size":"0","address":"Sweden","placename":"Sweden","title":"VT Tuve,Sweden 180.4M 0.5%\/19901 Complete 11459 CKD 27.3%"}},{"local_stop_id":65,"id":65,"geometry":"POINT(682342.058335 6414345.6274)","attributes":{"size":"0.00028113924711681","address":"Luxembourg","placename":"Luxembourg","title":"Luxembourg   32.3M  0%"}},{"local_stop_id":64,"id":64,"geometry":"POINT(915882.446336 5912448.054871)","attributes":{"size":"0.0027620067416793","address":"Switzerland","placename":"Switzerland","title":"Switzerland   317.3M  0%"}},{"local_stop_id":63,"id":63,"geometry":"POINT(2738814.471371 7735556.799888)","attributes":{"size":"0.0036615990863836","address":"Latvia","placename":"Latvia","title":"Latvia   420.7M  0%"}},{"local_stop_id":62,"id":62,"geometry":"POINT(-11838468.395229 7584411.732747)","attributes":{"size":"0.011693768674939","address":"Canada","placename":"Canada","title":"Canada   1343.5M  0%"}},{"local_stop_id":61,"id":61,"geometry":"POINT(2658451.372494 7394820.260241)","attributes":{"size":"0.011987287633221","address":"Lithuania","placename":"Lithuania","title":"Lithuania   1377.2M  0%"}},{"local_stop_id":60,"id":60,"geometry":"POINT(11242438.238039 1789676.623494)","attributes":{"size":"0.013428126274695","address":"Thailand","placename":"Thailand","title":"Thailand   1542.7M  0%"}},{"local_stop_id":59,"id":59,"geometry":"POINT(1669287.305369 5804618.909739)","attributes":{"size":"0.020667994348648","address":"Slovenia","placename":"Slovenia","title":"Slovenia   2374.5M  0%"}},{"local_stop_id":58,"id":58,"geometry":"POINT(2779287.009958 5771245.404432)","attributes":{"size":"0.030857295329025","address":"Romania","placename":"Romania","title":"Romania   3545.2M  0%"}},{"local_stop_id":57,"id":57,"geometry":"POINT(14222948.697264 4287936.289399)","attributes":{"size":"0.032504728720274","address":"South Korea","placename":"South Korea","title":"South Korea   3734.4M  0%"}},{"local_stop_id":56,"id":56,"geometry":"POINT(2553391.487988 -3575670.675527)","attributes":{"size":"0.036736460096147","address":"South Africa","placename":"South Africa","title":"South Africa   4220.6M  0%"}},{"local_stop_id":55,"id":55,"geometry":"POINT(2192885.320804 6218887.493883)","attributes":{"size":"0.043955029742288","address":"Slovak Republic","placename":"Slovakia","title":"Slovak Republic   5050M  0%"}},{"local_stop_id":54,"id":54,"geometry":"POINT(826504.450192 5425050.538922)","attributes":{"size":"0.045919942823108","address":"Monaco","placename":"Monaco","title":"Monaco   5275.7M  0%"}},{"local_stop_id":53,"id":53,"geometry":"POINT(11598978.537043 4281602.659627)","attributes":{"size":"0.048013844507363","address":"China","placename":"China","title":"China   5516.3M  0%"}},{"local_stop_id":52,"id":52,"geometry":"POINT(13465262.935892 2716627.939237)","attributes":{"size":"0.05340900250246","address":"Taiwan","placename":"Taiwan","title":"Taiwan   6136.1M  0.1%"}},{"local_stop_id":51,"id":51,"geometry":"POINT(-11416123.694313 2708933.292233)","attributes":{"size":"0.053593233903033","address":"Mexico","placename":"Mexico","title":"Mexico   6157.3M  0.1%"}},{"local_stop_id":50,"id":50,"geometry":"POINT(1057733.867827 7611135.068229)","attributes":{"size":"0.092098927774478","address":"Denmark","placename":"Denmark","title":"Denmark   10581.2M  0.1%"}},{"local_stop_id":49,"id":49,"geometry":"POINT(2866271.058188 8841170.394214)","attributes":{"size":"0.094489942526709","address":"Finland","placename":"Finland","title":"Finland   10855.9M  0.1%"}},{"local_stop_id":48,"id":48,"geometry":"POINT(1619706.606045 6026746.974644)","attributes":{"size":"0.12830718686089","address":"Austria","placename":"Austria","title":"Austria   14741.1M  0.1%"}},{"local_stop_id":47,"id":47,"geometry":"POINT(3923268.658903 4716479.684629)","attributes":{"size":"0.22427484093222","address":"Turkey","placename":"Turkey","title":"Turkey   25766.7M  0.2%"}},{"local_stop_id":46,"id":46,"geometry":"POINT(2784501.994143 8093419.123256)","attributes":{"size":"0.26686410899107","address":"Estonia","placename":"Estonia","title":"Estonia   30659.8M  0.3%"}},{"local_stop_id":45,"id":45,"geometry":"POINT(-10654710.288472 4451692.554811)","attributes":{"size":"0.29821086881425","address":"USA","placename":"United States","title":"USA   34261.2M  0.3%"}},{"local_stop_id":44,"id":44,"geometry":"POINT(1722442.250904 6414728.45895)","attributes":{"size":"0.34568133718206","address":"Czech Republic","placename":"Czech Republic","title":"Czech Republic   39715M  0.3%"}},{"local_stop_id":43,"id":43,"geometry":"POINT(-915542.031333 4779112.741647)","attributes":{"size":"0.35646566298943","address":"Portugal","placename":"Portugal","title":"Portugal   40954M  0.4%"}},{"local_stop_id":42,"id":42,"geometry":"POINT(2171097.870066 5968637.679129)","attributes":{"size":"0.40086689479438","address":"Hungary","placename":"Hungary","title":"Hungary   46055.2M  0.4%"}},{"local_stop_id":41,"id":41,"geometry":"POINT(8790107.59317 2343495.165705)","attributes":{"size":"0.50709027431783","address":"India","placename":"India","title":"India   58259.1M  0.5%"}},{"local_stop_id":40,"id":40,"geometry":"POINT(-7081775.533003 -4638374.275084)","attributes":{"size":"0.62157225234051","address":"Argentina","placename":"Argentina","title":"Argentina   71411.9M  0.6%"}},{"local_stop_id":39,"id":39,"geometry":"POINT(1398994.342206 5141815.937641)","attributes":{"size":"0.66138287426095","address":"Italy","placename":"Italy","title":"Italy   75985.7M  0.7%"}},{"local_stop_id":38,"id":38,"geometry":"POINT(589021.036772 6824142.821624)","attributes":{"size":"0.69863928222605","address":"Netherlands","placename":"The Netherlands","title":"Netherlands   80266M  0.7%"}},{"local_stop_id":37,"id":37,"geometry":"POINT(-417361.261272 4933551.652462)","attributes":{"size":"0.72781786209798","address":"Spain","placename":"Spain","title":"Spain   83618.3M  0.7%"}},{"local_stop_id":36,"id":36,"geometry":"POINT(2131226.790688 6785571.898792)","attributes":{"size":"0.81517456180497","address":"Poland","placename":"Poland","title":"Poland   93654.7M  0.8%"}},{"local_stop_id":35,"id":35,"geometry":"POINT(942758.756276 8505587.038689)","attributes":{"size":"1.1156920503512","address":"Norway","placename":"Norway","title":"Norway   128180.8M  1.1%"}},{"local_stop_id":34,"id":34,"geometry":"POINT(497590.999399 6534001.856289)","attributes":{"size":"1.3879232300357","address":"Belgium","placename":"Belgium","title":"Belgium   159457.2M  1.4%"}},{"local_stop_id":33,"id":33,"geometry":"POINT(-382490.764739 7435586.530983)","attributes":{"size":"2.8495020142823","address":"Great Britain","placename":"United Kingdom","title":"Great Britain   327376.7M  2.8%"}},{"local_stop_id":32,"id":32,"geometry":"POINT(1163458.552333 6650655.041174)","attributes":{"size":"7.2794673089776","address":"Germany","placename":"Germany","title":"Germany   836331.4M  7.3%"}},{"local_stop_id":31,"id":31,"geometry":"POINT(246433.411424 5816903.713427)","attributes":{"size":"7.6981166604976","address":"France","placename":"France","title":"France   884429.6M  7.7%"}},{"local_stop_id":30,"id":30,"geometry":"POINT(2075385.037924 8428326.96544)","attributes":{"size":"7.85034366226","address":"Sweden","placename":"Sweden","title":"Sweden   901918.8M  7.9%"}},{"local_stop_id":29,"id":29,"geometry":"POINT(-5780295.728898 -1601191.813438)","attributes":{"size":"65.170546736051","address":"Brazil","placename":"Brazil","title":"Brazil   7487384.7M  65.2%"}},{"local_stop_id":28,"id":28,"geometry":"POINT(-5485073.266709 -2928450.962028)","attributes":{"size":"0","address":"Curitiba, Brazil","placename":"Curitiba - Paran\u00e1, Brazil","title":"VT Curitiba, Brazil 11488.9M 30.3%\/25245 Unit 21.9%"}},{"local_stop_id":27,"id":27,"geometry":"POINT(-10654710.288472 4451692.554811)","attributes":{"size":"92.09856892095","address":"USA","placename":"United States","title":"USA   11328073.7M  92.1%"}},{"local_stop_id":26,"id":26,"geometry":"POINT(915882.446336 5912448.054871)","attributes":{"size":"0.033150539589983","address":"Switzerland","placename":"Switzerland","title":"Switzerland   4077.5M  0%"}},{"local_stop_id":25,"id":25,"geometry":"POINT(2075385.037924 8428326.96544)","attributes":{"size":"1.953135157216","address":"Sweden","placename":"Sweden","title":"Sweden   240234.6M  2%"}},{"local_stop_id":24,"id":24,"geometry":"POINT(-417361.261272 4933551.652462)","attributes":{"size":"0.042235938581262","address":"Spain","placename":"Spain","title":"Spain   5195M  0%"}},{"local_stop_id":23,"id":23,"geometry":"POINT(14222948.697264 4287936.289399)","attributes":{"size":"0.021065912789235","address":"South Korea","placename":"South Korea","title":"South Korea   2591.1M  0%"}},{"local_stop_id":22,"id":22,"geometry":"POINT(2192885.320804 6218887.493883)","attributes":{"size":"0.010881742114426","address":"Slovak Republic","placename":"Slovakia","title":"Slovak Republic   1338.4M  0%"}},{"local_stop_id":21,"id":21,"geometry":"POINT(2779287.009958 5771245.404432)","attributes":{"size":"0.00010053277573636","address":"Romania","placename":"Romania","title":"Romania   12.4M  0%"}},{"local_stop_id":20,"id":20,"geometry":"POINT(2131226.790688 6785571.898792)","attributes":{"size":"0.052414094474616","address":"Poland","placename":"Poland","title":"Poland   6446.9M  0.1%"}},{"local_stop_id":19,"id":19,"geometry":"POINT(942758.756276 8505587.038689)","attributes":{"size":"2.0049271514374E-5","address":"Norway","placename":"Norway","title":"Norway   2.5M  0%"}},{"local_stop_id":18,"id":18,"geometry":"POINT(589021.036772 6824142.821624)","attributes":{"size":"0.1433218593978","address":"Netherlands","placename":"The Netherlands","title":"Netherlands   17628.5M  0.1%"}},{"local_stop_id":17,"id":17,"geometry":"POINT(-11416123.694313 2708933.292233)","attributes":{"size":"2.2391272030829","address":"Mexico","placename":"Mexico","title":"Mexico   275411.4M  2.2%"}},{"local_stop_id":16,"id":16,"geometry":"POINT(11351890.344374 469131.367658)","attributes":{"size":"0.050335844273069","address":"Malaysia","placename":"Malaysia","title":"Malaysia   6191.3M  0.1%"}},{"local_stop_id":15,"id":15,"geometry":"POINT(1398994.342206 5141815.937641)","attributes":{"size":"0.10233871386802","address":"Italy","placename":"Italy","title":"Italy   12587.6M  0.1%"}},{"local_stop_id":14,"id":14,"geometry":"POINT(8790107.59317 2343495.165705)","attributes":{"size":"0.0045624265467191","address":"India","placename":"India","title":"India   561.2M  0%"}},{"local_stop_id":13,"id":13,"geometry":"POINT(2171097.870066 5968637.679129)","attributes":{"size":"0.044677796642631","address":"Hungary","placename":"Hungary","title":"Hungary   5495.3M  0%"}},{"local_stop_id":12,"id":12,"geometry":"POINT(-382490.764739 7435586.530983)","attributes":{"size":"0.012497856607567","address":"Great Britain","placename":"United Kingdom","title":"Great Britain   1537.2M  0%"}},{"local_stop_id":11,"id":11,"geometry":"POINT(1163458.552333 6650655.041174)","attributes":{"size":"0.48662768367465","address":"Germany","placename":"Germany","title":"Germany   59854.9M  0.5%"}},{"local_stop_id":10,"id":10,"geometry":"POINT(246433.411424 5816903.713427)","attributes":{"size":"0.59307921917568","address":"France","placename":"France","title":"France   72948.4M  0.6%"}},{"local_stop_id":9,"id":9,"geometry":"POINT(2784501.994143 8093419.123256)","attributes":{"size":"0.14951314604598","address":"Estonia","placename":"Estonia","title":"Estonia   18390M  0.1%"}},{"local_stop_id":8,"id":8,"geometry":"POINT(1057733.867827 7611135.068229)","attributes":{"size":"0.0031413628235968","address":"Denmark","placename":"Denmark","title":"Denmark   386.4M  0%"}},{"local_stop_id":7,"id":7,"geometry":"POINT(1722442.250904 6414728.45895)","attributes":{"size":"0.044921753314236","address":"Czech Republic","placename":"Czech Republic","title":"Czech Republic   5525.4M  0%"}},{"local_stop_id":6,"id":6,"geometry":"POINT(11598978.537043 4281602.659627)","attributes":{"size":"0.073760195833264","address":"China","placename":"China","title":"China   9072.5M  0.1%"}},{"local_stop_id":5,"id":5,"geometry":"POINT(-11838468.395229 7584411.732747)","attributes":{"size":"1.2811563978726","address":"Canada","placename":"Canada","title":"Canada   157581.5M  1.3%"}},{"local_stop_id":4,"id":4,"geometry":"POINT(-5780295.728898 -1601191.813438)","attributes":{"size":"0.4917771242495","address":"Brazil","placename":"Brazil","title":"Brazil   60488.3M  0.5%"}},{"local_stop_id":3,"id":3,"geometry":"POINT(497590.999399 6534001.856289)","attributes":{"size":"0.067548143868159","address":"Belgium","placename":"Belgium","title":"Belgium   8308.4M  0.1%"}},{"local_stop_id":2,"id":2,"geometry":"POINT(14891780.020321 -2909486.054997)","attributes":{"size":"4.0384961193239E-5","address":"Australia","placename":"Australia","title":"Australia   5M  0%"}},{"local_stop_id":1,"id":1,"geometry":"POINT(-8981252.231401 4458348.085166)","attributes":{"size":"0","address":"New River Valley, USA","placename":"New River Valley Airport (PSK), Dublin, VA 24084, USA","title":"VT New River Valley, USA 12299.9M 32.4%\/25208 Unit 21.9%"}}],"hops":[{"from_stop_id":2,"to_stop_id":1,"geometry":"MULTILINESTRING((14891780.020321 -2909486.054997,-8981252.231401 4458348.085166))","attributes":{}},{"from_stop_id":3,"to_stop_id":1,"geometry":"MULTILINESTRING((497590.999399 6534001.856289,-8981252.231401 4458348.085166))","attributes":{}},{"from_stop_id":4,"to_stop_id":1,"geometry":"MULTILINESTRING((-5780295.728898 -1601191.813438,-8981252.231401 4458348.085166))","attributes":{}},{"from_stop_id":5,"to_stop_id":1,"geometry":"MULTILINESTRING((-11838468.395229 7584411.732747,-8981252.231401 4458348.085166))","attributes":{}},{"from_stop_id":6,"to_stop_id":1,"geometry":"MULTILINESTRING((11598978.537043 4281602.659627,-8981252.231401 4458348.085166))","attributes":{}},{"from_stop_id":7,"to_stop_id":1,"geometry":"MULTILINESTRING((1722442.250904 6414728.45895,-8981252.231401 4458348.085166))","attributes":{}},{"from_stop_id":8,"to_stop_id":1,"geometry":"MULTILINESTRING((1057733.867827 7611135.068229,-8981252.231401 4458348.085166))","attributes":{}},{"from_stop_id":9,"to_stop_id":1,"geometry":"MULTILINESTRING((2784501.994143 8093419.123256,-8981252.231401 4458348.085166))","attributes":{}},{"from_stop_id":10,"to_stop_id":1,"geometry":"MULTILINESTRING((246433.411424 5816903.713427,-8981252.231401 4458348.085166))","attributes":{}},{"from_stop_id":11,"to_stop_id":1,"geometry":"MULTILINESTRING((1163458.552333 6650655.041174,-8981252.231401 4458348.085166))","attributes":{}},{"from_stop_id":12,"to_stop_id":1,"geometry":"MULTILINESTRING((-382490.764739 7435586.530983,-8981252.231401 4458348.085166))","attributes":{}},{"from_stop_id":13,"to_stop_id":1,"geometry":"MULTILINESTRING((2171097.870066 5968637.679129,-8981252.231401 4458348.085166))","attributes":{}},{"from_stop_id":14,"to_stop_id":1,"geometry":"MULTILINESTRING((8790107.59317 2343495.165705,-8981252.231401 4458348.085166))","attributes":{}},{"from_stop_id":15,"to_stop_id":1,"geometry":"MULTILINESTRING((1398994.342206 5141815.937641,-8981252.231401 4458348.085166))","attributes":{}},{"from_stop_id":16,"to_stop_id":1,"geometry":"MULTILINESTRING((11351890.344374 469131.367658,-8981252.231401 4458348.085166))","attributes":{}},{"from_stop_id":17,"to_stop_id":1,"geometry":"MULTILINESTRING((-11416123.694313 2708933.292233,-8981252.231401 4458348.085166))","attributes":{}},{"from_stop_id":18,"to_stop_id":1,"geometry":"MULTILINESTRING((589021.036772 6824142.821624,-8981252.231401 4458348.085166))","attributes":{}},{"from_stop_id":19,"to_stop_id":1,"geometry":"MULTILINESTRING((942758.756276 8505587.038689,-8981252.231401 4458348.085166))","attributes":{}},{"from_stop_id":20,"to_stop_id":1,"geometry":"MULTILINESTRING((2131226.790688 6785571.898792,-8981252.231401 4458348.085166))","attributes":{}},{"from_stop_id":21,"to_stop_id":1,"geometry":"MULTILINESTRING((2779287.009958 5771245.404432,-8981252.231401 4458348.085166))","attributes":{}},{"from_stop_id":22,"to_stop_id":1,"geometry":"MULTILINESTRING((2192885.320804 6218887.493883,-8981252.231401 4458348.085166))","attributes":{}},{"from_stop_id":23,"to_stop_id":1,"geometry":"MULTILINESTRING((14222948.697264 4287936.289399,-8981252.231401 4458348.085166))","attributes":{}},{"from_stop_id":24,"to_stop_id":1,"geometry":"MULTILINESTRING((-417361.261272 4933551.652462,-8981252.231401 4458348.085166))","attributes":{}},{"from_stop_id":25,"to_stop_id":1,"geometry":"MULTILINESTRING((2075385.037924 8428326.96544,-8981252.231401 4458348.085166))","attributes":{}},{"from_stop_id":26,"to_stop_id":1,"geometry":"MULTILINESTRING((915882.446336 5912448.054871,-8981252.231401 4458348.085166))","attributes":{}},{"from_stop_id":27,"to_stop_id":1,"geometry":"MULTILINESTRING((-10654710.288472 4451692.554811,-8981252.231401 4458348.085166))","attributes":{}},{"from_stop_id":29,"to_stop_id":28,"geometry":"MULTILINESTRING((-5780295.728898 -1601191.813438,-5485073.266709 -2928450.962028))","attributes":{}},{"from_stop_id":30,"to_stop_id":28,"geometry":"MULTILINESTRING((2075385.037924 8428326.96544,-5485073.266709 -2928450.962028))","attributes":{}},{"from_stop_id":31,"to_stop_id":28,"geometry":"MULTILINESTRING((246433.411424 5816903.713427,-5485073.266709 -2928450.962028))","attributes":{}},{"from_stop_id":32,"to_stop_id":28,"geometry":"MULTILINESTRING((1163458.552333 6650655.041174,-5485073.266709 -2928450.962028))","attributes":{}},{"from_stop_id":33,"to_stop_id":28,"geometry":"MULTILINESTRING((-382490.764739 7435586.530983,-5485073.266709 -2928450.962028))","attributes":{}},{"from_stop_id":34,"to_stop_id":28,"geometry":"MULTILINESTRING((497590.999399 6534001.856289,-5485073.266709 -2928450.962028))","attributes":{}},{"from_stop_id":35,"to_stop_id":28,"geometry":"MULTILINESTRING((942758.756276 8505587.038689,-5485073.266709 -2928450.962028))","attributes":{}},{"from_stop_id":36,"to_stop_id":28,"geometry":"MULTILINESTRING((2131226.790688 6785571.898792,-5485073.266709 -2928450.962028))","attributes":{}},{"from_stop_id":37,"to_stop_id":28,"geometry":"MULTILINESTRING((-417361.261272 4933551.652462,-5485073.266709 -2928450.962028))","attributes":{}},{"from_stop_id":38,"to_stop_id":28,"geometry":"MULTILINESTRING((589021.036772 6824142.821624,-5485073.266709 -2928450.962028))","attributes":{}},{"from_stop_id":39,"to_stop_id":28,"geometry":"MULTILINESTRING((1398994.342206 5141815.937641,-5485073.266709 -2928450.962028))","attributes":{}},{"from_stop_id":40,"to_stop_id":28,"geometry":"MULTILINESTRING((-7081775.533003 -4638374.275084,-5485073.266709 -2928450.962028))","attributes":{}},{"from_stop_id":41,"to_stop_id":28,"geometry":"MULTILINESTRING((8790107.59317 2343495.165705,-5485073.266709 -2928450.962028))","attributes":{}},{"from_stop_id":42,"to_stop_id":28,"geometry":"MULTILINESTRING((2171097.870066 5968637.679129,-5485073.266709 -2928450.962028))","attributes":{}},{"from_stop_id":43,"to_stop_id":28,"geometry":"MULTILINESTRING((-915542.031333 4779112.741647,-5485073.266709 -2928450.962028))","attributes":{}},{"from_stop_id":44,"to_stop_id":28,"geometry":"MULTILINESTRING((1722442.250904 6414728.45895,-5485073.266709 -2928450.962028))","attributes":{}},{"from_stop_id":45,"to_stop_id":28,"geometry":"MULTILINESTRING((-10654710.288472 4451692.554811,-5485073.266709 -2928450.962028))","attributes":{}},{"from_stop_id":46,"to_stop_id":28,"geometry":"MULTILINESTRING((2784501.994143 8093419.123256,-5485073.266709 -2928450.962028))","attributes":{}},{"from_stop_id":47,"to_stop_id":28,"geometry":"MULTILINESTRING((3923268.658903 4716479.684629,-5485073.266709 -2928450.962028))","attributes":{}},{"from_stop_id":48,"to_stop_id":28,"geometry":"MULTILINESTRING((1619706.606045 6026746.974644,-5485073.266709 -2928450.962028))","attributes":{}},{"from_stop_id":49,"to_stop_id":28,"geometry":"MULTILINESTRING((2866271.058188 8841170.394214,-5485073.266709 -2928450.962028))","attributes":{}},{"from_stop_id":50,"to_stop_id":28,"geometry":"MULTILINESTRING((1057733.867827 7611135.068229,-5485073.266709 -2928450.962028))","attributes":{}},{"from_stop_id":51,"to_stop_id":28,"geometry":"MULTILINESTRING((-11416123.694313 2708933.292233,-5485073.266709 -2928450.962028))","attributes":{}},{"from_stop_id":52,"to_stop_id":28,"geometry":"MULTILINESTRING((13465262.935892 2716627.939237,-5485073.266709 -2928450.962028))","attributes":{}},{"from_stop_id":53,"to_stop_id":28,"geometry":"MULTILINESTRING((11598978.537043 4281602.659627,-5485073.266709 -2928450.962028))","attributes":{}},{"from_stop_id":54,"to_stop_id":28,"geometry":"MULTILINESTRING((826504.450192 5425050.538922,-5485073.266709 -2928450.962028))","attributes":{}},{"from_stop_id":55,"to_stop_id":28,"geometry":"MULTILINESTRING((2192885.320804 6218887.493883,-5485073.266709 -2928450.962028))","attributes":{}},{"from_stop_id":56,"to_stop_id":28,"geometry":"MULTILINESTRING((2553391.487988 -3575670.675527,-5485073.266709 -2928450.962028))","attributes":{}},{"from_stop_id":57,"to_stop_id":28,"geometry":"MULTILINESTRING((14222948.697264 4287936.289399,-5485073.266709 -2928450.962028))","attributes":{}},{"from_stop_id":58,"to_stop_id":28,"geometry":"MULTILINESTRING((2779287.009958 5771245.404432,-5485073.266709 -2928450.962028))","attributes":{}},{"from_stop_id":59,"to_stop_id":28,"geometry":"MULTILINESTRING((1669287.305369 5804618.909739,-5485073.266709 -2928450.962028))","attributes":{}},{"from_stop_id":60,"to_stop_id":28,"geometry":"MULTILINESTRING((11242438.238039 1789676.623494,-5485073.266709 -2928450.962028))","attributes":{}},{"from_stop_id":61,"to_stop_id":28,"geometry":"MULTILINESTRING((2658451.372494 7394820.260241,-5485073.266709 -2928450.962028))","attributes":{}},{"from_stop_id":62,"to_stop_id":28,"geometry":"MULTILINESTRING((-11838468.395229 7584411.732747,-5485073.266709 -2928450.962028))","attributes":{}},{"from_stop_id":63,"to_stop_id":28,"geometry":"MULTILINESTRING((2738814.471371 7735556.799888,-5485073.266709 -2928450.962028))","attributes":{}},{"from_stop_id":64,"to_stop_id":28,"geometry":"MULTILINESTRING((915882.446336 5912448.054871,-5485073.266709 -2928450.962028))","attributes":{}},{"from_stop_id":65,"to_stop_id":28,"geometry":"MULTILINESTRING((682342.058335 6414345.6274,-5485073.266709 -2928450.962028))","attributes":{}},{"from_stop_id":67,"to_stop_id":66,"geometry":"MULTILINESTRING((497590.999399 6534001.856289,2075385.037924 8428326.96544))","attributes":{}},{"from_stop_id":68,"to_stop_id":66,"geometry":"MULTILINESTRING((246433.411424 5816903.713427,2075385.037924 8428326.96544))","attributes":{}},{"from_stop_id":69,"to_stop_id":66,"geometry":"MULTILINESTRING((1163458.552333 6650655.041174,2075385.037924 8428326.96544))","attributes":{}},{"from_stop_id":70,"to_stop_id":66,"geometry":"MULTILINESTRING((19468217.238607 -4997684.890551,2075385.037924 8428326.96544))","attributes":{}},{"from_stop_id":71,"to_stop_id":66,"geometry":"MULTILINESTRING((-417361.261272 4933551.652462,2075385.037924 8428326.96544))","attributes":{}},{"from_stop_id":72,"to_stop_id":66,"geometry":"MULTILINESTRING((2075385.037924 8428326.96544,2075385.037924 8428326.96544))","attributes":{}},{"from_stop_id":74,"to_stop_id":73,"geometry":"MULTILINESTRING((14891780.020321 -2909486.054997,415264.002065 6630757.048054))","attributes":{}},{"from_stop_id":75,"to_stop_id":73,"geometry":"MULTILINESTRING((1619706.606045 6026746.974644,415264.002065 6630757.048054))","attributes":{}},{"from_stop_id":76,"to_stop_id":73,"geometry":"MULTILINESTRING((497590.999399 6534001.856289,415264.002065 6630757.048054))","attributes":{}},{"from_stop_id":77,"to_stop_id":73,"geometry":"MULTILINESTRING((-5780295.728898 -1601191.813438,415264.002065 6630757.048054))","attributes":{}},{"from_stop_id":78,"to_stop_id":73,"geometry":"MULTILINESTRING((-11838468.395229 7584411.732747,415264.002065 6630757.048054))","attributes":{}},{"from_stop_id":79,"to_stop_id":73,"geometry":"MULTILINESTRING((11598978.537043 4281602.659627,415264.002065 6630757.048054))","attributes":{}},{"from_stop_id":80,"to_stop_id":73,"geometry":"MULTILINESTRING((1722442.250904 6414728.45895,415264.002065 6630757.048054))","attributes":{}},{"from_stop_id":81,"to_stop_id":73,"geometry":"MULTILINESTRING((1057733.867827 7611135.068229,415264.002065 6630757.048054))","attributes":{}},{"from_stop_id":82,"to_stop_id":73,"geometry":"MULTILINESTRING((2784501.994143 8093419.123256,415264.002065 6630757.048054))","attributes":{}},{"from_stop_id":83,"to_stop_id":73,"geometry":"MULTILINESTRING((2866271.058188 8841170.394214,415264.002065 6630757.048054))","attributes":{}},{"from_stop_id":84,"to_stop_id":73,"geometry":"MULTILINESTRING((246433.411424 5816903.713427,415264.002065 6630757.048054))","attributes":{}},{"from_stop_id":85,"to_stop_id":73,"geometry":"MULTILINESTRING((1163458.552333 6650655.041174,415264.002065 6630757.048054))","attributes":{}},{"from_stop_id":86,"to_stop_id":73,"geometry":"MULTILINESTRING((2171097.870066 5968637.679129,415264.002065 6630757.048054))","attributes":{}},{"from_stop_id":87,"to_stop_id":73,"geometry":"MULTILINESTRING((8790107.59317 2343495.165705,415264.002065 6630757.048054))","attributes":{}},{"from_stop_id":88,"to_stop_id":73,"geometry":"MULTILINESTRING((1398994.342206 5141815.937641,415264.002065 6630757.048054))","attributes":{}},{"from_stop_id":89,"to_stop_id":73,"geometry":"MULTILINESTRING((14222948.697264 4287936.289399,415264.002065 6630757.048054))","attributes":{}},{"from_stop_id":90,"to_stop_id":73,"geometry":"MULTILINESTRING((2738814.471371 7735556.799888,415264.002065 6630757.048054))","attributes":{}},{"from_stop_id":91,"to_stop_id":73,"geometry":"MULTILINESTRING((2658451.372494 7394820.260241,415264.002065 6630757.048054))","attributes":{}},{"from_stop_id":92,"to_stop_id":73,"geometry":"MULTILINESTRING((682342.058335 6414345.6274,415264.002065 6630757.048054))","attributes":{}},{"from_stop_id":93,"to_stop_id":73,"geometry":"MULTILINESTRING((11351890.344374 469131.367658,415264.002065 6630757.048054))","attributes":{}},{"from_stop_id":94,"to_stop_id":73,"geometry":"MULTILINESTRING((826504.450192 5425050.538922,415264.002065 6630757.048054))","attributes":{}},{"from_stop_id":95,"to_stop_id":73,"geometry":"MULTILINESTRING((589021.036772 6824142.821624,415264.002065 6630757.048054))","attributes":{}},{"from_stop_id":96,"to_stop_id":73,"geometry":"MULTILINESTRING((942758.756276 8505587.038689,415264.002065 6630757.048054))","attributes":{}},{"from_stop_id":97,"to_stop_id":73,"geometry":"MULTILINESTRING((2131226.790688 6785571.898792,415264.002065 6630757.048054))","attributes":{}},{"from_stop_id":98,"to_stop_id":73,"geometry":"MULTILINESTRING((-915542.031333 4779112.741647,415264.002065 6630757.048054))","attributes":{}},{"from_stop_id":99,"to_stop_id":73,"geometry":"MULTILINESTRING((2779287.009958 5771245.404432,415264.002065 6630757.048054))","attributes":{}},{"from_stop_id":100,"to_stop_id":73,"geometry":"MULTILINESTRING((2192885.320804 6218887.493883,415264.002065 6630757.048054))","attributes":{}},{"from_stop_id":101,"to_stop_id":73,"geometry":"MULTILINESTRING((1669287.305369 5804618.909739,415264.002065 6630757.048054))","attributes":{}},{"from_stop_id":102,"to_stop_id":73,"geometry":"MULTILINESTRING((2553391.487988 -3575670.675527,415264.002065 6630757.048054))","attributes":{}},{"from_stop_id":103,"to_stop_id":73,"geometry":"MULTILINESTRING((-417361.261272 4933551.652462,415264.002065 6630757.048054))","attributes":{}},{"from_stop_id":104,"to_stop_id":73,"geometry":"MULTILINESTRING((2075385.037924 8428326.96544,415264.002065 6630757.048054))","attributes":{}},{"from_stop_id":105,"to_stop_id":73,"geometry":"MULTILINESTRING((915882.446336 5912448.054871,415264.002065 6630757.048054))","attributes":{}},{"from_stop_id":106,"to_stop_id":73,"geometry":"MULTILINESTRING((11242438.238039 1789676.623494,415264.002065 6630757.048054))","attributes":{}},{"from_stop_id":107,"to_stop_id":73,"geometry":"MULTILINESTRING((3923268.658903 4716479.684629,415264.002065 6630757.048054))","attributes":{}},{"from_stop_id":108,"to_stop_id":73,"geometry":"MULTILINESTRING((-382490.764739 7435586.530983,415264.002065 6630757.048054))","attributes":{}},{"from_stop_id":109,"to_stop_id":73,"geometry":"MULTILINESTRING((-10654710.288472 4451692.554811,415264.002065 6630757.048054))","attributes":{}},{"from_stop_id":110,"to_stop_id":73,"geometry":"MULTILINESTRING((12702611.100717 2559188.1802,415264.002065 6630757.048054))","attributes":{}},{"from_stop_id":1,"to_stop_id":111,"geometry":"MULTILINESTRING((-8981252.231401 4458348.085166,-11838468.395229 7584411.732747))","attributes":{}},{"from_stop_id":1,"to_stop_id":112,"geometry":"MULTILINESTRING((-8981252.231401 4458348.085166,-10654710.288472 4451692.554811))","attributes":{}},{"from_stop_id":1,"to_stop_id":113,"geometry":"MULTILINESTRING((-8981252.231401 4458348.085166,-11416123.694313 2708933.292233))","attributes":{}},{"from_stop_id":28,"to_stop_id":114,"geometry":"MULTILINESTRING((-5485073.266709 -2928450.962028,-5780295.728898 -1601191.813438))","attributes":{}},{"from_stop_id":28,"to_stop_id":115,"geometry":"MULTILINESTRING((-5485073.266709 -2928450.962028,-7081775.533003 -4638374.275084))","attributes":{}},{"from_stop_id":28,"to_stop_id":116,"geometry":"MULTILINESTRING((-5485073.266709 -2928450.962028,-7964126.878919 -4256013.675159))","attributes":{}},{"from_stop_id":28,"to_stop_id":117,"geometry":"MULTILINESTRING((-5485073.266709 -2928450.962028,-8350648.52242 -1027437.355768))","attributes":{}},{"from_stop_id":28,"to_stop_id":118,"geometry":"MULTILINESTRING((-5485073.266709 -2928450.962028,0 0))","attributes":{}},{"from_stop_id":119,"to_stop_id":120,"geometry":"MULTILINESTRING((1328517.972584 7916213.608221,184748.721227 3253246.71111))","attributes":{}},{"from_stop_id":119,"to_stop_id":121,"geometry":"MULTILINESTRING((1328517.972584 7916213.608221,1989711.999337 -1255100.642297))","attributes":{}},{"from_stop_id":119,"to_stop_id":122,"geometry":"MULTILINESTRING((1328517.972584 7916213.608221,14891780.020321 -2909486.054997))","attributes":{}},{"from_stop_id":119,"to_stop_id":123,"geometry":"MULTILINESTRING((1328517.972584 7916213.608221,1619706.606045 6026746.974644))","attributes":{}},{"from_stop_id":119,"to_stop_id":124,"geometry":"MULTILINESTRING((1328517.972584 7916213.608221,10058420.756868 2715069.967281))","attributes":{}},{"from_stop_id":119,"to_stop_id":125,"geometry":"MULTILINESTRING((1328517.972584 7916213.608221,3111757.029426 7115387.658402))","attributes":{}},{"from_stop_id":119,"to_stop_id":126,"geometry":"MULTILINESTRING((1328517.972584 7916213.608221,497590.999399 6534001.856289))","attributes":{}},{"from_stop_id":119,"to_stop_id":127,"geometry":"MULTILINESTRING((1328517.972584 7916213.608221,1968025.738016 5452434.561675))","attributes":{}},{"from_stop_id":119,"to_stop_id":128,"geometry":"MULTILINESTRING((1328517.972584 7916213.608221,2837069.618044 5271553.447419))","attributes":{}},{"from_stop_id":119,"to_stop_id":129,"geometry":"MULTILINESTRING((1328517.972584 7916213.608221,-7964126.878919 -4256013.675159))","attributes":{}},{"from_stop_id":119,"to_stop_id":130,"geometry":"MULTILINESTRING((1328517.972584 7916213.608221,11598978.537043 4281602.659627))","attributes":{}},{"from_stop_id":119,"to_stop_id":131,"geometry":"MULTILINESTRING((1328517.972584 7916213.608221,-8270741.276858 509367.281339))","attributes":{}},{"from_stop_id":119,"to_stop_id":132,"geometry":"MULTILINESTRING((1328517.972584 7916213.608221,1761926.94033 -25383.248614))","attributes":{}},{"from_stop_id":119,"to_stop_id":133,"geometry":"MULTILINESTRING((1328517.972584 7916213.608221,1692056.260058 5637278.201891))","attributes":{}},{"from_stop_id":119,"to_stop_id":134,"geometry":"MULTILINESTRING((1328517.972584 7916213.608221,1722442.250904 6414728.45895))","attributes":{}},{"from_stop_id":119,"to_stop_id":135,"geometry":"MULTILINESTRING((1328517.972584 7916213.608221,1057733.867827 7611135.068229))","attributes":{}},{"from_stop_id":119,"to_stop_id":136,"geometry":"MULTILINESTRING((1328517.972584 7916213.608221,0 0))","attributes":{}},{"from_stop_id":119,"to_stop_id":137,"geometry":"MULTILINESTRING((1328517.972584 7916213.608221,-8703336.944404 -203887.308284))","attributes":{}},{"from_stop_id":119,"to_stop_id":138,"geometry":"MULTILINESTRING((1328517.972584 7916213.608221,3428918.392521 3101070.050794))","attributes":{}},{"from_stop_id":119,"to_stop_id":139,"geometry":"MULTILINESTRING((1328517.972584 7916213.608221,2784501.994143 8093419.123256))","attributes":{}},{"from_stop_id":119,"to_stop_id":140,"geometry":"MULTILINESTRING((1328517.972584 7916213.608221,4507289.780746 1022366.88618))","attributes":{}},{"from_stop_id":119,"to_stop_id":141,"geometry":"MULTILINESTRING((1328517.972584 7916213.608221,0 0))","attributes":{}},{"from_stop_id":119,"to_stop_id":142,"geometry":"MULTILINESTRING((1328517.972584 7916213.608221,2866271.058188 8841170.394214))","attributes":{}},{"from_stop_id":119,"to_stop_id":143,"geometry":"MULTILINESTRING((1328517.972584 7916213.608221,246433.411424 5816903.713427))","attributes":{}},{"from_stop_id":119,"to_stop_id":144,"geometry":"MULTILINESTRING((1328517.972584 7916213.608221,-382490.764739 7435586.530983))","attributes":{}},{"from_stop_id":119,"to_stop_id":145,"geometry":"MULTILINESTRING((1328517.972584 7916213.608221,1163458.552333 6650655.041174))","attributes":{}},{"from_stop_id":119,"to_stop_id":146,"geometry":"MULTILINESTRING((1328517.972584 7916213.608221,-113901.435063 887453.057712))","attributes":{}},{"from_stop_id":119,"to_stop_id":147,"geometry":"MULTILINESTRING((1328517.972584 7916213.608221,2429471.298754 4732306.812978))","attributes":{}},{"from_stop_id":119,"to_stop_id":148,"geometry":"MULTILINESTRING((1328517.972584 7916213.608221,12702611.100717 2559188.1802))","attributes":{}},{"from_stop_id":119,"to_stop_id":149,"geometry":"MULTILINESTRING((1328517.972584 7916213.608221,2171097.870066 5968637.679129))","attributes":{}},{"from_stop_id":119,"to_stop_id":150,"geometry":"MULTILINESTRING((1328517.972584 7916213.608221,-2117389.666663 9598645.705352))","attributes":{}},{"from_stop_id":119,"to_stop_id":151,"geometry":"MULTILINESTRING((1328517.972584 7916213.608221,8790107.59317 2343495.165705))","attributes":{}},{"from_stop_id":119,"to_stop_id":152,"geometry":"MULTILINESTRING((1328517.972584 7916213.608221,12681664.112134 -87864.470043))","attributes":{}},{"from_stop_id":119,"to_stop_id":153,"geometry":"MULTILINESTRING((1328517.972584 7916213.608221,5976525.942406 3819612.201442))","attributes":{}},{"from_stop_id":119,"to_stop_id":154,"geometry":"MULTILINESTRING((1328517.972584 7916213.608221,4862356.432331 3924966.445386))","attributes":{}},{"from_stop_id":119,"to_stop_id":155,"geometry":"MULTILINESTRING((1328517.972584 7916213.608221,3879663.701165 3638731.187583))","attributes":{}},{"from_stop_id":119,"to_stop_id":156,"geometry":"MULTILINESTRING((1328517.972584 7916213.608221,1398994.342206 5141815.937641))","attributes":{}},{"from_stop_id":119,"to_stop_id":157,"geometry":"MULTILINESTRING((1328517.972584 7916213.608221,15390245.100361 4328841.562513))","attributes":{}},{"from_stop_id":119,"to_stop_id":158,"geometry":"MULTILINESTRING((1328517.972584 7916213.608221,4034041.793636 3578991.172208))","attributes":{}},{"from_stop_id":119,"to_stop_id":159,"geometry":"MULTILINESTRING((1328517.972584 7916213.608221,7449910.42489 6110111.702601))","attributes":{}},{"from_stop_id":119,"to_stop_id":160,"geometry":"MULTILINESTRING((1328517.972584 7916213.608221,4219698.102672 -2622.575957))","attributes":{}},{"from_stop_id":119,"to_stop_id":161,"geometry":"MULTILINESTRING((1328517.972584 7916213.608221,5285646.013085 3415373.48796))","attributes":{}},{"from_stop_id":119,"to_stop_id":162,"geometry":"MULTILINESTRING((1328517.972584 7916213.608221,2738814.471371 7735556.799888))","attributes":{}},{"from_stop_id":119,"to_stop_id":163,"geometry":"MULTILINESTRING((1328517.972584 7916213.608221,3992171.304883 4009311.247656))","attributes":{}},{"from_stop_id":119,"to_stop_id":164,"geometry":"MULTILINESTRING((1328517.972584 7916213.608221,2658451.372494 7394820.260241))","attributes":{}},{"from_stop_id":119,"to_stop_id":165,"geometry":"MULTILINESTRING((1328517.972584 7916213.608221,2420672.94016 5102533.956456))","attributes":{}},{"from_stop_id":119,"to_stop_id":166,"geometry":"MULTILINESTRING((1328517.972584 7916213.608221,11351890.344374 469131.367658))","attributes":{}},{"from_stop_id":119,"to_stop_id":167,"geometry":"MULTILINESTRING((1328517.972584 7916213.608221,3158121.152064 6009523.467887))","attributes":{}},{"from_stop_id":119,"to_stop_id":168,"geometry":"MULTILINESTRING((1328517.972584 7916213.608221,2156747.22923 5267734.268962))","attributes":{}},{"from_stop_id":119,"to_stop_id":169,"geometry":"MULTILINESTRING((1328517.972584 7916213.608221,-789546.84679 3735999.22766))","attributes":{}},{"from_stop_id":119,"to_stop_id":170,"geometry":"MULTILINESTRING((1328517.972584 7916213.608221,589021.036772 6824142.821624))","attributes":{}},{"from_stop_id":119,"to_stop_id":171,"geometry":"MULTILINESTRING((1328517.972584 7916213.608221,942758.756276 8505587.038689))","attributes":{}},{"from_stop_id":119,"to_stop_id":172,"geometry":"MULTILINESTRING((1328517.972584 7916213.608221,6225348.270102 2453104.641232))","attributes":{}},{"from_stop_id":119,"to_stop_id":173,"geometry":"MULTILINESTRING((1328517.972584 7916213.608221,7719463.00212 3551885.664913))","attributes":{}},{"from_stop_id":119,"to_stop_id":174,"geometry":"MULTILINESTRING((1328517.972584 7916213.608221,3922136.762321 3757032.783045))","attributes":{}},{"from_stop_id":119,"to_stop_id":175,"geometry":"MULTILINESTRING((1328517.972584 7916213.608221,-8350648.52242 -1027437.355768))","attributes":{}},{"from_stop_id":119,"to_stop_id":176,"geometry":"MULTILINESTRING((1328517.972584 7916213.608221,13555821.564291 1445993.997497))","attributes":{}},{"from_stop_id":119,"to_stop_id":177,"geometry":"MULTILINESTRING((1328517.972584 7916213.608221,2131226.790688 6785571.898792))","attributes":{}},{"from_stop_id":119,"to_stop_id":178,"geometry":"MULTILINESTRING((1328517.972584 7916213.608221,-915542.031333 4779112.741647))","attributes":{}},{"from_stop_id":119,"to_stop_id":179,"geometry":"MULTILINESTRING((1328517.972584 7916213.608221,5697763.903702 2919390.332888))","attributes":{}},{"from_stop_id":119,"to_stop_id":180,"geometry":"MULTILINESTRING((1328517.972584 7916213.608221,1761926.94033 -25383.248614))","attributes":{}},{"from_stop_id":119,"to_stop_id":181,"geometry":"MULTILINESTRING((1328517.972584 7916213.608221,2779287.009958 5771245.404432))","attributes":{}},{"from_stop_id":119,"to_stop_id":182,"geometry":"MULTILINESTRING((1328517.972584 7916213.608221,11724030.288901 8747149.04879))","attributes":{}},{"from_stop_id":119,"to_stop_id":183,"geometry":"MULTILINESTRING((1328517.972584 7916213.608221,14222948.697264 4287936.289399))","attributes":{}},{"from_stop_id":119,"to_stop_id":184,"geometry":"MULTILINESTRING((1328517.972584 7916213.608221,2553391.487988 -3575670.675527))","attributes":{}},{"from_stop_id":119,"to_stop_id":185,"geometry":"MULTILINESTRING((1328517.972584 7916213.608221,3475657.895613 3516107.910344))","attributes":{}},{"from_stop_id":119,"to_stop_id":186,"geometry":"MULTILINESTRING((1328517.972584 7916213.608221,2338361.527555 5467999.202178))","attributes":{}},{"from_stop_id":119,"to_stop_id":187,"geometry":"MULTILINESTRING((1328517.972584 7916213.608221,11557171.277761 150527.162641))","attributes":{}},{"from_stop_id":119,"to_stop_id":188,"geometry":"MULTILINESTRING((1328517.972584 7916213.608221,-8424571.120837 5691675.691615))","attributes":{}},{"from_stop_id":119,"to_stop_id":189,"geometry":"MULTILINESTRING((1328517.972584 7916213.608221,1669287.305369 5804618.909739))","attributes":{}},{"from_stop_id":119,"to_stop_id":190,"geometry":"MULTILINESTRING((1328517.972584 7916213.608221,-417361.261272 4933551.652462))","attributes":{}},{"from_stop_id":119,"to_stop_id":191,"geometry":"MULTILINESTRING((1328517.972584 7916213.608221,3363811.852496 1444062.609719))","attributes":{}},{"from_stop_id":119,"to_stop_id":192,"geometry":"MULTILINESTRING((1328517.972584 7916213.608221,2075385.037924 8428326.96544))","attributes":{}},{"from_stop_id":119,"to_stop_id":193,"geometry":"MULTILINESTRING((1328517.972584 7916213.608221,915882.446336 5912448.054871))","attributes":{}},{"from_stop_id":119,"to_stop_id":194,"geometry":"MULTILINESTRING((1328517.972584 7916213.608221,4341105.588359 4137016.351319))","attributes":{}},{"from_stop_id":119,"to_stop_id":195,"geometry":"MULTILINESTRING((1328517.972584 7916213.608221,13465262.935892 2716627.939237))","attributes":{}},{"from_stop_id":119,"to_stop_id":196,"geometry":"MULTILINESTRING((1328517.972584 7916213.608221,3883805.899417 -710461.619568))","attributes":{}},{"from_stop_id":119,"to_stop_id":197,"geometry":"MULTILINESTRING((1328517.972584 7916213.608221,11242438.238039 1789676.623494))","attributes":{}},{"from_stop_id":119,"to_stop_id":198,"geometry":"MULTILINESTRING((1328517.972584 7916213.608221,1061709.532121 4013627.830394))","attributes":{}},{"from_stop_id":119,"to_stop_id":199,"geometry":"MULTILINESTRING((1328517.972584 7916213.608221,3923268.658903 4716479.684629))","attributes":{}},{"from_stop_id":119,"to_stop_id":200,"geometry":"MULTILINESTRING((1328517.972584 7916213.608221,5994311.680089 2683384.657664))","attributes":{}},{"from_stop_id":119,"to_stop_id":201,"geometry":"MULTILINESTRING((1328517.972584 7916213.608221,3469336.495877 6170212.711441))","attributes":{}},{"from_stop_id":119,"to_stop_id":202,"geometry":"MULTILINESTRING((1328517.972584 7916213.608221,5400819.607289 1752983.407652))","attributes":{}},{"from_stop_id":119,"to_stop_id":203,"geometry":"MULTILINESTRING((1328517.972584 7916213.608221,8790107.59317 2343495.165705))","attributes":{}},{"from_stop_id":119,"to_stop_id":204,"geometry":"MULTILINESTRING((1328517.972584 7916213.608221,2553391.487988 -3575670.675527))","attributes":{}},{"from_stop_id":119,"to_stop_id":205,"geometry":"MULTILINESTRING((1328517.972584 7916213.608221,5018189.359227 2739515.791932))","attributes":{}},{"from_stop_id":119,"to_stop_id":206,"geometry":"MULTILINESTRING((1328517.972584 7916213.608221,5976525.942406 3819612.201442))","attributes":{}},{"from_stop_id":119,"to_stop_id":207,"geometry":"MULTILINESTRING((1328517.972584 7916213.608221,11351890.344374 469131.367658))","attributes":{}},{"from_stop_id":119,"to_stop_id":208,"geometry":"MULTILINESTRING((1328517.972584 7916213.608221,-789546.84679 3735999.22766))","attributes":{}},{"from_stop_id":119,"to_stop_id":209,"geometry":"MULTILINESTRING((1328517.972584 7916213.608221,13465262.935892 2716627.939237))","attributes":{}},{"from_stop_id":119,"to_stop_id":210,"geometry":"MULTILINESTRING((1328517.972584 7916213.608221,11242438.238039 1789676.623494))","attributes":{}},{"from_stop_id":119,"to_stop_id":211,"geometry":"MULTILINESTRING((1328517.972584 7916213.608221,1061709.532121 4013627.830394))","attributes":{}},{"from_stop_id":119,"to_stop_id":212,"geometry":"MULTILINESTRING((1328517.972584 7916213.608221,14891780.020321 -2909486.054997))","attributes":{}},{"from_stop_id":73,"to_stop_id":213,"geometry":"MULTILINESTRING((415264.002065 6630757.048054,184748.721227 3253246.71111))","attributes":{}},{"from_stop_id":73,"to_stop_id":214,"geometry":"MULTILINESTRING((415264.002065 6630757.048054,1989711.999337 -1255100.642297))","attributes":{}},{"from_stop_id":73,"to_stop_id":215,"geometry":"MULTILINESTRING((415264.002065 6630757.048054,14891780.020321 -2909486.054997))","attributes":{}},{"from_stop_id":73,"to_stop_id":216,"geometry":"MULTILINESTRING((415264.002065 6630757.048054,1619706.606045 6026746.974644))","attributes":{}},{"from_stop_id":73,"to_stop_id":217,"geometry":"MULTILINESTRING((415264.002065 6630757.048054,5296239.287149 4886759.751808))","attributes":{}},{"from_stop_id":73,"to_stop_id":218,"geometry":"MULTILINESTRING((415264.002065 6630757.048054,5636970.993946 2990464.968922))","attributes":{}},{"from_stop_id":73,"to_stop_id":219,"geometry":"MULTILINESTRING((415264.002065 6630757.048054,3111757.029426 7115387.658402))","attributes":{}},{"from_stop_id":73,"to_stop_id":220,"geometry":"MULTILINESTRING((415264.002065 6630757.048054,497590.999399 6534001.856289))","attributes":{}},{"from_stop_id":73,"to_stop_id":221,"geometry":"MULTILINESTRING((415264.002065 6630757.048054,1968025.738016 5452434.561675))","attributes":{}},{"from_stop_id":73,"to_stop_id":222,"geometry":"MULTILINESTRING((415264.002065 6630757.048054,2837069.618044 5271553.447419))","attributes":{}},{"from_stop_id":73,"to_stop_id":223,"geometry":"MULTILINESTRING((415264.002065 6630757.048054,11598978.537043 4281602.659627))","attributes":{}},{"from_stop_id":73,"to_stop_id":224,"geometry":"MULTILINESTRING((415264.002065 6630757.048054,1692056.260058 5637278.201891))","attributes":{}},{"from_stop_id":73,"to_stop_id":225,"geometry":"MULTILINESTRING((415264.002065 6630757.048054,1722442.250904 6414728.45895))","attributes":{}},{"from_stop_id":73,"to_stop_id":226,"geometry":"MULTILINESTRING((415264.002065 6630757.048054,1057733.867827 7611135.068229))","attributes":{}},{"from_stop_id":73,"to_stop_id":227,"geometry":"MULTILINESTRING((415264.002065 6630757.048054,3428918.392521 3101070.050794))","attributes":{}},{"from_stop_id":73,"to_stop_id":228,"geometry":"MULTILINESTRING((415264.002065 6630757.048054,2784501.994143 8093419.123256))","attributes":{}},{"from_stop_id":73,"to_stop_id":229,"geometry":"MULTILINESTRING((415264.002065 6630757.048054,2866271.058188 8841170.394214))","attributes":{}},{"from_stop_id":73,"to_stop_id":230,"geometry":"MULTILINESTRING((415264.002065 6630757.048054,246433.411424 5816903.713427))","attributes":{}},{"from_stop_id":73,"to_stop_id":231,"geometry":"MULTILINESTRING((415264.002065 6630757.048054,1163458.552333 6650655.041174))","attributes":{}},{"from_stop_id":73,"to_stop_id":232,"geometry":"MULTILINESTRING((415264.002065 6630757.048054,2429471.298754 4732306.812978))","attributes":{}},{"from_stop_id":73,"to_stop_id":233,"geometry":"MULTILINESTRING((415264.002065 6630757.048054,2171097.870066 5968637.679129))","attributes":{}},{"from_stop_id":73,"to_stop_id":234,"geometry":"MULTILINESTRING((415264.002065 6630757.048054,-2117389.666663 9598645.705352))","attributes":{}},{"from_stop_id":73,"to_stop_id":235,"geometry":"MULTILINESTRING((415264.002065 6630757.048054,5238756.540375 4646601.874365))","attributes":{}},{"from_stop_id":73,"to_stop_id":236,"geometry":"MULTILINESTRING((415264.002065 6630757.048054,4862356.432331 3924966.445386))","attributes":{}},{"from_stop_id":73,"to_stop_id":237,"geometry":"MULTILINESTRING((415264.002065 6630757.048054,3879663.701165 3638731.187583))","attributes":{}},{"from_stop_id":73,"to_stop_id":238,"geometry":"MULTILINESTRING((415264.002065 6630757.048054,1398994.342206 5141815.937641))","attributes":{}},{"from_stop_id":73,"to_stop_id":239,"geometry":"MULTILINESTRING((415264.002065 6630757.048054,7449910.42489 6110111.702601))","attributes":{}},{"from_stop_id":73,"to_stop_id":240,"geometry":"MULTILINESTRING((415264.002065 6630757.048054,2738814.471371 7735556.799888))","attributes":{}},{"from_stop_id":73,"to_stop_id":241,"geometry":"MULTILINESTRING((415264.002065 6630757.048054,2658451.372494 7394820.260241))","attributes":{}},{"from_stop_id":73,"to_stop_id":242,"geometry":"MULTILINESTRING((415264.002065 6630757.048054,2420672.94016 5102533.956456))","attributes":{}},{"from_stop_id":73,"to_stop_id":243,"geometry":"MULTILINESTRING((415264.002065 6630757.048054,-11416123.694313 2708933.292233))","attributes":{}},{"from_stop_id":73,"to_stop_id":244,"geometry":"MULTILINESTRING((415264.002065 6630757.048054,2156747.22923 5267734.268962))","attributes":{}},{"from_stop_id":73,"to_stop_id":245,"geometry":"MULTILINESTRING((415264.002065 6630757.048054,589021.036772 6824142.821624))","attributes":{}},{"from_stop_id":73,"to_stop_id":246,"geometry":"MULTILINESTRING((415264.002065 6630757.048054,942758.756276 8505587.038689))","attributes":{}},{"from_stop_id":73,"to_stop_id":247,"geometry":"MULTILINESTRING((415264.002065 6630757.048054,6225348.270102 2453104.641232))","attributes":{}},{"from_stop_id":73,"to_stop_id":248,"geometry":"MULTILINESTRING((415264.002065 6630757.048054,13555821.564291 1445993.997497))","attributes":{}},{"from_stop_id":73,"to_stop_id":249,"geometry":"MULTILINESTRING((415264.002065 6630757.048054,2131226.790688 6785571.898792))","attributes":{}},{"from_stop_id":73,"to_stop_id":250,"geometry":"MULTILINESTRING((415264.002065 6630757.048054,-915542.031333 4779112.741647))","attributes":{}},{"from_stop_id":73,"to_stop_id":251,"geometry":"MULTILINESTRING((415264.002065 6630757.048054,5697763.903702 2919390.332888))","attributes":{}},{"from_stop_id":73,"to_stop_id":252,"geometry":"MULTILINESTRING((415264.002065 6630757.048054,2779287.009958 5771245.404432))","attributes":{}},{"from_stop_id":73,"to_stop_id":253,"geometry":"MULTILINESTRING((415264.002065 6630757.048054,11724030.288901 8747149.04879))","attributes":{}},{"from_stop_id":73,"to_stop_id":254,"geometry":"MULTILINESTRING((415264.002065 6630757.048054,2338361.527555 5467999.202178))","attributes":{}},{"from_stop_id":73,"to_stop_id":255,"geometry":"MULTILINESTRING((415264.002065 6630757.048054,11557171.277761 150527.162641))","attributes":{}},{"from_stop_id":73,"to_stop_id":256,"geometry":"MULTILINESTRING((415264.002065 6630757.048054,1669287.305369 5804618.909739))","attributes":{}},{"from_stop_id":73,"to_stop_id":257,"geometry":"MULTILINESTRING((415264.002065 6630757.048054,2553391.487988 -3575670.675527))","attributes":{}},{"from_stop_id":73,"to_stop_id":258,"geometry":"MULTILINESTRING((415264.002065 6630757.048054,-417361.261272 4933551.652462))","attributes":{}},{"from_stop_id":73,"to_stop_id":259,"geometry":"MULTILINESTRING((415264.002065 6630757.048054,2075385.037924 8428326.96544))","attributes":{}},{"from_stop_id":73,"to_stop_id":260,"geometry":"MULTILINESTRING((415264.002065 6630757.048054,915882.446336 5912448.054871))","attributes":{}},{"from_stop_id":73,"to_stop_id":261,"geometry":"MULTILINESTRING((415264.002065 6630757.048054,3923268.658903 4716479.684629))","attributes":{}},{"from_stop_id":73,"to_stop_id":262,"geometry":"MULTILINESTRING((415264.002065 6630757.048054,3469336.495877 6170212.711441))","attributes":{}},{"from_stop_id":73,"to_stop_id":263,"geometry":"MULTILINESTRING((415264.002065 6630757.048054,5994311.680089 2683384.657664))","attributes":{}},{"from_stop_id":73,"to_stop_id":264,"geometry":"MULTILINESTRING((415264.002065 6630757.048054,-382490.764739 7435586.530983))","attributes":{}},{"from_stop_id":73,"to_stop_id":265,"geometry":"MULTILINESTRING((415264.002065 6630757.048054,5400819.607289 1752983.407652))","attributes":{}},{"from_stop_id":73,"to_stop_id":266,"geometry":"MULTILINESTRING((415264.002065 6630757.048054,3922136.762321 3757032.783045))","attributes":{}},{"from_stop_id":73,"to_stop_id":267,"geometry":"MULTILINESTRING((415264.002065 6630757.048054,-8424571.120837 5691675.691615))","attributes":{}}]},"editable":false}