{"type":"FeatureCollection","features":[{"type":"Feature","geometry":{"type":"Point","coordinates":[-55.765835000003,-32.522779000001]},"properties":{"size":"0.50188205771644","address":"Uruguay","placename":"Uruguay","title":"Uruguay CKD  40  Unit  0.5%"}},{"type":"Feature","geometry":{"type":"Point","coordinates":[-7.0926199999983,31.791702]},"properties":{"size":"1.0539523212045","address":"Morocco","placename":"Morocco","title":"Morocco CKD 84  Unit  1.1%"}},{"type":"Feature","geometry":{"type":"Point","coordinates":[-63.616672000003,-38.416096999997]},"properties":{"size":"1.5809284818068","address":"Argentina","placename":"Argentina","title":"Argentina CKD 126  Unit  1.6%"}},{"type":"Feature","geometry":{"type":"Point","coordinates":[-3.4359729999961,55.378051000001]},"properties":{"size":"4.7051442910916","address":"United Kingdom of Great Britain and Northern Ireland","placename":"United Kingdom","title":"United Kingdom of Great Britain and Northern Ireland   375  Unit  4.7%"}},{"type":"Feature","geometry":{"type":"Point","coordinates":[53.847818000001,23.424076000003]},"properties":{"size":"0.025094102885822","address":"United Arab Emirates","placename":"United Arab Emirates","title":"United Arab Emirates   2  Unit  0%"}},{"type":"Feature","geometry":{"type":"Point","coordinates":[31.16558,48.379433000003]},"properties":{"size":"0.012547051442911","address":"Ukraine","placename":"Ukraine","title":"Ukraine   1  Unit  0%"}},{"type":"Feature","geometry":{"type":"Point","coordinates":[35.243321999997,38.963745000001]},"properties":{"size":"0.77791718946048","address":"Turkey","placename":"Turkey","title":"Turkey   62  Unit  0.8%"}},{"type":"Feature","geometry":{"type":"Point","coordinates":[9.5374989999968,33.886917000001]},"properties":{"size":"0.33877038895859","address":"Tunisia","placename":"Tunisia","title":"Tunisia   27  Unit  0.3%"}},{"type":"Feature","geometry":{"type":"Point","coordinates":[38.996814999996,34.802074999999]},"properties":{"size":"0.012547051442911","address":"Syrian Arab Republic","placename":"Syria","title":"Syrian Arab Republic   1  Unit  0%"}},{"type":"Feature","geometry":{"type":"Point","coordinates":[8.2275120000041,46.818187999999]},"properties":{"size":"0.85319949811794","address":"Switzerland","placename":"Switzerland","title":"Switzerland   68  Unit  0.9%"}},{"type":"Feature","geometry":{"type":"Point","coordinates":[-3.7492200000004,40.463667000002]},"properties":{"size":"5.8469259723965","address":"Spain","placename":"Spain","title":"Spain   466  Unit  5.8%"}},{"type":"Feature","geometry":{"type":"Point","coordinates":[22.937506000003,-30.559481999999]},"properties":{"size":"0.32622333751568","address":"South Africa","placename":"South Africa","title":"South Africa   26  Unit  0.3%"}},{"type":"Feature","geometry":{"type":"Point","coordinates":[14.995462999997,46.151240999997]},"properties":{"size":"0.13801756587202","address":"Slovenia","placename":"Slovenia","title":"Slovenia   11  Unit  0.1%"}},{"type":"Feature","geometry":{"type":"Point","coordinates":[19.699023999996,48.669026]},"properties":{"size":"0.67754077791719","address":"Slovakia","placename":"Slovakia","title":"Slovakia   54  Unit  0.7%"}},{"type":"Feature","geometry":{"type":"Point","coordinates":[21.005858999997,44.016521000002]},"properties":{"size":"0.062735257214555","address":"Serbia","placename":"Serbia","title":"Serbia   5  Unit  0.1%"}},{"type":"Feature","geometry":{"type":"Point","coordinates":[-14.452361999999,14.497400999997]},"properties":{"size":"0.075282308657466","address":"Senegal","placename":"Senegal","title":"Senegal   6  Unit  0.1%"}},{"type":"Feature","geometry":{"type":"Point","coordinates":[45.079161999996,23.885942]},"properties":{"size":"0.012547051442911","address":"Saudi Arabia","placename":"Saudi Arabia","title":"Saudi Arabia   1  Unit  0%"}},{"type":"Feature","geometry":{"type":"Point","coordinates":[105.318756,61.52401]},"properties":{"size":"1.2296110414053","address":"Russian Federation","placename":"Russian Federation","title":"Russian Federation   98  Unit  1.2%"}},{"type":"Feature","geometry":{"type":"Point","coordinates":[24.966760000001,45.943161000003]},"properties":{"size":"0.53952321204517","address":"Romania","placename":"Romania","title":"Romania   43  Unit  0.5%"}},{"type":"Feature","geometry":{"type":"Point","coordinates":[55.536384000003,-21.115141]},"properties":{"size":"0.20075282308657","address":"Reunion","placename":"Reunion","title":"Reunion   16  Unit  0.2%"}},{"type":"Feature","geometry":{"type":"Point","coordinates":[51.183884,25.354825999999]},"properties":{"size":"0.17565872020075","address":"Qatar","placename":"Qatar","title":"Qatar   14  Unit  0.2%"}},{"type":"Feature","geometry":{"type":"Point","coordinates":[-8.2244540000027,39.399871999999]},"properties":{"size":"0.90338770388959","address":"Portugal","placename":"Portugal","title":"Portugal   72  Unit  0.9%"}},{"type":"Feature","geometry":{"type":"Point","coordinates":[19.145136,51.919437999998]},"properties":{"size":"1.9573400250941","address":"Poland","placename":"Poland","title":"Poland   156  Unit  2%"}},{"type":"Feature","geometry":{"type":"Point","coordinates":[-80.782127000004,8.5379810000007]},"properties":{"size":"0.025094102885822","address":"Panama","placename":"Panama","title":"Panama   2  Unit  0%"}},{"type":"Feature","geometry":{"type":"Point","coordinates":[69.345115999996,30.375321000001]},"properties":{"size":"0.012547051442911","address":"Pakistan","placename":"Pakistan","title":"Pakistan   1  Unit  0%"}},{"type":"Feature","geometry":{"type":"Point","coordinates":[55.923254999996,21.512583000003]},"properties":{"size":"0.087829360100376","address":"Oman","placename":"Oman","title":"Oman   7  Unit  0.1%"}},{"type":"Feature","geometry":{"type":"Point","coordinates":[8.4689460000024,60.472024]},"properties":{"size":"0.50188205771644","address":"Norway","placename":"Norway","title":"Norway   40  Unit  0.5%"}},{"type":"Feature","geometry":{"type":"Point","coordinates":[8.0816659999972,17.607788999999]},"properties":{"size":"0.012547051442911","address":"Niger","placename":"Niger","title":"Niger   1  Unit  0%"}},{"type":"Feature","geometry":{"type":"Point","coordinates":[165.618042,-20.904305000001]},"properties":{"size":"0.25094102885822","address":"New Caledonia","placename":"New Caledonia","title":"New Caledonia   20  Unit  0.3%"}},{"type":"Feature","geometry":{"type":"Point","coordinates":[5.2912660000021,52.132633000001]},"properties":{"size":"0.95357590966123","address":"Netherlands","placename":"The Netherlands","title":"Netherlands   76  Unit  1%"}},{"type":"Feature","geometry":{"type":"Point","coordinates":[-7.0926199999983,31.791702]},"properties":{"size":"0.9159347553325","address":"Morocco","placename":"Morocco","title":"Morocco   73  Unit  0.9%"}},{"type":"Feature","geometry":{"type":"Point","coordinates":[45.166244000002,-12.827500000003]},"properties":{"size":"0.037641154328733","address":"Mayotte","placename":"Mayotte","title":"Mayotte   3  Unit  0%"}},{"type":"Feature","geometry":{"type":"Point","coordinates":[57.552151999999,-20.348403999997]},"properties":{"size":"0.025094102885822","address":"Mauritius","placename":"Mauritius","title":"Mauritius   2  Unit  0%"}},{"type":"Feature","geometry":{"type":"Point","coordinates":[-61.024173999999,14.641528]},"properties":{"size":"0.12547051442911","address":"Martinique","placename":"Martinique","title":"Martinique   10  Unit  0.1%"}},{"type":"Feature","geometry":{"type":"Point","coordinates":[-3.9961659999965,17.570691999998]},"properties":{"size":"0.012547051442911","address":"Mali","placename":"Mali","title":"Mali   1  Unit  0%"}},{"type":"Feature","geometry":{"type":"Point","coordinates":[46.869106999996,-18.766946999998]},"properties":{"size":"0.20075282308657","address":"Madagascar","placename":"Madagascar","title":"Madagascar   16  Unit  0.2%"}},{"type":"Feature","geometry":{"type":"Point","coordinates":[6.129582999999,49.815273000002]},"properties":{"size":"0.45169385194479","address":"Luxembourg","placename":"Luxembourg","title":"Luxembourg   36  Unit  0.5%"}},{"type":"Feature","geometry":{"type":"Point","coordinates":[23.881274999999,55.169437999999]},"properties":{"size":"0.41405269761606","address":"Lithuania","placename":"Lithuania","title":"Lithuania   33  Unit  0.4%"}},{"type":"Feature","geometry":{"type":"Point","coordinates":[24.603189000003,56.879635000001]},"properties":{"size":"0.075282308657466","address":"Latvia","placename":"Latvia","title":"Latvia   6  Unit  0.1%"}},{"type":"Feature","geometry":{"type":"Point","coordinates":[37.906193000004,-0.023558999995522]},"properties":{"size":"0.037641154328733","address":"Kenya","placename":"Kenya","title":"Kenya   3  Unit  0%"}},{"type":"Feature","geometry":{"type":"Point","coordinates":[12.567380000004,41.871939999999]},"properties":{"size":"3.7766624843162","address":"Italy","placename":"Italy","title":"Italy   301  Unit  3.8%"}},{"type":"Feature","geometry":{"type":"Point","coordinates":[34.851612000002,31.046051]},"properties":{"size":"1.4554579673777","address":"Israel","placename":"Israel","title":"Israel   116  Unit  1.5%"}},{"type":"Feature","geometry":{"type":"Point","coordinates":[-8.2438900000022,53.412910000001]},"properties":{"size":"0.23839397741531","address":"Ireland","placename":"Ireland","title":"Ireland   19  Unit  0.2%"}},{"type":"Feature","geometry":{"type":"Point","coordinates":[43.679290999998,33.223191000003]},"properties":{"size":"1.5181932245922","address":"Iraq","placename":"Iraq","title":"Iraq   121  Unit  1.5%"}},{"type":"Feature","geometry":{"type":"Point","coordinates":[19.503303999996,47.162493999998]},"properties":{"size":"0.40150564617315","address":"Hungary","placename":"Hungary","title":"Hungary   32  Unit  0.4%"}},{"type":"Feature","geometry":{"type":"Point","coordinates":[-72.285214999997,18.971187000004]},"properties":{"size":"0.33877038895859","address":"Haiti","placename":"Haiti","title":"Haiti   27  Unit  0.3%"}},{"type":"Feature","geometry":{"type":"Point","coordinates":[-58.93018,4.8604159999962]},"properties":{"size":"0.025094102885822","address":"Guyana","placename":"Guyana","title":"Guyana   2  Unit  0%"}},{"type":"Feature","geometry":{"type":"Point","coordinates":[-9.6966449999987,9.9455870000035]},"properties":{"size":"0.050188205771644","address":"Guinea","placename":"Guinea","title":"Guinea   4  Unit  0.1%"}},{"type":"Feature","geometry":{"type":"Point","coordinates":[-90.230759000004,15.783470999998]},"properties":{"size":"0.13801756587202","address":"Guatemala","placename":"Guatemala","title":"Guatemala   11  Unit  0.1%"}},{"type":"Feature","geometry":{"type":"Point","coordinates":[10.451526000003,51.165690999999]},"properties":{"size":"4.5671267252196","address":"Germany","placename":"Germany","title":"Germany   364  Unit  4.6%"}},{"type":"Feature","geometry":{"type":"Point","coordinates":[11.609444,-0.80368899999725]},"properties":{"size":"0.050188205771644","address":"Gabon","placename":"Gabon","title":"Gabon   4  Unit  0.1%"}},{"type":"Feature","geometry":{"type":"Point","coordinates":[-149.406843,-17.679742000001]},"properties":{"size":"0.025094102885822","address":"French Polynesia","placename":"French Polynesia","title":"French Polynesia   2  Unit  0%"}},{"type":"Feature","geometry":{"type":"Point","coordinates":[2.2137489999989,46.227638]},"properties":{"size":"48.356336260979","address":"France","placename":"France","title":"France   3854  Unit  48.4%"}},{"type":"Feature","geometry":{"type":"Point","coordinates":[25.748150999997,61.924109999999]},"properties":{"size":"0.37641154328733","address":"Finland","placename":"Finland","title":"Finland   30  Unit  0.4%"}},{"type":"Feature","geometry":{"type":"Point","coordinates":[30.802498000002,26.820553000001]},"properties":{"size":"0.1129234629862","address":"Egypt","placename":"Egypt","title":"Egypt   9  Unit  0.1%"}},{"type":"Feature","geometry":{"type":"Point","coordinates":[-78.183406000002,-1.8312390000011]},"properties":{"size":"0.025094102885822","address":"Ecuador","placename":"Ecuador","title":"Ecuador   2  Unit  0%"}},{"type":"Feature","geometry":{"type":"Point","coordinates":[-70.162650999999,18.735693]},"properties":{"size":"0.062735257214555","address":"Dominican Republic","placename":"Dominican Republic","title":"Dominican Republic   5  Unit  0.1%"}},{"type":"Feature","geometry":{"type":"Point","coordinates":[42.590274999996,11.825138]},"properties":{"size":"0.012547051442911","address":"Djibouti","placename":"Djibouti","title":"Djibouti   1  Unit  0%"}},{"type":"Feature","geometry":{"type":"Point","coordinates":[9.5017849999985,56.263920000001]},"properties":{"size":"0.17565872020075","address":"Denmark","placename":"Denmark","title":"Denmark   14  Unit  0.2%"}},{"type":"Feature","geometry":{"type":"Point","coordinates":[21.758664000001,-4.0383329999964]},"properties":{"size":"1.0163111668758","address":"Democratic Republic of the Congo","placename":"Democratic Republic of the Congo","title":"Democratic Republic of the Congo   81  Unit  1%"}},{"type":"Feature","geometry":{"type":"Point","coordinates":[15.472962000003,49.817492]},"properties":{"size":"1.4930991217064","address":"Czech Republic","placename":"Czech Republic","title":"Czech Republic   119  Unit  1.5%"}},{"type":"Feature","geometry":{"type":"Point","coordinates":[-77.781167000004,21.521757]},"properties":{"size":"0.087829360100376","address":"Cuba","placename":"Cuba","title":"Cuba   7  Unit  0.1%"}},{"type":"Feature","geometry":{"type":"Point","coordinates":[15.200000000002,45.100000000003]},"properties":{"size":"0.12547051442911","address":"Croatia","placename":"Croatia","title":"Croatia   10  Unit  0.1%"}},{"type":"Feature","geometry":{"type":"Point","coordinates":[-5.547080000004,7.5399890000007]},"properties":{"size":"0.062735257214555","address":"C\u00f4te d'Ivoire","placename":"C\u00f4te d'Ivoire","title":"C\u00f4te d'Ivoire   5  Unit  0.1%"}},{"type":"Feature","geometry":{"type":"Point","coordinates":[15.827659000004,-0.22802099999814]},"properties":{"size":"0.13801756587202","address":"Congo","placename":"Congo","title":"Congo   11  Unit  0.1%"}},{"type":"Feature","geometry":{"type":"Point","coordinates":[-74.297332999997,4.5708679999982]},"properties":{"size":"0.025094102885822","address":"Colombia","placename":"Colombia","title":"Colombia   2  Unit  0%"}},{"type":"Feature","geometry":{"type":"Point","coordinates":[-71.542969,-35.675146999998]},"properties":{"size":"0.65244667503137","address":"Chile","placename":"Chile","title":"Chile   52  Unit  0.7%"}},{"type":"Feature","geometry":{"type":"Point","coordinates":[18.732206999998,15.454166000003]},"properties":{"size":"0.062735257214555","address":"Chad","placename":"Chad","title":"Chad   5  Unit  0.1%"}},{"type":"Feature","geometry":{"type":"Point","coordinates":[-24.013197000004,16.002082000001]},"properties":{"size":"0.012547051442911","address":"Cape Verde","placename":"Cape Verde","title":"Cape Verde   1  Unit  0%"}},{"type":"Feature","geometry":{"type":"Point","coordinates":[12.354721999996,7.3697219999967]},"properties":{"size":"1.3299874529486","address":"Cameroon","placename":"Cameroon","title":"Cameroon   106  Unit  1.3%"}},{"type":"Feature","geometry":{"type":"Point","coordinates":[104.990963,12.565679000004]},"properties":{"size":"0.012547051442911","address":"Cambodia","placename":"Cambodia","title":"Cambodia   1  Unit  0%"}},{"type":"Feature","geometry":{"type":"Point","coordinates":[-1.5615929999969,12.238332999997]},"properties":{"size":"0.012547051442911","address":"Burkina Faso","placename":"Burkina Faso","title":"Burkina Faso   1  Unit  0%"}},{"type":"Feature","geometry":{"type":"Point","coordinates":[25.485830000001,42.733883000002]},"properties":{"size":"0.037641154328733","address":"Bulgaria","placename":"Bulgaria","title":"Bulgaria   3  Unit  0%"}},{"type":"Feature","geometry":{"type":"Point","coordinates":[4.4699360000043,50.503887000001]},"properties":{"size":"2.3337515683814","address":"Belgium","placename":"Belgium","title":"Belgium   186  Unit  2.3%"}},{"type":"Feature","geometry":{"type":"Point","coordinates":[47.576927000002,40.143105000001]},"properties":{"size":"0.050188205771644","address":"Azerbaijan","placename":"Azerbaijan","title":"Azerbaijan   4  Unit  0.1%"}},{"type":"Feature","geometry":{"type":"Point","coordinates":[14.550071999996,47.516230999997]},"properties":{"size":"0.53952321204517","address":"Austria","placename":"Austria","title":"Austria   43  Unit  0.5%"}},{"type":"Feature","geometry":{"type":"Point","coordinates":[17.873887000004,-11.202692000003]},"properties":{"size":"0.025094102885822","address":"Angola","placename":"Angola","title":"Angola   2  Unit  0%"}},{"type":"Feature","geometry":{"type":"Point","coordinates":[1.6596259999975,28.033885999997]},"properties":{"size":"4.1279799247177","address":"Algeria","placename":"Algeria","title":"Algeria   329  Unit  4.1%"}},{"type":"Feature","geometry":{"type":"Point","coordinates":[-95.712890999999,37.090240000003]},"properties":{"size":"0.0048757505818532","address":"United States of America","placename":"United States","title":"United States of America   0.2M  0%"}},{"type":"Feature","geometry":{"type":"Point","coordinates":[-3.4359729999961,55.378051000001]},"properties":{"size":"1.2430159748162","address":"United Kingdom","placename":"United Kingdom","title":"United Kingdom   45.9M  1.2%"}},{"type":"Feature","geometry":{"type":"Point","coordinates":[35.243321999997,38.963745000001]},"properties":{"size":"0.67359356668017","address":"Turkey","placename":"Turkey","title":"Turkey   24.9M  0.7%"}},{"type":"Feature","geometry":{"type":"Point","coordinates":[9.5374989999968,33.886917000001]},"properties":{"size":"0.010696941942104","address":"Tunisia","placename":"Tunisia","title":"Tunisia   0.4M  0%"}},{"type":"Feature","geometry":{"type":"Point","coordinates":[8.2275120000041,46.818187999999]},"properties":{"size":"0.011388749508655","address":"Switzerland","placename":"Switzerland","title":"Switzerland   0.4M  0%"}},{"type":"Feature","geometry":{"type":"Point","coordinates":[18.643501000001,60.128160999999]},"properties":{"size":"3.0734853971052","address":"Sweden","placename":"Sweden","title":"Sweden   113.5M  3.1%"}},{"type":"Feature","geometry":{"type":"Point","coordinates":[-3.7492200000004,40.463667000002]},"properties":{"size":"1.9957232963348","address":"Spain","placename":"Spain","title":"Spain   73.7M  2%"}},{"type":"Feature","geometry":{"type":"Point","coordinates":[19.699023999996,48.669026]},"properties":{"size":"0.032424212478213","address":"Slovakia","placename":"Slovakia","title":"Slovakia   1.2M  0%"}},{"type":"Feature","geometry":{"type":"Point","coordinates":[24.966760000001,45.943161000003]},"properties":{"size":"0.0033532353876725","address":"Romania","placename":"Romania","title":"Romania   0.1M  0%"}},{"type":"Feature","geometry":{"type":"Point","coordinates":[-8.2244540000027,39.399871999999]},"properties":{"size":"1.6912818643026","address":"Portugal","placename":"Portugal","title":"Portugal   62.5M  1.7%"}},{"type":"Feature","geometry":{"type":"Point","coordinates":[19.145136,51.919437999998]},"properties":{"size":"1.6862839698544","address":"Poland","placename":"Poland","title":"Poland   62.3M  1.7%"}},{"type":"Feature","geometry":{"type":"Point","coordinates":[8.4689460000024,60.472024]},"properties":{"size":"0.17793922306117","address":"Norway","placename":"Norway","title":"Norway   6.6M  0.2%"}},{"type":"Feature","geometry":{"type":"Point","coordinates":[5.2912660000021,52.132633000001]},"properties":{"size":"2.0315749705477","address":"Netherlands","placename":"The Netherlands","title":"Netherlands   75.1M  2%"}},{"type":"Feature","geometry":{"type":"Point","coordinates":[7.4246158000028,43.738417600001]},"properties":{"size":"0.68684962039467","address":"Monaco","placename":"Monaco","title":"Monaco   25.4M  0.7%"}},{"type":"Feature","geometry":{"type":"Point","coordinates":[101.975766,4.2104840000023]},"properties":{"size":"0.065904028298682","address":"Malaysia","placename":"Malaysia","title":"Malaysia   2.4M  0.1%"}},{"type":"Feature","geometry":{"type":"Point","coordinates":[6.129582999999,49.815273000002]},"properties":{"size":"0.71415803043668","address":"Luxembourg","placename":"Luxembourg","title":"Luxembourg   26.4M  0.7%"}},{"type":"Feature","geometry":{"type":"Point","coordinates":[127.766922,35.907756999999]},"properties":{"size":"0.039217116829976","address":"Republic of Korea","placename":"South Korea","title":"Republic of Korea   1.4M  0%"}},{"type":"Feature","geometry":{"type":"Point","coordinates":[138.252924,36.204824000001]},"properties":{"size":"0.0014940661066662","address":"Japan","placename":"Japan","title":"Japan   0.1M  0%"}},{"type":"Feature","geometry":{"type":"Point","coordinates":[12.567380000004,41.871939999999]},"properties":{"size":"5.0507469449742","address":"Italy","placename":"Italy","title":"Italy   186.6M  5.1%"}},{"type":"Feature","geometry":{"type":"Point","coordinates":[78.962879999997,20.593684000004]},"properties":{"size":"0.48643243087867","address":"India","placename":"India","title":"India   18M  0.5%"}},{"type":"Feature","geometry":{"type":"Point","coordinates":[19.503303999996,47.162493999998]},"properties":{"size":"3.6299005650604","address":"Hungary","placename":"Hungary","title":"Hungary   134.1M  3.6%"}},{"type":"Feature","geometry":{"type":"Point","coordinates":[10.451526000003,51.165690999999]},"properties":{"size":"21.113057005906","address":"Germany","placename":"Germany","title":"Germany   780M  21.1%"}},{"type":"Feature","geometry":{"type":"Point","coordinates":[2.2137489999989,46.227638]},"properties":{"size":"50.903705074413","address":"France","placename":"France","title":"France   1880.6M  50.9%"}},{"type":"Feature","geometry":{"type":"Point","coordinates":[25.013606999999,58.595272000001]},"properties":{"size":"3.8737737330452E-6","address":"Estonia","placename":"Estonia","title":"Estonia   0M  0%"}},{"type":"Feature","geometry":{"type":"Point","coordinates":[9.5017849999985,56.263920000001]},"properties":{"size":"0.0028288232685606","address":"Denmark","placename":"Denmark","title":"Denmark   0.1M  0%"}},{"type":"Feature","geometry":{"type":"Point","coordinates":[15.472962000003,49.817492]},"properties":{"size":"0.13256925313591","address":"Czech Republic","placename":"Czech Republic","title":"Czech Republic   4.9M  0.1%"}},{"type":"Feature","geometry":{"type":"Point","coordinates":[104.195397,35.861660000001]},"properties":{"size":"0.18000094927768","address":"China","placename":"China","title":"China   6.7M  0.2%"}},{"type":"Feature","geometry":{"type":"Point","coordinates":[-51.925279999999,-14.235004]},"properties":{"size":"0.87755332227506","address":"Brazil","placename":"Brazil","title":"Brazil   32.4M  0.9%"}},{"type":"Feature","geometry":{"type":"Point","coordinates":[4.4699360000043,50.503887000001]},"properties":{"size":"2.8900652101715","address":"Belgium","placename":"Belgium","title":"Belgium   106.8M  2.9%"}},{"type":"Feature","geometry":{"type":"Point","coordinates":[14.550071999996,47.516230999997]},"properties":{"size":"0.58987653219838","address":"Austria","placename":"Austria","title":"Austria   21.8M  0.6%"}},{"type":"Feature","geometry":{"type":"Point","coordinates":[6.4059880000016,48.555827999998]},"properties":{"address":"France,Blainville","placename":"Blainville-sur-l'Eau, France","title":"RT  France,Blainville  3694.5M 28.7%\/7720 Complete 250 CKD 19.8%"}},{"type":"Feature","geometry":{"type":"LineString","coordinates":[[14.550071999996,47.516230999997],[6.4059880000016,48.555827999998]]},"properties":[]},{"type":"Feature","geometry":{"type":"LineString","coordinates":[[4.4699360000043,50.503887000001],[6.4059880000016,48.555827999998]]},"properties":[]},{"type":"Feature","geometry":{"type":"LineString","coordinates":[[-51.925279999999,-14.235004],[6.4059880000016,48.555827999998]]},"properties":[]},{"type":"Feature","geometry":{"type":"LineString","coordinates":[[104.195397,35.861660000001],[6.4059880000016,48.555827999998]]},"properties":[]},{"type":"Feature","geometry":{"type":"LineString","coordinates":[[15.472962000003,49.817492],[6.4059880000016,48.555827999998]]},"properties":[]},{"type":"Feature","geometry":{"type":"LineString","coordinates":[[9.5017849999985,56.263920000001],[6.4059880000016,48.555827999998]]},"properties":[]},{"type":"Feature","geometry":{"type":"LineString","coordinates":[[25.013606999999,58.595272000001],[6.4059880000016,48.555827999998]]},"properties":[]},{"type":"Feature","geometry":{"type":"LineString","coordinates":[[2.2137489999989,46.227638],[6.4059880000016,48.555827999998]]},"properties":[]},{"type":"Feature","geometry":{"type":"LineString","coordinates":[[10.451526000003,51.165690999999],[6.4059880000016,48.555827999998]]},"properties":[]},{"type":"Feature","geometry":{"type":"LineString","coordinates":[[19.503303999996,47.162493999998],[6.4059880000016,48.555827999998]]},"properties":[]},{"type":"Feature","geometry":{"type":"LineString","coordinates":[[78.962879999997,20.593684000004],[6.4059880000016,48.555827999998]]},"properties":[]},{"type":"Feature","geometry":{"type":"LineString","coordinates":[[12.567380000004,41.871939999999],[6.4059880000016,48.555827999998]]},"properties":[]},{"type":"Feature","geometry":{"type":"LineString","coordinates":[[138.252924,36.204824000001],[6.4059880000016,48.555827999998]]},"properties":[]},{"type":"Feature","geometry":{"type":"LineString","coordinates":[[127.766922,35.907756999999],[6.4059880000016,48.555827999998]]},"properties":[]},{"type":"Feature","geometry":{"type":"LineString","coordinates":[[6.129582999999,49.815273000002],[6.4059880000016,48.555827999998]]},"properties":[]},{"type":"Feature","geometry":{"type":"LineString","coordinates":[[101.975766,4.2104840000023],[6.4059880000016,48.555827999998]]},"properties":[]},{"type":"Feature","geometry":{"type":"LineString","coordinates":[[7.4246158000028,43.738417600001],[6.4059880000016,48.555827999998]]},"properties":[]},{"type":"Feature","geometry":{"type":"LineString","coordinates":[[5.2912660000021,52.132633000001],[6.4059880000016,48.555827999998]]},"properties":[]},{"type":"Feature","geometry":{"type":"LineString","coordinates":[[8.4689460000024,60.472024],[6.4059880000016,48.555827999998]]},"properties":[]},{"type":"Feature","geometry":{"type":"LineString","coordinates":[[19.145136,51.919437999998],[6.4059880000016,48.555827999998]]},"properties":[]},{"type":"Feature","geometry":{"type":"LineString","coordinates":[[-8.2244540000027,39.399871999999],[6.4059880000016,48.555827999998]]},"properties":[]},{"type":"Feature","geometry":{"type":"LineString","coordinates":[[24.966760000001,45.943161000003],[6.4059880000016,48.555827999998]]},"properties":[]},{"type":"Feature","geometry":{"type":"LineString","coordinates":[[19.699023999996,48.669026],[6.4059880000016,48.555827999998]]},"properties":[]},{"type":"Feature","geometry":{"type":"LineString","coordinates":[[-3.7492200000004,40.463667000002],[6.4059880000016,48.555827999998]]},"properties":[]},{"type":"Feature","geometry":{"type":"LineString","coordinates":[[18.643501000001,60.128160999999],[6.4059880000016,48.555827999998]]},"properties":[]},{"type":"Feature","geometry":{"type":"LineString","coordinates":[[8.2275120000041,46.818187999999],[6.4059880000016,48.555827999998]]},"properties":[]},{"type":"Feature","geometry":{"type":"LineString","coordinates":[[9.5374989999968,33.886917000001],[6.4059880000016,48.555827999998]]},"properties":[]},{"type":"Feature","geometry":{"type":"LineString","coordinates":[[35.243321999997,38.963745000001],[6.4059880000016,48.555827999998]]},"properties":[]},{"type":"Feature","geometry":{"type":"LineString","coordinates":[[-3.4359729999961,55.378051000001],[6.4059880000016,48.555827999998]]},"properties":[]},{"type":"Feature","geometry":{"type":"LineString","coordinates":[[-95.712890999999,37.090240000003],[6.4059880000016,48.555827999998]]},"properties":[]},{"type":"Feature","geometry":{"type":"LineString","coordinates":[[6.4059880000016,48.555827999998],[1.6596259999975,28.033885999997]]},"properties":[]},{"type":"Feature","geometry":{"type":"LineString","coordinates":[[6.4059880000016,48.555827999998],[17.873887000004,-11.202692000003]]},"properties":[]},{"type":"Feature","geometry":{"type":"LineString","coordinates":[[6.4059880000016,48.555827999998],[14.550071999996,47.516230999997]]},"properties":[]},{"type":"Feature","geometry":{"type":"LineString","coordinates":[[6.4059880000016,48.555827999998],[47.576927000002,40.143105000001]]},"properties":[]},{"type":"Feature","geometry":{"type":"LineString","coordinates":[[6.4059880000016,48.555827999998],[4.4699360000043,50.503887000001]]},"properties":[]},{"type":"Feature","geometry":{"type":"LineString","coordinates":[[6.4059880000016,48.555827999998],[25.485830000001,42.733883000002]]},"properties":[]},{"type":"Feature","geometry":{"type":"LineString","coordinates":[[6.4059880000016,48.555827999998],[-1.5615929999969,12.238332999997]]},"properties":[]},{"type":"Feature","geometry":{"type":"LineString","coordinates":[[6.4059880000016,48.555827999998],[104.990963,12.565679000004]]},"properties":[]},{"type":"Feature","geometry":{"type":"LineString","coordinates":[[6.4059880000016,48.555827999998],[12.354721999996,7.3697219999967]]},"properties":[]},{"type":"Feature","geometry":{"type":"LineString","coordinates":[[6.4059880000016,48.555827999998],[-24.013197000004,16.002082000001]]},"properties":[]},{"type":"Feature","geometry":{"type":"LineString","coordinates":[[6.4059880000016,48.555827999998],[18.732206999998,15.454166000003]]},"properties":[]},{"type":"Feature","geometry":{"type":"LineString","coordinates":[[6.4059880000016,48.555827999998],[-71.542969,-35.675146999998]]},"properties":[]},{"type":"Feature","geometry":{"type":"LineString","coordinates":[[6.4059880000016,48.555827999998],[-74.297332999997,4.5708679999982]]},"properties":[]},{"type":"Feature","geometry":{"type":"LineString","coordinates":[[6.4059880000016,48.555827999998],[15.827659000004,-0.22802099999814]]},"properties":[]},{"type":"Feature","geometry":{"type":"LineString","coordinates":[[6.4059880000016,48.555827999998],[-5.547080000004,7.5399890000007]]},"properties":[]},{"type":"Feature","geometry":{"type":"LineString","coordinates":[[6.4059880000016,48.555827999998],[15.200000000002,45.100000000003]]},"properties":[]},{"type":"Feature","geometry":{"type":"LineString","coordinates":[[6.4059880000016,48.555827999998],[-77.781167000004,21.521757]]},"properties":[]},{"type":"Feature","geometry":{"type":"LineString","coordinates":[[6.4059880000016,48.555827999998],[15.472962000003,49.817492]]},"properties":[]},{"type":"Feature","geometry":{"type":"LineString","coordinates":[[6.4059880000016,48.555827999998],[21.758664000001,-4.0383329999964]]},"properties":[]},{"type":"Feature","geometry":{"type":"LineString","coordinates":[[6.4059880000016,48.555827999998],[9.5017849999985,56.263920000001]]},"properties":[]},{"type":"Feature","geometry":{"type":"LineString","coordinates":[[6.4059880000016,48.555827999998],[42.590274999996,11.825138]]},"properties":[]},{"type":"Feature","geometry":{"type":"LineString","coordinates":[[6.4059880000016,48.555827999998],[-70.162650999999,18.735693]]},"properties":[]},{"type":"Feature","geometry":{"type":"LineString","coordinates":[[6.4059880000016,48.555827999998],[-78.183406000002,-1.8312390000011]]},"properties":[]},{"type":"Feature","geometry":{"type":"LineString","coordinates":[[6.4059880000016,48.555827999998],[30.802498000002,26.820553000001]]},"properties":[]},{"type":"Feature","geometry":{"type":"LineString","coordinates":[[6.4059880000016,48.555827999998],[25.748150999997,61.924109999999]]},"properties":[]},{"type":"Feature","geometry":{"type":"LineString","coordinates":[[6.4059880000016,48.555827999998],[2.2137489999989,46.227638]]},"properties":[]},{"type":"Feature","geometry":{"type":"LineString","coordinates":[[6.4059880000016,48.555827999998],[-149.406843,-17.679742000001]]},"properties":[]},{"type":"Feature","geometry":{"type":"LineString","coordinates":[[6.4059880000016,48.555827999998],[11.609444,-0.80368899999725]]},"properties":[]},{"type":"Feature","geometry":{"type":"LineString","coordinates":[[6.4059880000016,48.555827999998],[10.451526000003,51.165690999999]]},"properties":[]},{"type":"Feature","geometry":{"type":"LineString","coordinates":[[6.4059880000016,48.555827999998],[-90.230759000004,15.783470999998]]},"properties":[]},{"type":"Feature","geometry":{"type":"LineString","coordinates":[[6.4059880000016,48.555827999998],[-9.6966449999987,9.9455870000035]]},"properties":[]},{"type":"Feature","geometry":{"type":"LineString","coordinates":[[6.4059880000016,48.555827999998],[-58.93018,4.8604159999962]]},"properties":[]},{"type":"Feature","geometry":{"type":"LineString","coordinates":[[6.4059880000016,48.555827999998],[-72.285214999997,18.971187000004]]},"properties":[]},{"type":"Feature","geometry":{"type":"LineString","coordinates":[[6.4059880000016,48.555827999998],[19.503303999996,47.162493999998]]},"properties":[]},{"type":"Feature","geometry":{"type":"LineString","coordinates":[[6.4059880000016,48.555827999998],[43.679290999998,33.223191000003]]},"properties":[]},{"type":"Feature","geometry":{"type":"LineString","coordinates":[[6.4059880000016,48.555827999998],[-8.2438900000022,53.412910000001]]},"properties":[]},{"type":"Feature","geometry":{"type":"LineString","coordinates":[[6.4059880000016,48.555827999998],[34.851612000002,31.046051]]},"properties":[]},{"type":"Feature","geometry":{"type":"LineString","coordinates":[[6.4059880000016,48.555827999998],[12.567380000004,41.871939999999]]},"properties":[]},{"type":"Feature","geometry":{"type":"LineString","coordinates":[[6.4059880000016,48.555827999998],[37.906193000004,-0.023558999995522]]},"properties":[]},{"type":"Feature","geometry":{"type":"LineString","coordinates":[[6.4059880000016,48.555827999998],[24.603189000003,56.879635000001]]},"properties":[]},{"type":"Feature","geometry":{"type":"LineString","coordinates":[[6.4059880000016,48.555827999998],[23.881274999999,55.169437999999]]},"properties":[]},{"type":"Feature","geometry":{"type":"LineString","coordinates":[[6.4059880000016,48.555827999998],[6.129582999999,49.815273000002]]},"properties":[]},{"type":"Feature","geometry":{"type":"LineString","coordinates":[[6.4059880000016,48.555827999998],[46.869106999996,-18.766946999998]]},"properties":[]},{"type":"Feature","geometry":{"type":"LineString","coordinates":[[6.4059880000016,48.555827999998],[-3.9961659999965,17.570691999998]]},"properties":[]},{"type":"Feature","geometry":{"type":"LineString","coordinates":[[6.4059880000016,48.555827999998],[-61.024173999999,14.641528]]},"properties":[]},{"type":"Feature","geometry":{"type":"LineString","coordinates":[[6.4059880000016,48.555827999998],[57.552151999999,-20.348403999997]]},"properties":[]},{"type":"Feature","geometry":{"type":"LineString","coordinates":[[6.4059880000016,48.555827999998],[45.166244000002,-12.827500000003]]},"properties":[]},{"type":"Feature","geometry":{"type":"LineString","coordinates":[[6.4059880000016,48.555827999998],[-7.0926199999983,31.791702]]},"properties":[]},{"type":"Feature","geometry":{"type":"LineString","coordinates":[[6.4059880000016,48.555827999998],[5.2912660000021,52.132633000001]]},"properties":[]},{"type":"Feature","geometry":{"type":"LineString","coordinates":[[6.4059880000016,48.555827999998],[165.618042,-20.904305000001]]},"properties":[]},{"type":"Feature","geometry":{"type":"LineString","coordinates":[[6.4059880000016,48.555827999998],[8.0816659999972,17.607788999999]]},"properties":[]},{"type":"Feature","geometry":{"type":"LineString","coordinates":[[6.4059880000016,48.555827999998],[8.4689460000024,60.472024]]},"properties":[]},{"type":"Feature","geometry":{"type":"LineString","coordinates":[[6.4059880000016,48.555827999998],[55.923254999996,21.512583000003]]},"properties":[]},{"type":"Feature","geometry":{"type":"LineString","coordinates":[[6.4059880000016,48.555827999998],[69.345115999996,30.375321000001]]},"properties":[]},{"type":"Feature","geometry":{"type":"LineString","coordinates":[[6.4059880000016,48.555827999998],[-80.782127000004,8.5379810000007]]},"properties":[]},{"type":"Feature","geometry":{"type":"LineString","coordinates":[[6.4059880000016,48.555827999998],[19.145136,51.919437999998]]},"properties":[]},{"type":"Feature","geometry":{"type":"LineString","coordinates":[[6.4059880000016,48.555827999998],[-8.2244540000027,39.399871999999]]},"properties":[]},{"type":"Feature","geometry":{"type":"LineString","coordinates":[[6.4059880000016,48.555827999998],[51.183884,25.354825999999]]},"properties":[]},{"type":"Feature","geometry":{"type":"LineString","coordinates":[[6.4059880000016,48.555827999998],[55.536384000003,-21.115141]]},"properties":[]},{"type":"Feature","geometry":{"type":"LineString","coordinates":[[6.4059880000016,48.555827999998],[24.966760000001,45.943161000003]]},"properties":[]},{"type":"Feature","geometry":{"type":"LineString","coordinates":[[6.4059880000016,48.555827999998],[105.318756,61.52401]]},"properties":[]},{"type":"Feature","geometry":{"type":"LineString","coordinates":[[6.4059880000016,48.555827999998],[45.079161999996,23.885942]]},"properties":[]},{"type":"Feature","geometry":{"type":"LineString","coordinates":[[6.4059880000016,48.555827999998],[-14.452361999999,14.497400999997]]},"properties":[]},{"type":"Feature","geometry":{"type":"LineString","coordinates":[[6.4059880000016,48.555827999998],[21.005858999997,44.016521000002]]},"properties":[]},{"type":"Feature","geometry":{"type":"LineString","coordinates":[[6.4059880000016,48.555827999998],[19.699023999996,48.669026]]},"properties":[]},{"type":"Feature","geometry":{"type":"LineString","coordinates":[[6.4059880000016,48.555827999998],[14.995462999997,46.151240999997]]},"properties":[]},{"type":"Feature","geometry":{"type":"LineString","coordinates":[[6.4059880000016,48.555827999998],[22.937506000003,-30.559481999999]]},"properties":[]},{"type":"Feature","geometry":{"type":"LineString","coordinates":[[6.4059880000016,48.555827999998],[-3.7492200000004,40.463667000002]]},"properties":[]},{"type":"Feature","geometry":{"type":"LineString","coordinates":[[6.4059880000016,48.555827999998],[8.2275120000041,46.818187999999]]},"properties":[]},{"type":"Feature","geometry":{"type":"LineString","coordinates":[[6.4059880000016,48.555827999998],[38.996814999996,34.802074999999]]},"properties":[]},{"type":"Feature","geometry":{"type":"LineString","coordinates":[[6.4059880000016,48.555827999998],[9.5374989999968,33.886917000001]]},"properties":[]},{"type":"Feature","geometry":{"type":"LineString","coordinates":[[6.4059880000016,48.555827999998],[35.243321999997,38.963745000001]]},"properties":[]},{"type":"Feature","geometry":{"type":"LineString","coordinates":[[6.4059880000016,48.555827999998],[31.16558,48.379433000003]]},"properties":[]},{"type":"Feature","geometry":{"type":"LineString","coordinates":[[6.4059880000016,48.555827999998],[53.847818000001,23.424076000003]]},"properties":[]},{"type":"Feature","geometry":{"type":"LineString","coordinates":[[6.4059880000016,48.555827999998],[-3.4359729999961,55.378051000001]]},"properties":[]},{"type":"Feature","geometry":{"type":"LineString","coordinates":[[6.4059880000016,48.555827999998],[-63.616672000003,-38.416096999997]]},"properties":[]},{"type":"Feature","geometry":{"type":"LineString","coordinates":[[6.4059880000016,48.555827999998],[-7.0926199999983,31.791702]]},"properties":[]},{"type":"Feature","geometry":{"type":"LineString","coordinates":[[6.4059880000016,48.555827999998],[-55.765835000003,-32.522779000001]]},"properties":[]}],"properties":{"title":"B","description":"","tags":""}}