{"type":"FeatureCollection","features":[{"type":"Feature","geometry":{"type":"Point","coordinates":[78.962879989009,20.593683997257]},"properties":{"supplychain_instance_id":"supplychain-1","stop_instance_id":"stop-512","description":"","address":"India","title":"Powder"}},{"type":"Feature","geometry":{"type":"Point","coordinates":[15.472961997846,49.817491994824]},"properties":{"supplychain_instance_id":"supplychain-1","stop_instance_id":"stop-469","description":"","address":"Czech Republic","title":"Powder"}},{"type":"Feature","geometry":{"type":"Point","coordinates":[-90.07153228746,29.951065796211]},"properties":{"youtube:link":"","water":"0","energy":"0","co2e":"0","weight":"0","supplychain_instance_id":"supplychain-1","stop_instance_id":"stop-408","description":"","address":"New Orleans, LA, USA","title":"Coatings"}},{"type":"Feature","geometry":{"type":"Point","coordinates":[-0.68502299990465,53.625193994735]},"properties":{"supplychain_instance_id":"supplychain-1","stop_instance_id":"stop-369","description":"","address":"Flixborough, North Lincolnshire DN15, UK","title":"Coatings"}},{"type":"Feature","geometry":{"type":"Point","coordinates":[35.243321995095,38.963744995414]},"properties":{"supplychain_instance_id":"supplychain-1","stop_instance_id":"stop-332","description":"","address":"Turkey","title":"Coatings"}},{"type":"Feature","geometry":{"type":"Point","coordinates":[-3.7492199994781,40.463666995306]},"properties":{"supplychain_instance_id":"supplychain-1","stop_instance_id":"stop-297","description":"","address":"Spain","title":"Coatings"}},{"type":"Feature","geometry":{"type":"Point","coordinates":[127.76692198221,35.907756995657]},"properties":{"supplychain_instance_id":"supplychain-1","stop_instance_id":"stop-264","description":"","address":"South Korea","title":"Coatings"}},{"type":"Feature","geometry":{"type":"Point","coordinates":[22.937505996807,-30.55948199615]},"properties":{"supplychain_instance_id":"supplychain-1","stop_instance_id":"stop-233","description":"","address":"South Africa","title":"Coatings"}},{"type":"Feature","geometry":{"type":"Point","coordinates":[103.81983598554,1.3520829998118]},"properties":{"supplychain_instance_id":"supplychain-1","stop_instance_id":"stop-204","description":"","address":"Singapore","title":"Coatings"}},{"type":"Feature","geometry":{"type":"Point","coordinates":[73.856743689719,18.520430297511]},"properties":{"youtube:link":"","water":"0","energy":"0","co2e":"0","weight":"0","supplychain_instance_id":"supplychain-1","stop_instance_id":"stop-177","description":"","address":"Pune, Maharashtra, India","title":"Coatings"}},{"type":"Feature","geometry":{"type":"Point","coordinates":[25.748150996416,61.924109994797]},"properties":{"supplychain_instance_id":"supplychain-1","stop_instance_id":"stop-152","description":"","address":"Finland","title":"Coatings"}},{"type":"Feature","geometry":{"type":"Point","coordinates":[104.19539698549,35.861659995661]},"properties":{"supplychain_instance_id":"supplychain-1","stop_instance_id":"stop-129","description":"","address":"China","title":"Coatings (2)"}},{"type":"Feature","geometry":{"type":"Point","coordinates":[133.77513598138,-25.27439799671]},"properties":{"supplychain_instance_id":"supplychain-1","stop_instance_id":"stop-108","description":"","address":"Australia","title":"Coatings"}},{"type":"Feature","geometry":{"type":"Point","coordinates":[48.516387993247,15.552726997888]},"properties":{"supplychain_instance_id":"supplychain-1","stop_instance_id":"stop-89","description":"","address":"Yemen","title":"Paints"}},{"type":"Feature","geometry":{"type":"Point","coordinates":[108.27719898493,14.058323998082]},"properties":{"supplychain_instance_id":"supplychain-1","stop_instance_id":"stop-72","description":"","address":"Vietnam","title":"Paints"}},{"type":"Feature","geometry":{"type":"Point","coordinates":[53.847817992505,23.424075996921]},"properties":{"supplychain_instance_id":"supplychain-1","stop_instance_id":"stop-57","description":"","address":"United Arab Emirates","title":"Paints (2)"}},{"type":"Feature","geometry":{"type":"Point","coordinates":[45.079161993725,23.885941996868]},"properties":{"supplychain_instance_id":"supplychain-1","stop_instance_id":"stop-44","description":"","address":"Saudi Arabia","title":"Paints (2)"}},{"type":"Feature","geometry":{"type":"Point","coordinates":[101.97576598581,4.2104839994149]},"properties":{"youtube:link":"","water":"0","energy":"0","co2e":"0","weight":"0","supplychain_instance_id":"supplychain-1","stop_instance_id":"stop-28","description":"","address":"Malaysia","title":"Paints"}},{"type":"Feature","geometry":{"type":"Point","coordinates":[113.92132698414,-0.78927499989015]},"properties":{"supplychain_instance_id":"supplychain-1","stop_instance_id":"stop-19","description":"","address":"Indonesia","title":"Paints"}},{"type":"Feature","geometry":{"type":"Point","coordinates":[55.923254992215,21.512582997146]},"properties":{"supplychain_instance_id":"supplychain-1","stop_instance_id":"stop-12","description":"","address":"Oman","title":"Paints"}},{"type":"Feature","geometry":{"type":"Point","coordinates":[30.802497995712,26.82055299654]},"properties":{"supplychain_instance_id":"supplychain-1","stop_instance_id":"stop-7","description":"","address":"Egypt","title":"Paints"}},{"type":"Feature","geometry":{"type":"Point","coordinates":[10.216594798578,59.131309494733]},"properties":{"title":"Dekorativ (5)","address":"Sandefjord, Norway","description":"","stop_instance_id":"stop-10","supplychain_instance_id":"supplychain-1","weight":"0","co2e":"0","energy":"0","water":"0","youtube:link":""}}],"properties":{"description":"","tags":"","title":"Worldwide"}}