{"type":"FeatureCollection","features":[{"type":"Feature","geometry":{"type":"Point","coordinates":[-95.712890986677,37.090239995559]},"properties":{"description":"","address":"United States","title":"Milk"}},{"type":"Feature","geometry":{"type":"Point","coordinates":[-95.712890986677,37.090239995559]},"properties":{"supplychain_instance_id":"supplychain-1","stop_instance_id":"stop-60","description":"","address":"United States","title":"Water"}},{"type":"Feature","geometry":{"type":"Point","coordinates":[30.802497995712,26.82055299654]},"properties":{"supplychain_instance_id":"supplychain-1","stop_instance_id":"stop-45","description":"","address":"Egypt","title":"Milk"}},{"type":"Feature","geometry":{"type":"Point","coordinates":[78.962879989009,20.593683997257]},"properties":{"supplychain_instance_id":"supplychain-1","stop_instance_id":"stop-32","description":"","address":"India","title":"Fruit"}},{"type":"Feature","geometry":{"type":"Point","coordinates":[-51.925279992772,-14.235003998059]},"properties":{"supplychain_instance_id":"supplychain-1","stop_instance_id":"stop-21","description":"","address":"Brazil","title":"Fruit"}},{"type":"Feature","geometry":{"type":"Point","coordinates":[-95.712890986677,37.090239995559]},"properties":{"supplychain_instance_id":"supplychain-1","stop_instance_id":"stop-12","description":"","address":"United States","title":"Yogurt Cultures"}},{"type":"Feature","geometry":{"type":"Point","coordinates":[10.451525998545,51.165690994785]},"properties":{"supplychain_instance_id":"supplychain-1","stop_instance_id":"stop-5","description":"","address":"Germany","title":"Rail Transportation"}},{"type":"Feature","geometry":{"type":"Point","coordinates":[2.2137489996918,46.227637994968]},"properties":{"title":"Milk","address":"France","description":"","stop_instance_id":"stop-1","supplychain_instance_id":"supplychain-1"}},{"type":"Feature","geometry":{"type":"Point","coordinates":[113.92132698414,-0.78927499989015]},"properties":{"title":"Water","address":"Indonesia","description":""}}],"properties":{"description":"","tags":"","title":"Dannon Yogurt"}}