{"supplychain":{"category":null,"created":1342467491,"enable_comments":true,"flags":0,"id":3548,"modified":1342467491,"other_perms":1,"passcode":null,"user_featured":false,"usergroup_id":null,"usergroup_perms":0,"user_id":2435,"owner":{"id":2435,"name":"xzhang35","avatar":"http:\/\/free.sourcemap.com\/assets\/images\/default-user.png","banner_url":null,"display_name":null},"taxonomy":null,"attributes":{"title":"Bass fishing, MI","description":"","tags":""},"stops":[{"local_stop_id":20,"id":20,"geometry":"POINT(-9392315.41437 5437213.072212)","attributes":{"address":"43.8173048,-84.3726049","placename":"43.8173048,-84.3726049","title":"wixom lake, mi"}},{"local_stop_id":19,"id":19,"geometry":"POINT(-9495748.331123 5607820.519239)","attributes":{"address":"44.9129047,-85.3017586","placename":"44.9129047,-85.3017586","title":"torch lake, mi"}},{"local_stop_id":18,"id":18,"geometry":"POINT(-9393924.326102 5420957.453072)","attributes":{"address":"43.7118461,-84.387058","placename":"43.7118461,-84.387058","title":"sanford lake, mi"}},{"local_stop_id":17,"id":17,"geometry":"POINT(-9408222.802625 5703211.05932)","attributes":{"address":"45.5165465,-84.5155034","placename":"45.5165465,-84.5155034","title":"mullett lake, mi"}},{"local_stop_id":16,"id":16,"geometry":"POINT(-9549966.166287 5817660.266911)","attributes":{"address":"46.2323394,-85.7888057","placename":"46.2323394,-85.7888057","title":"manistique lake, mi"}},{"local_stop_id":15,"id":15,"geometry":"POINT(-9336581.652644 5530626.237668)","attributes":{"address":"44.41972,-83.87194","placename":"44.41972,-83.87194","title":"long lake, mi"}},{"local_stop_id":14,"id":14,"geometry":"POINT(-9709510.707645 5380734.613785)","attributes":{"address":"43.4501005,-87.2220187","placename":"43.4501005,-87.22201870000001","title":"lake michigan"}},{"local_stop_id":13,"id":13,"geometry":"POINT(-9182144.950461 5629748.821913)","attributes":{"address":"45.0522366,-82.4846115","placename":"45.0522366,-82.4846115","title":"lake huron"}},{"local_stop_id":12,"id":12,"geometry":"POINT(-9972002.745985 5862567.166592)","attributes":{"address":"46.5106801,-89.5800248","placename":"46.5106801,-89.5800248","title":"lake Gogebic"}},{"local_stop_id":11,"id":11,"geometry":"POINT(-9054720.857803 5171003.794141)","attributes":{"address":"42.0668852,-81.3399414","placename":"42.0668852,-81.3399414","title":"lake erie"}},{"local_stop_id":10,"id":10,"geometry":"POINT(-9608794.676649 5778362.991062)","attributes":{"address":"45.9876041,-86.3172712","placename":"45.9876041,-86.31727119999999","title":"indian lake, mi"}},{"local_stop_id":9,"id":9,"geometry":"POINT(-9301891.293311 5591556.922927)","attributes":{"address":"44.8093475,-83.5603112","placename":"44.8093475,-83.5603112","title":"hubbard lake, mi"}},{"local_stop_id":8,"id":8,"geometry":"POINT(-9431110.53521 5518774.909725)","attributes":{"address":"44.3436318,-84.7211074","placename":"44.3436318,-84.72110739999999","title":"houghton lake, mi"}},{"local_stop_id":7,"id":7,"geometry":"POINT(-9625158.129726 5474071.373469)","attributes":{"address":"44.0557351,-86.4642666","placename":"44.0557351,-86.4642666","title":"hamlin lake, mi"}},{"local_stop_id":6,"id":6,"geometry":"POINT(-9294757.572987 5669650.040104)","attributes":{"address":"45.3048993,-83.4962279","placename":"45.3048993,-83.49622789999999","title":"grand lake, mi"}},{"local_stop_id":5,"id":5,"geometry":"POINT(-9336435.490153 5617721.308046)","attributes":{"address":"44.975856,-83.870627","placename":"44.975856,-83.870627","title":"flentcher pond, mi"}},{"local_stop_id":4,"id":4,"geometry":"POINT(-9504545.91048 5600264.390921)","attributes":{"address":"44.8648148,-85.3807886","placename":"44.8648148,-85.3807886","title":"elk lake, mi"}},{"local_stop_id":3,"id":3,"geometry":"POINT(-9423673.313426 5695250.554756)","attributes":{"address":"45.4664166,-84.6542977","placename":"45.4664166,-84.6542977","title":"burt lake mi"}},{"local_stop_id":2,"id":2,"geometry":"POINT(-9453212.931052 5779726.652115)","attributes":{"address":"45.9961149,-84.9196566","placename":"45.9961149,-84.9196566","title":"brevoort lake, mi"}},{"local_stop_id":1,"id":1,"geometry":"POINT(-9380411.921032 5695258.554595)","attributes":{"address":"45.466467,-84.265674","placename":"45.466467,-84.265674","title":"Black lake, mi"}}],"hops":[]},"editable":false}