{"type":"FeatureCollection","features":[{"type":"Feature","geometry":{"type":"Point","coordinates":[-84.372604899999,43.817304800003]},"properties":{"address":"43.8173048,-84.3726049","placename":"43.8173048,-84.3726049","title":"wixom lake, mi"}},{"type":"Feature","geometry":{"type":"Point","coordinates":[-85.301758600002,44.912904700002]},"properties":{"address":"44.9129047,-85.3017586","placename":"44.9129047,-85.3017586","title":"torch lake, mi"}},{"type":"Feature","geometry":{"type":"Point","coordinates":[-84.387057999996,43.711846100003]},"properties":{"address":"43.7118461,-84.387058","placename":"43.7118461,-84.387058","title":"sanford lake, mi"}},{"type":"Feature","geometry":{"type":"Point","coordinates":[-84.515503399998,45.5165465]},"properties":{"address":"45.5165465,-84.5155034","placename":"45.5165465,-84.5155034","title":"mullett lake, mi"}},{"type":"Feature","geometry":{"type":"Point","coordinates":[-85.788805699999,46.232339399999]},"properties":{"address":"46.2323394,-85.7888057","placename":"46.2323394,-85.7888057","title":"manistique lake, mi"}},{"type":"Feature","geometry":{"type":"Point","coordinates":[-83.87194,44.419719999999]},"properties":{"address":"44.41972,-83.87194","placename":"44.41972,-83.87194","title":"long lake, mi"}},{"type":"Feature","geometry":{"type":"Point","coordinates":[-87.222018699997,43.450100500002]},"properties":{"address":"43.4501005,-87.2220187","placename":"43.4501005,-87.22201870000001","title":"lake michigan"}},{"type":"Feature","geometry":{"type":"Point","coordinates":[-82.4846115,45.052236600002]},"properties":{"address":"45.0522366,-82.4846115","placename":"45.0522366,-82.4846115","title":"lake huron"}},{"type":"Feature","geometry":{"type":"Point","coordinates":[-89.580024800002,46.510680100002]},"properties":{"address":"46.5106801,-89.5800248","placename":"46.5106801,-89.5800248","title":"lake Gogebic"}},{"type":"Feature","geometry":{"type":"Point","coordinates":[-81.339941400003,42.066885199998]},"properties":{"address":"42.0668852,-81.3399414","placename":"42.0668852,-81.3399414","title":"lake erie"}},{"type":"Feature","geometry":{"type":"Point","coordinates":[-86.317271200001,45.987604099999]},"properties":{"address":"45.9876041,-86.3172712","placename":"45.9876041,-86.31727119999999","title":"indian lake, mi"}},{"type":"Feature","geometry":{"type":"Point","coordinates":[-83.560311199996,44.809347499998]},"properties":{"address":"44.8093475,-83.5603112","placename":"44.8093475,-83.5603112","title":"hubbard lake, mi"}},{"type":"Feature","geometry":{"type":"Point","coordinates":[-84.721107399998,44.343631800003]},"properties":{"address":"44.3436318,-84.7211074","placename":"44.3436318,-84.72110739999999","title":"houghton lake, mi"}},{"type":"Feature","geometry":{"type":"Point","coordinates":[-86.464266600001,44.0557351]},"properties":{"address":"44.0557351,-86.4642666","placename":"44.0557351,-86.4642666","title":"hamlin lake, mi"}},{"type":"Feature","geometry":{"type":"Point","coordinates":[-83.496227899999,45.304899299998]},"properties":{"address":"45.3048993,-83.4962279","placename":"45.3048993,-83.49622789999999","title":"grand lake, mi"}},{"type":"Feature","geometry":{"type":"Point","coordinates":[-83.870627000004,44.975855999999]},"properties":{"address":"44.975856,-83.870627","placename":"44.975856,-83.870627","title":"flentcher pond, mi"}},{"type":"Feature","geometry":{"type":"Point","coordinates":[-85.380788599999,44.864814799998]},"properties":{"address":"44.8648148,-85.3807886","placename":"44.8648148,-85.3807886","title":"elk lake, mi"}},{"type":"Feature","geometry":{"type":"Point","coordinates":[-84.654297699998,45.466416600002]},"properties":{"address":"45.4664166,-84.6542977","placename":"45.4664166,-84.6542977","title":"burt lake mi"}},{"type":"Feature","geometry":{"type":"Point","coordinates":[-84.919656600003,45.996114900001]},"properties":{"address":"45.9961149,-84.9196566","placename":"45.9961149,-84.9196566","title":"brevoort lake, mi"}},{"type":"Feature","geometry":{"type":"Point","coordinates":[-84.265674,45.466467000002]},"properties":{"address":"45.466467,-84.265674","placename":"45.466467,-84.265674","title":"Black lake, mi"}}],"properties":{"title":"Bass fishing, MI","description":"","tags":""}}