{"type":"FeatureCollection","features":[{"type":"Feature","geometry":{"type":"Point","coordinates":[-95.712890999999,37.090240000003]},"properties":{"description":"","name":"US's Top Importers","address":"United States","title":"US's Top Importers","qty":"0","co2e":"0","weight":"0","unit":"kg","1":"United States"}},{"type":"Feature","geometry":{"type":"Point","coordinates":[138.25292398076,36.204823995632]},"properties":{"youtube:link":"","description":"","name":"Japan's Top Importers","address":"Japan","title":"Japan's Top Importers","qty":"0","co2e":"0","weight":"0","unit":"kg","1":"Part Location"}},{"type":"Feature","geometry":{"type":"Point","coordinates":[104.195397,35.861660000001]},"properties":{"description":"","name":"China's Top Importers (2008)","address":"China","title":"China's Top Importers (2008)","qty":"0","co2e":"0","weight":"0","unit":"kg","1":"China"}},{"type":"Feature","geometry":{"type":"Point","coordinates":[10.451526000003,51.165690999999]},"properties":{"description":"","name":"Germany's Top Importers","address":"Germany","title":"Germany's Top Importers","qty":"0","co2e":"0","weight":"0","unit":"kg","1":"Germany"}},{"type":"Feature","geometry":{"type":"Point","coordinates":[2.2137489999989,46.227638]},"properties":{"description":"","name":"France's Top Importers","address":"France","title":"France's Top Importers","qty":"0","co2e":"0","weight":"0","unit":"kg","1":"France"}},{"type":"Feature","geometry":{"type":"Point","coordinates":[-3.4359729999961,55.378051000001]},"properties":{"description":"","name":"UK's Top Importers","address":"United Kingdom","title":"UK's Top Importers","qty":"0","co2e":"0","weight":"0","unit":"kg","1":"United Kingdom"}},{"type":"Feature","geometry":{"type":"Point","coordinates":[12.567380000004,41.871939999999]},"properties":{"description":"","name":"Italy's Top Importers","address":"Italy","title":"Italy's Top Importers","qty":"0","co2e":"0","weight":"0","unit":"kg","1":"Italy"}},{"type":"Feature","geometry":{"type":"Point","coordinates":[-51.925279999999,-14.235004]},"properties":{"description":"","name":"Brazi's Top Importers","address":"Brazil","title":"Brazi's Top Importers","qty":"0","co2e":"0","weight":"0","unit":"kg","1":"Brazil"}},{"type":"Feature","geometry":{"type":"Point","coordinates":[-3.7492200000004,40.463667000002]},"properties":{"description":"","name":"Spain's Top Importers","address":"Spain","title":"Spain's Top Importers","qty":"0","co2e":"0","weight":"0","unit":"kg","1":"Spain"}},{"type":"Feature","geometry":{"type":"Point","coordinates":[-106.346771,56.130366000001]},"properties":{"description":"","name":"Canada's Top Importers","address":"Canada","title":"Canada's Top Importers","qty":"0","co2e":"0","weight":"0","unit":"kg","1":"Canada"}},{"type":"Feature","geometry":{"type":"Point","coordinates":[105.318756,61.52401]},"properties":{"description":"","name":"Russia's Top Importers","address":"Russian Federation","title":"Russia's Top Importers","qty":"0","co2e":"0","weight":"0","unit":"kg","1":"Russian Federation"}},{"type":"Feature","geometry":{"type":"Point","coordinates":[78.962879999997,20.593684000004]},"properties":{"description":"","name":"India's Top Importers","address":"India","title":"India's Top Importers","qty":"0","co2e":"0","weight":"0","unit":"kg","1":"India"}},{"type":"Feature","geometry":{"type":"Point","coordinates":[133.775136,-25.274397999999]},"properties":{"description":"","name":"Australia's Top Importers","address":"Australia","title":"Australia's Top Importers","qty":"0","co2e":"0","weight":"0","unit":"kg","1":"Australia"}},{"type":"Feature","geometry":{"type":"Point","coordinates":[-102.552784,23.634501000001]},"properties":{"description":"","name":"Mexico's Top Importers","address":"Mexico","title":"Mexico's Top Importers","qty":"0","co2e":"0","weight":"0","unit":"kg","1":"Mexico"}},{"type":"Feature","geometry":{"type":"Point","coordinates":[127.766922,35.907756999999]},"properties":{"youtube:link":"","description":"","name":"South Korea's Top Importers","address":"South Korea","title":"South Korea's Top Importers","qty":"0","co2e":"0","weight":"0","unit":"kg","1":"South Korea"}}],"properties":{"alias:preferred":"worlds-top-economies","description":"Created on March 24, 2010 by geng_tan on Sourcemap.org.","distance:transport":"106603.04","emissions:embodied":"0","emissions:total":"0","emissions:transport":"0","legacy:creator":"9044","legacy:distance":"106603.04","legacy:emissions":"0","legacy:oid":"3444","sm:migrated:time":"1313857975","tags":"","title":"World's Top Economies","weight":"0"}}