{"type":"FeatureCollection","features":[{"type":"Feature","geometry":{"type":"Point","coordinates":[-6.4348335991042,36.739388595588]},"properties":{"supplychain_instance_id":"supplychain-1","stop_instance_id":"stop-505","description":"","address":"Calle de Padre Lerchundi, 35, 11550 Chipiona, Spain","title":"Bodegas C\u00e9sar Florido Moscatel Especial N\/V "}},{"type":"Feature","geometry":{"type":"Point","coordinates":[8.2284797988546,44.738948095043]},"properties":{"supplychain_instance_id":"supplychain-1","stop_instance_id":"stop-462","description":"","address":"14052 Calosso Province of Asti, Italy","title":"Scagliola Moscato D\u2019 Asti \u201cPrimo Bacio\u201d 2010 "}},{"type":"Feature","geometry":{"type":"Point","coordinates":[-2.7499340996172,42.605423395166]},"properties":{"supplychain_instance_id":"supplychain-1","stop_instance_id":"stop-421","description":"","address":"Carretera de Pe\u00f1acerrada a Rivas, 26338 San Vicente de la Sonsierra, Spain","title":"La Granja Nuestra Se\u00f1ora de Remelluri \u201cLindes\u201d 2009"}},{"type":"Feature","geometry":{"type":"Point","coordinates":[4.8353030993269,44.05676929508]},"properties":{"supplychain_instance_id":"supplychain-1","stop_instance_id":"stop-382","description":"","address":"7 Avenue Louis Pasteur, 84230 Ch\u00e2teauneuf-du-Pape, France","title":"Domaine Chante Cigale Ch\u00e2teauneuf-du-Pape 2009"}},{"type":"Feature","geometry":{"type":"Point","coordinates":[0.039827999994456,44.450418895059]},"properties":{"youtube:link":"","water":"0","energy":"0","co2e":"0","weight":"0","supplychain_instance_id":"supplychain-1","stop_instance_id":"stop-327","description":"","address":"Laclotte, 47250 Cocumont, France","title":"Domaine Elian Da Ros \u201cChante Coucou\u201d 2008"}},{"type":"Feature","geometry":{"type":"Point","coordinates":[4.8467229993253,45.090319995024]},"properties":{"supplychain_instance_id":"supplychain-1","stop_instance_id":"stop-292","description":"","address":"26600 Crozes-Hermitage, France","title":"Domaine Des Hauts Ch\u00e2ssis Crozes-Hermitage \u201cLes Galets\u201d 2009"}},{"type":"Feature","geometry":{"type":"Point","coordinates":[11.285667598429,43.471514195114]},"properties":{"supplychain_instance_id":"supplychain-1","stop_instance_id":"stop-259","description":"","address":"53011 Castellina In Chianti Province of Siena, Italy","title":"Poggio Barbone Morellino di Scansano 2009"}},{"type":"Feature","geometry":{"type":"Point","coordinates":[1.3229225998158,44.492413595057]},"properties":{"supplychain_instance_id":"supplychain-1","stop_instance_id":"stop-228","description":"","address":"Port de Langle, 46140 Parnac, France","title":"Ch\u00e2teau Armandi\u00e8re Cahors Cuv\u00e9e 2009"}},{"type":"Feature","geometry":{"type":"Point","coordinates":[-2.6850558996263,42.500546695173]},"properties":{"supplychain_instance_id":"supplychain-1","stop_instance_id":"stop-199","description":"","address":"26359 Torremontalbo, Spain","title":"Conde de Herv\u00edas Mencos \u2028Rioja 2009 "}},{"type":"Feature","geometry":{"type":"Point","coordinates":[4.6232119993564,46.146812994972]},"properties":{"supplychain_instance_id":"supplychain-1","stop_instance_id":"stop-172","description":"","address":"69430 Lantigni\u00e9, France","title":"Domaine de Colette R\u00e9gni\u00e9 S\u00e9lection Vieilles Vignes 2009 "}},{"type":"Feature","geometry":{"type":"Point","coordinates":[2.8259433996066,47.378989394916]},"properties":{"supplychain_instance_id":"supplychain-1","stop_instance_id":"stop-147","description":"","address":"Panquelaine, 18300 Sury-en-Vaux, France","title":"Domaine Des Grandes Perri\u00e9res Sancerre 2010"}},{"type":"Feature","geometry":{"type":"Point","coordinates":[1.5169008997888,47.235878294922]},"properties":{"supplychain_instance_id":"supplychain-1","stop_instance_id":"stop-124","description":"","address":"1465 Rue des Vignes, 41130 Meusnes, France","title":"Domaine Augis Valen\u00e7ay 2010"}},{"type":"Feature","geometry":{"type":"Point","coordinates":[-0.58386749991872,47.375231394916]},"properties":{"supplychain_instance_id":"supplychain-1","stop_instance_id":"stop-103","description":"","address":"Chauvign\u00e9, 49610 Moz\u00e9-sur-Louet, France","title":"Domaine Richou Anjou Blanc \u201cChauvigne\u201d 2010"}},{"type":"Feature","geometry":{"type":"Point","coordinates":[-0.42199299994126,43.260469995126]},"properties":{"supplychain_instance_id":"supplychain-1","stop_instance_id":"stop-84","description":"","address":"Chapelle de Rousse, 64110 Juran\u00e7on, France","title":"Clos Lapeyre Juran\u00e7on Sec, 2010 "}},{"type":"Feature","geometry":{"type":"Point","coordinates":[4.8169509993295,46.419657994959]},"properties":{"supplychain_instance_id":"supplychain-1","stop_instance_id":"stop-67","description":"","address":"Route de la Vigne Blanche, 71260 Cless\u00e9, France","title":"Domaine Des Gandines M\u00e2con-P\u00e9ronne 2010"}},{"type":"Feature","geometry":{"type":"Point","coordinates":[15.618869397826,48.420436594873]},"properties":{"supplychain_instance_id":"supplychain-1","stop_instance_id":"stop-52","description":"","address":"Sandgrube 13, 3500 Krems an der Donau, Austria","title":"Winzer Krems Gr\u00fcner Veltliner Ried Sandgrube 2011"}},{"type":"Feature","geometry":{"type":"Point","coordinates":[-76.855644989302,42.576401995168]},"properties":{"supplychain_instance_id":"supplychain-1","stop_instance_id":"stop-39","description":"","address":"9224 Rte 414, Lodi, NY 14860, USA","title":"Lamoreaux Landing Chardonnay 2008 "}},{"type":"Feature","geometry":{"type":"Point","coordinates":[-4.7920227993329,41.411922895242]},"properties":{"supplychain_instance_id":"supplychain-1","stop_instance_id":"stop-28","description":"","address":"Plaza de San Juan, 4, 47230 Matapozuelos, Spain","title":"Garciarevalo Casamaro Verdejo 2011"}},{"type":"Feature","geometry":{"type":"Point","coordinates":[-8.0022033988861,41.386949595244]},"properties":{"supplychain_instance_id":"supplychain-1","stop_instance_id":"stop-19","description":"","address":"4890 Celorico de Basto, Portugal","title":"Raza Vinho Verde Branco 2011"}},{"type":"Feature","geometry":{"type":"Point","coordinates":[-2.6810397996268,42.569142895168]},"properties":{"supplychain_instance_id":"supplychain-1","stop_instance_id":"stop-9","description":"","address":"Carretera de Vitoria, 1, 01307 Samaniego, Spain","title":"Ostatu Rosado 2011"}},{"type":"Feature","geometry":{"type":"Point","coordinates":[1.7830972997518,41.357372295246]},"properties":{"supplychain_instance_id":"supplychain-1","stop_instance_id":"stop-4","description":"","address":"08793 Avinyonet del Pened\u00e8s, Spain","title":"Aviny\u00f3 Cava Brut NV "}},{"type":"Feature","geometry":{"type":"Point","coordinates":[3.929473199453,49.003721594852]},"properties":{"supplychain_instance_id":"supplychain-1","stop_instance_id":"stop-1","description":"","address":"3 Rue des Jardins, 51530 Chavot-Courcourt, France","title":"Laherte Fr\u00e9res Champagne \u201cLes Empreintes\u201d NV"}}],"properties":{"description":"","tags":"","title":"Wine List, August 2012","sm:ui:tileset":"satellite"}}