{"supplychain":{"category":null,"created":1346976186,"enable_comments":true,"flags":0,"id":3798,"modified":1346976189,"other_perms":1,"passcode":null,"user_featured":false,"usergroup_id":null,"usergroup_perms":0,"user_id":2806,"owner":{"id":2806,"name":"theyec","avatar":"http:\/\/prod-accountpics.s3-website-us-east-1.amazonaws.com\/theyec.png?AWSAccessKeyId=AKIAIDYFSB4C2GNEML7Q&Expires=1380254404&Signature=Gj%2Fv3EGC8GvnhylAEnLlpJ0Fr5E%3D","banner_url":null,"display_name":null},"taxonomy":null,"attributes":{"title":"YEC Member Map","description":"","tags":""},"stops":[{"local_stop_id":556,"id":556,"geometry":"POINT(-10772378.552464 3869178.646697)","attributes":{"address":"Dallas, TX","placename":"Dallas, TX, USA","title":"Elysa Ellis"}},{"local_stop_id":555,"id":555,"geometry":"POINT(-13041885.98047 3857579.348242)","attributes":{"address":"San Diego, CA","placename":"San Diego, CA, USA","title":"Ashley Lee"}},{"local_stop_id":554,"id":554,"geometry":"POINT(-7910337.76851 5214822.776941)","attributes":{"address":"Boston, MA","placename":"Boston, MA, USA","title":"Ryan Paugh"}},{"local_stop_id":553,"id":553,"geometry":"POINT(-8238307.241153 4970299.628631)","attributes":{"address":"New York, NY","placename":"New York, NY, USA","title":"Scott Gerber"}},{"local_stop_id":552,"id":552,"geometry":"POINT(-9183237.117117 3477074.044373)","attributes":{"address":"Alachua, FL","placename":"Alachua, FL, USA","title":"Chad French"}},{"local_stop_id":551,"id":551,"geometry":"POINT(-13607876.617597 4546310.257225)","attributes":{"address":"Alameda, CA","placename":"Alameda, CA, USA","title":"Brooks Kincaid"}},{"local_stop_id":550,"id":550,"geometry":"POINT(-8210506.155675 5259239.496787)","attributes":{"address":"Albany, NY","placename":"Albany, NY, USA","title":"Adam McFarland"}},{"local_stop_id":549,"id":549,"geometry":"POINT(-13105148.947275 3971876.676368)","attributes":{"address":"Aliso Viejo, CA","placename":"Aliso Viejo, CA, USA","title":"Shaun King"}},{"local_stop_id":548,"id":548,"geometry":"POINT(-9322232.325378 5203139.023438)","attributes":{"address":"Ann Arbor, MI","placename":"Ann Arbor, MI, USA","title":"Neil Thanedar"}},{"local_stop_id":547,"id":547,"geometry":"POINT(3857811.907761 3737659.896034)","attributes":{"address":"Ashdod, Israel","placename":"Ashdod, Israel","title":"Jacob Share"}},{"local_stop_id":546,"id":546,"geometry":"POINT(-9189870.91274 4245850.066057)","attributes":{"address":"Asheville, NC","placename":"Asheville, NC, USA","title":"Adam Baker"}},{"local_stop_id":545,"id":545,"geometry":"POINT(-9394027.22984 3995147.831738)","attributes":{"address":"Atlanta, GA","placename":"Atlanta, GA, USA","title":"Vincent Baskerville"}},{"local_stop_id":544,"id":544,"geometry":"POINT(-9394027.22984 3995147.831738)","attributes":{"address":"Atlanta, GA","placename":"Atlanta, GA, USA","title":"Laura Calandrella"}},{"local_stop_id":543,"id":543,"geometry":"POINT(-9394027.22984 3995147.831738)","attributes":{"address":"Atlanta, GA","placename":"Atlanta, GA, USA","title":"Prerna Gupta"}},{"local_stop_id":542,"id":542,"geometry":"POINT(-9394027.22984 3995147.831738)","attributes":{"address":"Atlanta, GA","placename":"Atlanta, GA, USA","title":"Lawrence Watkins"}},{"local_stop_id":541,"id":541,"geometry":"POINT(-9394027.22984 3995147.831738)","attributes":{"address":"Atlanta, GA","placename":"Atlanta, GA, USA","title":"Johnson Cook"}},{"local_stop_id":540,"id":540,"geometry":"POINT(-9394027.22984 3995147.831738)","attributes":{"address":"Atlanta, GA","placename":"Atlanta, GA, USA","title":"Jamail Larkins"}},{"local_stop_id":539,"id":539,"geometry":"POINT(-9394027.22984 3995147.831738)","attributes":{"address":"Atlanta, GA","placename":"Atlanta, GA, USA","title":"Casey Walsh"}},{"local_stop_id":538,"id":538,"geometry":"POINT(-10880707.756832 3537936.30054)","attributes":{"address":"Austin, TX","placename":"Austin, TX, USA","title":"Evan Baehr"}},{"local_stop_id":537,"id":537,"geometry":"POINT(-10880707.756832 3537936.30054)","attributes":{"address":"Austin, TX","placename":"Austin, TX, USA","title":"Noah Kagan"}},{"local_stop_id":536,"id":536,"geometry":"POINT(-10880707.756832 3537936.30054)","attributes":{"address":"Austin, TX","placename":"Austin, TX, USA","title":"Jason Dorsey"}},{"local_stop_id":535,"id":535,"geometry":"POINT(-8528429.901434 4763352.472613)","attributes":{"address":"Baltimore, MD","placename":"Baltimore, MD, USA","title":"Thursday Bram"}},{"local_stop_id":534,"id":534,"geometry":"POINT(-8528429.901434 4763352.472613)","attributes":{"address":"Baltimore, MD","placename":"Baltimore, MD, USA","title":"Kwame Kuadey"}},{"local_stop_id":533,"id":533,"geometry":"POINT(-10145693.968608 3562594.90668)","attributes":{"address":"Baton rouge, LA","placename":"Baton Rouge, LA, USA","title":"Kenny Nguyen"}},{"local_stop_id":532,"id":532,"geometry":"POINT(-13611339.933935 4561302.001121)","attributes":{"address":"Berkeley, CA","placename":"Berkeley, CA, USA","title":"Kalimah Priforce"}},{"local_stop_id":531,"id":531,"geometry":"POINT(-13611339.933935 4561302.001121)","attributes":{"address":"Berkeley, CA","placename":"Berkeley, CA, USA","title":"Bhavin Parikh"}},{"local_stop_id":530,"id":530,"geometry":"POINT(-13611339.933935 4561302.001121)","attributes":{"address":"Berkeley, CA, California","placename":"Berkeley, CA, USA","title":"Mitch Gordon"}},{"local_stop_id":529,"id":529,"geometry":"POINT(-8582143.771 4719473.341656)","attributes":{"address":"Bethesda, MD","placename":"Bethesda, MD, USA","title":"Peter LaMotte"}},{"local_stop_id":528,"id":528,"geometry":"POINT(-8358597.836126 4961438.336479)","attributes":{"address":"Bloomsbury, NJ","placename":"Bloomsbury, NJ, USA","title":"Michael Batalha"}},{"local_stop_id":527,"id":527,"geometry":"POINT(-7910337.76851 5214822.776941)","attributes":{"address":"Boston, MA","placename":"Boston, MA, USA","title":"Paige Brown"}},{"local_stop_id":526,"id":526,"geometry":"POINT(-7910337.76851 5214822.776941)","attributes":{"address":"Boston, MA","placename":"Boston, MA, USA","title":"Jason Ethier"}},{"local_stop_id":525,"id":525,"geometry":"POINT(-7910337.76851 5214822.776941)","attributes":{"address":"Boston, MA","placename":"Boston, MA, USA","title":"Cortlandt Johnson"}},{"local_stop_id":524,"id":524,"geometry":"POINT(-7910337.76851 5214822.776941)","attributes":{"address":"Boston, MA","placename":"Boston, MA, USA","title":"Windsor Hanger"}},{"local_stop_id":523,"id":523,"geometry":"POINT(-7910337.76851 5214822.776941)","attributes":{"address":"Boston, MA","placename":"Boston, MA, USA","title":"Vincent Vomero"}},{"local_stop_id":522,"id":522,"geometry":"POINT(-7910337.76851 5214822.776941)","attributes":{"address":"Boston, MA","placename":"Boston, MA, USA","title":"Tyler Balliet"}},{"local_stop_id":521,"id":521,"geometry":"POINT(-7910337.76851 5214822.776941)","attributes":{"address":"Boston, MA","placename":"Boston, MA, USA","title":"Tony Navarro"}},{"local_stop_id":520,"id":520,"geometry":"POINT(-7910337.76851 5214822.776941)","attributes":{"address":"Boston, MA","placename":"Boston, MA, USA","title":"Todd Garland"}},{"local_stop_id":519,"id":519,"geometry":"POINT(-7910337.76851 5214822.776941)","attributes":{"address":"Boston, MA","placename":"Boston, MA, USA","title":"Stephanie Kaplan"}},{"local_stop_id":518,"id":518,"geometry":"POINT(-7910337.76851 5214822.776941)","attributes":{"address":"Boston, MA","placename":"Boston, MA, USA","title":"Siamak Taghaddos"}},{"local_stop_id":517,"id":517,"geometry":"POINT(-7910337.76851 5214822.776941)","attributes":{"address":"Boston, MA","placename":"Boston, MA, USA","title":"Ross Beyeler"}},{"local_stop_id":516,"id":516,"geometry":"POINT(-7910337.76851 5214822.776941)","attributes":{"address":"Boston, MA","placename":"Boston, MA, USA","title":"Pete Kistler"}},{"local_stop_id":515,"id":515,"geometry":"POINT(-7910337.76851 5214822.776941)","attributes":{"address":"Boston, MA","placename":"Boston, MA, USA","title":"Matt Lauzon"}},{"local_stop_id":514,"id":514,"geometry":"POINT(-7910337.76851 5214822.776941)","attributes":{"address":"Boston, MA","placename":"Boston, MA, USA","title":"John Harthorne"}},{"local_stop_id":513,"id":513,"geometry":"POINT(-7910337.76851 5214822.776941)","attributes":{"address":"Boston, MA","placename":"Boston, MA, USA","title":"Jeff Avallon"}},{"local_stop_id":512,"id":512,"geometry":"POINT(-7910337.76851 5214822.776941)","attributes":{"address":"Boston, MA","placename":"Boston, MA, USA","title":"Jason Evanish"}},{"local_stop_id":511,"id":511,"geometry":"POINT(-7910337.76851 5214822.776941)","attributes":{"address":"Boston, MA","placename":"Boston, MA, USA","title":"David Hauser"}},{"local_stop_id":510,"id":510,"geometry":"POINT(-7910337.76851 5214822.776941)","attributes":{"address":"Boston, MA","placename":"Boston, MA, USA","title":"Danny Wong"}},{"local_stop_id":509,"id":509,"geometry":"POINT(-7910337.76851 5214822.776941)","attributes":{"address":"Boston, MA","placename":"Boston, MA, USA","title":"Dan Schawbel"}},{"local_stop_id":508,"id":508,"geometry":"POINT(-7910337.76851 5214822.776941)","attributes":{"address":"Boston, MA","placename":"Boston, MA, USA","title":"Annie Wang"}},{"local_stop_id":507,"id":507,"geometry":"POINT(-7910337.76851 5214822.776941)","attributes":{"address":"Boston, MA","placename":"Boston, MA, USA","title":"Andrew Bachman"}},{"local_stop_id":506,"id":506,"geometry":"POINT(-7910337.76851 5214822.776941)","attributes":{"address":"Boston, MA","placename":"Boston, MA, USA","title":"Alex Hunte"}},{"local_stop_id":505,"id":505,"geometry":"POINT(-7910337.76851 5214822.776941)","attributes":{"address":"Boston, MA","placename":"Boston, MA, USA","title":"Adam McGowan"}},{"local_stop_id":504,"id":504,"geometry":"POINT(-7910337.76851 5214822.776941)","attributes":{"address":"Boston, MA","placename":"Boston, MA, USA","title":"Abbie Davies Steinbacher"}},{"local_stop_id":503,"id":503,"geometry":"POINT(-11718663.531722 4868120.185076)","attributes":{"address":"Boulder, CO","placename":"Boulder, CO, USA","title":"Nathaniel Koloc"}},{"local_stop_id":502,"id":502,"geometry":"POINT(-11718663.531722 4868120.185076)","attributes":{"address":"Boulder, CO","placename":"Boulder, CO, USA","title":"Sarah Schupp"}},{"local_stop_id":501,"id":501,"geometry":"POINT(-11718663.531722 4868120.185076)","attributes":{"address":"Boulder, CO","placename":"Boulder, CO, USA","title":"Jeffrey Powers"}},{"local_stop_id":500,"id":500,"geometry":"POINT(-9160027.237058 3241134.179582)","attributes":{"address":"Brandon, FL","placename":"Brandon, FL, USA","title":"D.C. Fawcett"}},{"local_stop_id":499,"id":499,"geometry":"POINT(-15268.915316 6589961.170074)","attributes":{"address":"Brighton, England","placename":"Brighton, The City of Brighton and Hove, UK","title":"Laura Roeder"}},{"local_stop_id":498,"id":498,"geometry":"POINT(-7917171.705445 5210806.395079)","attributes":{"address":"Brookline, MA","placename":"Brookline, MA, USA","title":"Sam Sisakhti"}},{"local_stop_id":497,"id":497,"geometry":"POINT(-8232076.344163 4960853.010044)","attributes":{"address":"Brooklyn, NY","placename":"Brooklyn, NY, USA","title":"Hanny Lerner"}},{"local_stop_id":496,"id":496,"geometry":"POINT(-8232076.344163 4960853.010044)","attributes":{"address":"Brooklyn, NY","placename":"Brooklyn, NY, USA","title":"Jullien Gordon"}},{"local_stop_id":495,"id":495,"geometry":"POINT(-8232076.344163 4960853.010044)","attributes":{"address":"Brooklyn, NY","placename":"Brooklyn, NY, USA","title":"James Rohrbach"}},{"local_stop_id":494,"id":494,"geometry":"POINT(-6499009.215592 -4110158.263751)","attributes":{"address":"Buenos Aires, Argentina","placename":"Buenos Aires, Autonomous City of Buenos Aires, Argentina","title":"Patrick Curtis"}},{"local_stop_id":493,"id":493,"geometry":"POINT(-6499009.215592 -4110158.263751)","attributes":{"address":"Buenos Aires, Argentina","placename":"Buenos Aires, Autonomous City of Buenos Aires, Argentina","title":"David Lee"}},{"local_stop_id":492,"id":492,"geometry":"POINT(-12696782.857457 6629277.573003)","attributes":{"address":"Calgary","placename":"Calgary, AB, Canada","title":"Justin Nowak"}},{"local_stop_id":491,"id":491,"geometry":"POINT(-12696782.857457 6629277.573003)","attributes":{"address":"Calgary","placename":"Calgary, AB, Canada","title":"Devesh Dwivedi"}},{"local_stop_id":490,"id":490,"geometry":"POINT(-13251205.273288 4057895.555512)","attributes":{"address":"Camarillo, CA","placename":"Camarillo, CA, USA","title":"Luke Burgis"}},{"local_stop_id":489,"id":489,"geometry":"POINT(13560.60641 6837338.511989)","attributes":{"address":"Cambridge, United Kingdom","placename":"Cambridge, UK","title":"Alex Handy"}},{"local_stop_id":488,"id":488,"geometry":"POINT(-9405468.613708 4060637.870192)","attributes":{"address":"Canton, GA","placename":"Canton, GA, USA","title":"Sean Belnick"}},{"local_stop_id":487,"id":487,"geometry":"POINT(-13063408.357236 3916307.054561)","attributes":{"address":"Carlsbad, CA","placename":"Carlsbad, CA, USA","title":"Amy Porterfield"}},{"local_stop_id":486,"id":486,"geometry":"POINT(-10785741.410931 3892071.226064)","attributes":{"address":"Carrollton, TX","placename":"Carrollton, TX, USA","title":"Shama Kabani"}},{"local_stop_id":485,"id":485,"geometry":"POINT(-13332446.360121 4745161.520393)","attributes":{"address":"Carson City, NV","placename":"Carson City, NV, USA","title":"Nicolas Gremion"}},{"local_stop_id":484,"id":484,"geometry":"POINT(-9313554.870883 4269181.901505)","attributes":{"address":"Cedar Falls, IO","placename":"Cedar Falls, Sevierville, TN 37862, USA","title":"Therese Kuster"}},{"local_stop_id":483,"id":483,"geometry":"POINT(-9496630.148469 4170083.768254)","attributes":{"address":"Chattanooga, TN","placename":"Chattanooga, TN, USA","title":"Ben Wagner"}},{"local_stop_id":482,"id":482,"geometry":"POINT(-9496630.148469 4170083.768254)","attributes":{"address":"Chattanooga, TN","placename":"Chattanooga, TN, USA","title":"Craig Fuller"}},{"local_stop_id":481,"id":481,"geometry":"POINT(-9754904.513941 5142738.902517)","attributes":{"address":"Chicago, IL","placename":"Chicago, IL, USA","title":"Hannah Fernandez"}},{"local_stop_id":480,"id":480,"geometry":"POINT(-9754904.513941 5142738.902517)","attributes":{"address":"Chicago, IL","placename":"Chicago, IL, USA","title":"Abby Ross"}},{"local_stop_id":479,"id":479,"geometry":"POINT(-9754904.513941 5142738.902517)","attributes":{"address":"Chicago, IL","placename":"Chicago, IL, USA","title":"Seth Kravitz"}},{"local_stop_id":478,"id":478,"geometry":"POINT(-9754904.513941 5142738.902517)","attributes":{"address":"Chicago, IL","placename":"Chicago, IL, USA","title":"Mike McGee"}},{"local_stop_id":477,"id":477,"geometry":"POINT(-9754904.513941 5142738.902517)","attributes":{"address":"Chicago, IL","placename":"Chicago, IL, USA","title":"Michael Kaye"}},{"local_stop_id":476,"id":476,"geometry":"POINT(-9754904.513941 5142738.902517)","attributes":{"address":"Chicago, IL","placename":"Chicago, IL, USA","title":"Sean Johnson"}},{"local_stop_id":475,"id":475,"geometry":"POINT(-9754904.513941 5142738.902517)","attributes":{"address":"Chicago, IL","placename":"Chicago, IL, USA","title":"Ethan Austin, TX, TX"}},{"local_stop_id":474,"id":474,"geometry":"POINT(-9754904.513941 5142738.902517)","attributes":{"address":"Chicago, IL","placename":"Chicago, IL, USA","title":"Tim Jahn"}},{"local_stop_id":473,"id":473,"geometry":"POINT(-9754904.513941 5142738.902517)","attributes":{"address":"Chicago, IL","placename":"Chicago, IL, USA","title":"Nick Cronin"}},{"local_stop_id":472,"id":472,"geometry":"POINT(-9754904.513941 5142738.902517)","attributes":{"address":"Chicago, IL","placename":"Chicago, IL, USA","title":"Jason Smikle"}},{"local_stop_id":471,"id":471,"geometry":"POINT(-9754904.513941 5142738.902517)","attributes":{"address":"Chicago, IL","placename":"Chicago, IL, USA","title":"Jake Nickell"}},{"local_stop_id":470,"id":470,"geometry":"POINT(-9754904.513941 5142738.902517)","attributes":{"address":"Chicago, IL","placename":"Chicago, IL, USA","title":"Genevieve Thiers"}},{"local_stop_id":469,"id":469,"geometry":"POINT(-9754904.513941 5142738.902517)","attributes":{"address":"Chicago, IL","placename":"Chicago, IL, USA","title":"Emerson Spartz"}},{"local_stop_id":468,"id":468,"geometry":"POINT(-9754904.513941 5142738.902517)","attributes":{"address":"Chicago, IL","placename":"Chicago, IL, USA","title":"David Gardner"}},{"local_stop_id":467,"id":467,"geometry":"POINT(-9754904.513941 5142738.902517)","attributes":{"address":"Chicago, IL","placename":"Chicago, IL, USA","title":"Charles Wu"}},{"local_stop_id":466,"id":466,"geometry":"POINT(-9754904.513941 5142738.902517)","attributes":{"address":"Chicago, IL","placename":"Chicago, IL, USA","title":"Brett Kopf"}},{"local_stop_id":465,"id":465,"geometry":"POINT(0 -0)","attributes":{"address":"Chicago, IL","title":"Alexandra Levit"}},{"local_stop_id":464,"id":464,"geometry":"POINT(-13562885.977101 4826565.911065)","attributes":{"address":"Chico, CA","placename":"Chico, CA, USA","title":"Robert Strazzarino"}},{"local_stop_id":463,"id":463,"geometry":"POINT(-9319561.793058 5108930.907431)","attributes":{"address":"Ci, OH","placename":"Oak Ci, Springfield, OH 43615, USA","title":"Jason Duff"}},{"local_stop_id":462,"id":462,"geometry":"POINT(-9407834.987783 4736453.151955)","attributes":{"address":"Cincinnati, OH","placename":"Cincinnati, OH, USA","title":"Matt Gartland"}},{"local_stop_id":461,"id":461,"geometry":"POINT(-7910337.76851 5214822.776941)","attributes":{"address":"Boston, MA","placename":"Boston, MA, USA","title":"Caitlin McCabe"}},{"local_stop_id":460,"id":460,"geometry":"POINT(-9094291.307764 5086298.649398)","attributes":{"address":"Cleveland, OH","placename":"Cleveland, OH, USA","title":"Roger Bryan"}},{"local_stop_id":459,"id":459,"geometry":"POINT(-8255871.475313 4991482.905639)","attributes":{"address":"Clifton, NJ","placename":"Clifton, NJ, USA","title":"Steph Auteri"}},{"local_stop_id":458,"id":458,"geometry":"POINT(-11668660.797945 4697904.39345)","attributes":{"address":"Colorado Springs, CO","placename":"Colorado Springs, CO, USA","title":"Etienne Hardre"}},{"local_stop_id":457,"id":457,"geometry":"POINT(-8556132.524822 4750894.062624)","attributes":{"address":"Columbia, MD","placename":"Columbia, MD, USA","title":"Jason Jannati"}},{"local_stop_id":456,"id":456,"geometry":"POINT(-10278581.922437 4714756.130234)","attributes":{"address":"Columbia, MO","placename":"Columbia, MO, USA","title":"Brant Bukowsky"}},{"local_stop_id":455,"id":455,"geometry":"POINT(-10278581.922437 4714756.130234)","attributes":{"address":"Columbia, MO","placename":"Columbia, MO, USA","title":"Emily Eldridge"}},{"local_stop_id":454,"id":454,"geometry":"POINT(-10278581.922437 4714756.130234)","attributes":{"address":"Columbia, MO","placename":"Columbia, MO, USA","title":"John Hall"}},{"local_stop_id":453,"id":453,"geometry":"POINT(-10278581.922437 4714756.130234)","attributes":{"address":"Columbia, MO","placename":"Columbia, MO, USA","title":"Brent Beshore"}},{"local_stop_id":452,"id":452,"geometry":"POINT(-9239383.5068 4860302.011878)","attributes":{"address":"Columbus, OH","placename":"Columbus, OH, USA","title":"Scot Gray"}},{"local_stop_id":451,"id":451,"geometry":"POINT(-9239383.5068 4860302.011878)","attributes":{"address":"Columbus, OH","placename":"Columbus, OH, USA","title":"Jason Ross"}},{"local_stop_id":450,"id":450,"geometry":"POINT(-10842115.538028 3223855.027765)","attributes":{"address":"Corpus Christi, TX","placename":"Corpus Christi, TX, USA","title":"Holly Hoffman"}},{"local_stop_id":449,"id":449,"geometry":"POINT(0 -0)","attributes":{"address":"Costa Mesa, CA","title":"Peter Nguyen"}},{"local_stop_id":448,"id":448,"geometry":"POINT(-10772378.552464 3869178.646697)","attributes":{"address":"Dallas, TX","placename":"Dallas, TX, USA","title":"Brent Skoda"}},{"local_stop_id":447,"id":447,"geometry":"POINT(-10772378.552464 3869178.646697)","attributes":{"address":"Dallas, TX","placename":"Dallas, TX, USA","title":"Zamil Hudani Hudani"}},{"local_stop_id":446,"id":446,"geometry":"POINT(-10772378.552464 3869178.646697)","attributes":{"address":"Dallas, Tx","placename":"Dallas, TX, USA","title":"Kevin Lavelle"}},{"local_stop_id":445,"id":445,"geometry":"POINT(-10772378.552464 3869178.646697)","attributes":{"address":"Dallas, Tx","placename":"Dallas, TX, USA","title":"Jake Thompson"}},{"local_stop_id":444,"id":444,"geometry":"POINT(-10772378.552464 3869178.646697)","attributes":{"address":"Dallas, Tx","placename":"Dallas, TX, USA","title":"Greg McEvilly"}},{"local_stop_id":443,"id":443,"geometry":"POINT(-10772378.552464 3869178.646697)","attributes":{"address":"Dallas, Tx","placename":"Dallas, TX, USA","title":"George Mavro"}},{"local_stop_id":442,"id":442,"geometry":"POINT(-10772378.552464 3869178.646697)","attributes":{"address":"Dallas, Tx","placename":"Dallas, TX, USA","title":"Erica Nicole"}},{"local_stop_id":441,"id":441,"geometry":"POINT(-10772378.552464 3869178.646697)","attributes":{"address":"Dallas, Tx","placename":"Dallas, TX, USA","title":"Blake Beshore"}},{"local_stop_id":440,"id":440,"geometry":"POINT(-10772378.552464 3869178.646697)","attributes":{"address":"Dallas, Tx","placename":"Dallas, TX, USA","title":"Benjamin Smithee"}},{"local_stop_id":439,"id":439,"geometry":"POINT(-10772378.552464 3869178.646697)","attributes":{"address":"Dallas, Tx","placename":"Dallas, TX, USA","title":"Anthony Adams"}},{"local_stop_id":438,"id":438,"geometry":"POINT(-9383822.560987 3998606.786572)","attributes":{"address":"Decatur, GA","placename":"Decatur, GA, USA","title":"Darrah Brustein"}},{"local_stop_id":437,"id":437,"geometry":"POINT(8596643.223731 3329310.295848)","attributes":{"address":"Delhi","placename":"New Delhi, Delhi, India","title":"Deepak Ravindran"}},{"local_stop_id":436,"id":436,"geometry":"POINT(-11686845.337703 4827879.196195)","attributes":{"address":"Denver, CO","placename":"Denver, CO, USA","title":"Andrew Schrage"}},{"local_stop_id":435,"id":435,"geometry":"POINT(-10420518.058061 5101329.539088)","attributes":{"address":"Des Moines, IA","placename":"Des Moines, IA, USA","title":"Dane Maxwell"}},{"local_stop_id":434,"id":434,"geometry":"POINT(-10420518.058061 5101329.539088)","attributes":{"address":"Des Moines, IA","placename":"Des Moines, IA, USA","title":"Andy Drish"}},{"local_stop_id":433,"id":433,"geometry":"POINT(-9244611.02556 5210755.618708)","attributes":{"address":"Detroit, MI","placename":"Detroit, MI, USA","title":"Milena Thomas"}},{"local_stop_id":432,"id":432,"geometry":"POINT(-9244611.02556 5210755.618708)","attributes":{"address":"Detroit, MI","placename":"Detroit, MI, USA","title":"Elizabeth Saunders"}},{"local_stop_id":431,"id":431,"geometry":"POINT(-8782954.091372 4299800.339347)","attributes":{"address":"Durham, NC","placename":"Durham, NC, USA","title":"Ryan Allis"}},{"local_stop_id":430,"id":430,"geometry":"POINT(-13182060.607603 4017955.017074)","attributes":{"address":"El Segundo, CA","placename":"El Segundo, CA, USA","title":"Brent Freeman"}},{"local_stop_id":429,"id":429,"geometry":"POINT(-8915027.988029 5180356.285472)","attributes":{"address":"Erie, PA","placename":"Erie, PA, USA","title":"Jason Drohn"}},{"local_stop_id":428,"id":428,"geometry":"POINT(-8605706.110831 4699668.298453)","attributes":{"address":"Fairfax, VA","placename":"Fairfax, VA, USA","title":"Angela Pan"}},{"local_stop_id":427,"id":427,"geometry":"POINT(-8175904.629296 4972979.829002)","attributes":{"address":"Farmingdale, NY","placename":"Farmingdale, NY 11735, USA","title":"Nick Tarascio"}},{"local_stop_id":426,"id":426,"geometry":"POINT(-8879127.841867 4055074.201584)","attributes":{"address":"Florence, SC","placename":"Florence, SC, USA","title":"Robby Hill"}},{"local_stop_id":425,"id":425,"geometry":"POINT(-11697944.458665 4951358.770018)","attributes":{"address":"Fort Collins, CO","placename":"Fort Collins, CO, USA","title":"Nicholas Tart"}},{"local_stop_id":424,"id":424,"geometry":"POINT(-8921520.096205 3014237.265395)","attributes":{"address":"Fort Lauderdale, FL","placename":"Fort Lauderdale, FL, USA","title":"Logan Lenz"}},{"local_stop_id":423,"id":423,"geometry":"POINT(-7950010.175993 5202907.376564)","attributes":{"address":"Framingham, MA","placename":"Framingham, MA, USA","title":"Lane Sutton"}},{"local_stop_id":422,"id":422,"geometry":"POINT(-9164357.732229 3458848.831188)","attributes":{"address":"Gainesville, FL","placename":"Gainesville, FL, USA","title":"Ray Land"}},{"local_stop_id":421,"id":421,"geometry":"POINT(-8115481.02195 5069129.568331)","attributes":{"address":"Hamden, CT","placename":"Hamden, CT, USA","title":"Timothy Sykes"}},{"local_stop_id":420,"id":420,"geometry":"POINT(-10616471.887537 3472761.945088)","attributes":{"address":"Houston, TX","placename":"Houston, TX, USA","title":"Jake Schiffer"}},{"local_stop_id":419,"id":419,"geometry":"POINT(-10616471.887537 3472761.945088)","attributes":{"address":"Houston, TX","placename":"Houston, TX, USA","title":"Allison Sawyer"}},{"local_stop_id":418,"id":418,"geometry":"POINT(-10616471.887537 3472761.945088)","attributes":{"address":"Houston, TX","placename":"Houston, TX, USA","title":"Ryan Stephens"}},{"local_stop_id":417,"id":417,"geometry":"POINT(-10616471.887537 3472761.945088)","attributes":{"address":"Houston, TX","placename":"Houston, TX, USA","title":"Ryan Mcgrath"}},{"local_stop_id":416,"id":416,"geometry":"POINT(-10616471.887537 3472761.945088)","attributes":{"address":"Houston, TX","placename":"Houston, TX, USA","title":"Brian Adams"}},{"local_stop_id":415,"id":415,"geometry":"POINT(-9638720.973658 4127299.444013)","attributes":{"address":"Huntsville, AL","placename":"Huntsville, AL, USA","title":"Glenn Clayton"}},{"local_stop_id":414,"id":414,"geometry":"POINT(0 -0)","attributes":{"address":"Indianapolis, IN","title":"Kyle Lacy"}},{"local_stop_id":413,"id":413,"geometry":"POINT(-13112845.376493 3986442.410633)","attributes":{"address":"Irvine,","placename":"Irvine, CA, USA","title":"Warren Jolly"}},{"local_stop_id":412,"id":412,"geometry":"POINT(-13112845.376493 3986442.410633)","attributes":{"address":"Irvine, CA","placename":"Irvine, CA, USA","title":"W. Michael Hsu"}},{"local_stop_id":411,"id":411,"geometry":"POINT(-13112845.376493 3986442.410633)","attributes":{"address":"Irvine, CA","placename":"Irvine, CA, USA","title":"Ash Kumra"}},{"local_stop_id":410,"id":410,"geometry":"POINT(-8149743.714063 4972571.58747)","attributes":{"address":"Islip, NY","placename":"Islip, NY, USA","title":"Matthew Ackerson"}},{"local_stop_id":409,"id":409,"geometry":"POINT(-8274315.901555 4881657.071586)","attributes":{"address":"Jackson, NJ","placename":"Jackson, NJ, USA","title":"Kofi Frimpong"}},{"local_stop_id":408,"id":408,"geometry":"POINT(-9089865.489713 3546320.837278)","attributes":{"address":"Jacksonville, FL","placename":"Jacksonville, FL, USA","title":"David Cohen"}},{"local_stop_id":407,"id":407,"geometry":"POINT(-9089865.489713 3546320.837278)","attributes":{"address":"Jacksonville, FL","placename":"Jacksonville, FL, USA","title":"Jason Sadler"}},{"local_stop_id":406,"id":406,"geometry":"POINT(11011569.41763 900396.445727)","attributes":{"address":"Krabi Town, Thailand","placename":"Mueang Krabi, Krabi, Thailand","title":"Cody McKibben"}},{"local_stop_id":405,"id":405,"geometry":"POINT(-13060811.006349 3984319.50694)","attributes":{"address":"Lake Elsinore, CA","placename":"Lake Elsinore, CA, USA","title":"Sydney Owen"}},{"local_stop_id":404,"id":404,"geometry":"POINT(-9122610.474152 3253950.385444)","attributes":{"address":"Lakeland, FL","placename":"Lakeland, FL, USA","title":"Todd Baylis"}},{"local_stop_id":403,"id":403,"geometry":"POINT(-9412679.066557 5271349.152932)","attributes":{"address":"Lansing, MI","placename":"Lansing, MI, USA","title":"Allie Siarto"}},{"local_stop_id":402,"id":402,"geometry":"POINT(-12828274.274878 4335782.926018)","attributes":{"address":"Las Vegas, NV","placename":"Las Vegas, NV, USA","title":"Amy Jo Martin"}},{"local_stop_id":401,"id":401,"geometry":"POINT(-12828274.274878 4335782.926018)","attributes":{"address":"Las Vegas, NV","placename":"Las Vegas, NV, USA","title":"Mark Cenicola"}},{"local_stop_id":400,"id":400,"geometry":"POINT(-12828274.274878 4335782.926018)","attributes":{"address":"Las Vegas, NV","placename":"Las Vegas, NV, USA","title":"Alexia Vernon"}},{"local_stop_id":399,"id":399,"geometry":"POINT(-8043028.787027 5410252.107527)","attributes":{"address":"Lebanon, NH","placename":"Lebanon, NH, USA","title":"Errik Anderson"}},{"local_stop_id":398,"id":398,"geometry":"POINT(-14249.451419 6711672.841363)","attributes":{"address":"London","placename":"London, UK","title":"Genevieve Sander"}},{"local_stop_id":397,"id":397,"geometry":"POINT(-8231914.084873 4974754.504297)","attributes":{"address":"Long Island City, NY","placename":"Long Island City, NY, USA","title":"Avi Zikry"}},{"local_stop_id":396,"id":396,"geometry":"POINT(-13162826.792588 4035817.961317)","attributes":{"address":"Los Angeles, CA","placename":"Los Angeles, CA, USA","title":"Sean Kelly"}},{"local_stop_id":395,"id":395,"geometry":"POINT(-13162826.792588 4035817.961317)","attributes":{"address":"Los Angeles, CA","placename":"Los Angeles, CA, USA","title":"Ryan Stoner"}},{"local_stop_id":394,"id":394,"geometry":"POINT(-13162826.792588 4035817.961317)","attributes":{"address":"Los Angeles, CA","placename":"Los Angeles, CA, USA","title":"Jennifer Yen"}},{"local_stop_id":393,"id":393,"geometry":"POINT(-13162826.792588 4035817.961317)","attributes":{"address":"Los Angeles, CA","placename":"Los Angeles, CA, USA","title":"Bill Karamouzis"}},{"local_stop_id":392,"id":392,"geometry":"POINT(-13162826.792588 4035817.961317)","attributes":{"address":"Los Angeles, CA","placename":"Los Angeles, CA, USA","title":"Kfir Gavrieli"}},{"local_stop_id":391,"id":391,"geometry":"POINT(-13162826.792588 4035817.961317)","attributes":{"address":"Los Angeles, CA","placename":"Los Angeles, CA, USA","title":"Hack Murphy"}},{"local_stop_id":390,"id":390,"geometry":"POINT(-13162826.792588 4035817.961317)","attributes":{"address":"Los Angeles, CA","placename":"Los Angeles, CA, USA","title":"Stacey Ferreira"}},{"local_stop_id":389,"id":389,"geometry":"POINT(-13162826.792588 4035817.961317)","attributes":{"address":"Los Angeles, CA","placename":"Los Angeles, CA, USA","title":"David Stankunas"}},{"local_stop_id":388,"id":388,"geometry":"POINT(-13162826.792588 4035817.961317)","attributes":{"address":"Los Angeles, CA","placename":"Los Angeles, CA, USA","title":"Kevin Tighe II"}},{"local_stop_id":387,"id":387,"geometry":"POINT(-13162826.792588 4035817.961317)","attributes":{"address":"Los Angeles, CA","placename":"Los Angeles, CA, USA","title":"Ziver Birg"}},{"local_stop_id":386,"id":386,"geometry":"POINT(-13162826.792588 4035817.961317)","attributes":{"address":"Los Angeles, CA","placename":"Los Angeles, CA, USA","title":"Steven Le Vine"}},{"local_stop_id":385,"id":385,"geometry":"POINT(-13162826.792588 4035817.961317)","attributes":{"address":"Los Angeles, CA","placename":"Los Angeles, CA, USA","title":"Srinivas Rao"}},{"local_stop_id":384,"id":384,"geometry":"POINT(-13162826.792588 4035817.961317)","attributes":{"address":"Los Angeles, CA","placename":"Los Angeles, CA, USA","title":"Shira Lazar"}},{"local_stop_id":383,"id":383,"geometry":"POINT(-13162826.792588 4035817.961317)","attributes":{"address":"Los Angeles, CA","placename":"Los Angeles, CA, USA","title":"Nina Rodecker"}},{"local_stop_id":382,"id":382,"geometry":"POINT(-13162826.792588 4035817.961317)","attributes":{"address":"Los Angeles, CA","placename":"Los Angeles, CA, USA","title":"Michael Mothner"}},{"local_stop_id":381,"id":381,"geometry":"POINT(-13162826.792588 4035817.961317)","attributes":{"address":"Los Angeles, CA","placename":"Los Angeles, CA, USA","title":"Lisa Nicole Bell"}},{"local_stop_id":380,"id":380,"geometry":"POINT(-13162826.792588 4035817.961317)","attributes":{"address":"Los Angeles, CA","placename":"Los Angeles, CA, USA","title":"Lauren Berger"}},{"local_stop_id":379,"id":379,"geometry":"POINT(-13162826.792588 4035817.961317)","attributes":{"address":"Los Angeles, CA","placename":"Los Angeles, CA, USA","title":"Kevin Pereira"}},{"local_stop_id":378,"id":378,"geometry":"POINT(-13162826.792588 4035817.961317)","attributes":{"address":"Los Angeles, CA","placename":"Los Angeles, CA, USA","title":"Josh Allan Dykstra"}},{"local_stop_id":377,"id":377,"geometry":"POINT(-13162826.792588 4035817.961317)","attributes":{"address":"Los Angeles, CA","placename":"Los Angeles, CA, USA","title":"Jason Nazar"}},{"local_stop_id":376,"id":376,"geometry":"POINT(-13162826.792588 4035817.961317)","attributes":{"address":"Los Angeles, CA","placename":"Los Angeles, CA, USA","title":"Jake Kloberdanz"}},{"local_stop_id":375,"id":375,"geometry":"POINT(-13162826.792588 4035817.961317)","attributes":{"address":"Los Angeles, CA","placename":"Los Angeles, CA, USA","title":"Dmitriy Katsel"}},{"local_stop_id":374,"id":374,"geometry":"POINT(-13162826.792588 4035817.961317)","attributes":{"address":"Los Angeles, CA","placename":"Los Angeles, CA, USA","title":"Dale Partridge"}},{"local_stop_id":373,"id":373,"geometry":"POINT(-13162826.792588 4035817.961317)","attributes":{"address":"Los Angeles, CA","placename":"Los Angeles, CA, USA","title":"Christine Hassler"}},{"local_stop_id":372,"id":372,"geometry":"POINT(-13162826.792588 4035817.961317)","attributes":{"address":"Los Angeles, CA","placename":"Los Angeles, CA, USA","title":"Cameron Johnson"}},{"local_stop_id":371,"id":371,"geometry":"POINT(-13162826.792588 4035817.961317)","attributes":{"address":"Los Angeles, CA","placename":"Los Angeles, CA, USA","title":"Anderson Schoenrock"}},{"local_stop_id":370,"id":370,"geometry":"POINT(-13162826.792588 4035817.961317)","attributes":{"address":"Los Angeles, CA","placename":"Los Angeles, CA, USA","title":"Amanda Congdon"}},{"local_stop_id":369,"id":369,"geometry":"POINT(-13162826.792588 4035817.961317)","attributes":{"address":"Los Angeles, CA","placename":"Los Angeles, CA, USA","title":"Jennifer Kushell"}},{"local_stop_id":368,"id":368,"geometry":"POINT(-13162826.792588 4035817.961317)","attributes":{"address":"Los Angeles, CA","placename":"Los Angeles, CA, USA","title":"Ilya Pozin"}},{"local_stop_id":367,"id":367,"geometry":"POINT(-13162826.792588 4035817.961317)","attributes":{"address":"Los Angeles, CA","placename":"Los Angeles, CA, USA","title":"Shara Senderoff"}},{"local_stop_id":366,"id":366,"geometry":"POINT(-134269.784932 6940953.161868)","attributes":{"address":"Loughborough","placename":"Loughborough, Leicestershire, UK","title":"Jana Schuberth"}},{"local_stop_id":365,"id":365,"geometry":"POINT(-9546587.619742 4615180.606067)","attributes":{"address":"Louisville, KY","placename":"Louisville, KY, USA","title":"Jermaine Watkins"}},{"local_stop_id":364,"id":364,"geometry":"POINT(-9952099.422156 5323097.678928)","attributes":{"address":"Madison, WI","placename":"Madison, WI, USA","title":"Brian Jensen"}},{"local_stop_id":363,"id":363,"geometry":"POINT(-9952099.422156 5323097.678928)","attributes":{"address":"Madison, WI","placename":"Madison, WI, USA","title":"Nathan Lustig"}},{"local_stop_id":362,"id":362,"geometry":"POINT(-9952099.422156 5323097.678928)","attributes":{"address":"Madison, WI","placename":"Madison, WI, USA","title":"Justin Beck"}},{"local_stop_id":361,"id":361,"geometry":"POINT(-9952099.422156 5323097.678928)","attributes":{"address":"Madison, WI","placename":"Madison, WI, USA","title":"Jesse Davis"}},{"local_stop_id":360,"id":360,"geometry":"POINT(-7954310.737353 5311308.188372)","attributes":{"address":"Manchester, NH","placename":"Manchester, NH, USA","title":"Jeremy Hitchcock"}},{"local_stop_id":359,"id":359,"geometry":"POINT(-13181442.083117 4013335.381306)","attributes":{"address":"Manhattan Beach, CA","placename":"Manhattan Beach, CA, USA","title":"Kent Healy"}},{"local_stop_id":358,"id":358,"geometry":"POINT(-13181442.083117 4013335.381306)","attributes":{"address":"Manhattan Beach, CA","placename":"Manhattan Beach, CA, USA","title":"Evan Kirkpatrick"}},{"local_stop_id":357,"id":357,"geometry":"POINT(-8340260.232067 4850147.931403)","attributes":{"address":"Marlton, NJ","placename":"Marlton, Evesham Township, NJ, USA","title":"Melissa Cassera"}},{"local_stop_id":356,"id":356,"geometry":"POINT(0 -0)","attributes":{"address":"Meriden, CT","title":"Jennifer Grayeb"}},{"local_stop_id":355,"id":355,"geometry":"POINT(-8920035.862302 2973175.563148)","attributes":{"address":"MIAMI BEACH, FL","placename":"Miami Beach, FL, USA","title":"Alfredo Atanacio"}},{"local_stop_id":354,"id":354,"geometry":"POINT(-8930766.371033 2972967.227658)","attributes":{"address":"Miami, FL","placename":"Miami, FL, USA","title":"Pablo Palatnik"}},{"local_stop_id":353,"id":353,"geometry":"POINT(-8930766.371033 2972967.227658)","attributes":{"address":"Miami, FL","placename":"Miami, FL, USA","title":"Raul Pla"}},{"local_stop_id":352,"id":352,"geometry":"POINT(-8930766.371033 2972967.227658)","attributes":{"address":"Miami, FL","placename":"Miami, FL, USA","title":"Lucas Sommer"}},{"local_stop_id":351,"id":351,"geometry":"POINT(-8930766.371033 2972967.227658)","attributes":{"address":"Miami, FL","placename":"Miami, FL, USA","title":"Jason Beukema"}},{"local_stop_id":350,"id":350,"geometry":"POINT(-8930766.371033 2972967.227658)","attributes":{"address":"Miami, FL","placename":"Miami, FL, USA","title":"Darnell Henderson"}},{"local_stop_id":349,"id":349,"geometry":"POINT(-8930766.371033 2972967.227658)","attributes":{"address":"Miami, FL","placename":"Miami, FL, USA","title":"Ben Leis"}},{"local_stop_id":348,"id":348,"geometry":"POINT(-8930766.371033 2972967.227658)","attributes":{"address":"Miami, FL","placename":"Miami, FL, USA","title":"Abi Mandelbaum"}},{"local_stop_id":347,"id":347,"geometry":"POINT(-8930766.371033 2972967.227658)","attributes":{"address":"Miami, FL","placename":"Miami, FL, USA","title":"Marcos Cordero"}},{"local_stop_id":346,"id":346,"geometry":"POINT(-9785703.878584 5317895.079942)","attributes":{"address":"Milwaukee, WI","placename":"Milwaukee, WI, USA","title":"Joseph Kirgues"}},{"local_stop_id":345,"id":345,"geometry":"POINT(-9785703.878584 5317895.079942)","attributes":{"address":"Milwaukee, WI","placename":"Milwaukee, WI, USA","title":"Andrew Hoeft"}},{"local_stop_id":344,"id":344,"geometry":"POINT(-10382398.212384 5618898.147063)","attributes":{"address":"Minneapolis, MN","placename":"Minneapolis, MN, USA","title":"Nicolas Thomley"}},{"local_stop_id":343,"id":343,"geometry":"POINT(-9800907.950297 3593118.821231)","attributes":{"address":"Mobile, AL","placename":"Mobile, AL, USA","title":"Steven Place"}},{"local_stop_id":342,"id":342,"geometry":"POINT(-8187992.990912 5701959.80533)","attributes":{"address":"Montreal","placename":"Montreal, QC, Canada","title":"Amanda Aitken"}},{"local_stop_id":341,"id":341,"geometry":"POINT(-13590312.138534 4493054.897333)","attributes":{"address":"Mountain View, CA","placename":"Mountain View, CA, USA","title":"Steli Efti"}},{"local_stop_id":340,"id":340,"geometry":"POINT(-13590312.138534 4493054.897333)","attributes":{"address":"Mountain View, CA","placename":"Mountain View, CA, USA","title":"Kevon Saber"}},{"local_stop_id":339,"id":339,"geometry":"POINT(-13590312.138534 4493054.897333)","attributes":{"address":"Mountain View, CA","placename":"Mountain View, CA, USA","title":"Jessica Mah"}},{"local_stop_id":338,"id":338,"geometry":"POINT(-8199665.006501 5694251.012088)","attributes":{"address":"Mountainview, CA","placename":"Centre Mountainview School Project, Cote-Saint-Luc, QC H4W, Canada","title":"Aaron Patzer"}},{"local_stop_id":337,"id":337,"geometry":"POINT(-9812511.359683 5128956.521577)","attributes":{"address":"Naperville, IL","placename":"Naperville, IL, USA","title":"Kristi Zuhlke"}},{"local_stop_id":336,"id":336,"geometry":"POINT(-9660676.472299 4323578.753259)","attributes":{"address":"Nashville, TN","placename":"Nashville, TN, USA","title":"Sam Davidson"}},{"local_stop_id":335,"id":335,"geometry":"POINT(-9660676.472299 4323578.753259)","attributes":{"address":"Nashville, TN","placename":"Nashville, TN, USA","title":"Matt Cheuvront"}},{"local_stop_id":334,"id":334,"geometry":"POINT(-8287938.557449 4936851.433008)","attributes":{"address":"New Brunswick, NJ","placename":"New Brunswick, NJ, USA","title":"Rohan Mathew"}},{"local_stop_id":333,"id":333,"geometry":"POINT(-10026717.110606 3497261.357873)","attributes":{"address":"New Orleans, LA","placename":"New Orleans, LA, USA","title":"Craig Cordes"}},{"local_stop_id":332,"id":332,"geometry":"POINT(-8238307.241153 4970299.628631)","attributes":{"address":"New York, NY","placename":"New York, NY, USA","title":"Josh Weiss"}},{"local_stop_id":331,"id":331,"geometry":"POINT(-8238307.241153 4970299.628631)","attributes":{"address":"New York, NY","placename":"New York, NY, USA","title":"Sergio Fernandez de Cordova"}},{"local_stop_id":330,"id":330,"geometry":"POINT(-8238307.241153 4970299.628631)","attributes":{"address":"New York, NY","placename":"New York, NY, USA","title":"Willie Jackson"}},{"local_stop_id":329,"id":329,"geometry":"POINT(-8238307.241153 4970299.628631)","attributes":{"address":"New York, NY","placename":"New York, NY, USA","title":"Christina Wallace"}},{"local_stop_id":328,"id":328,"geometry":"POINT(-8238307.241153 4970299.628631)","attributes":{"address":"New York, NY","placename":"New York, NY, USA","title":"Jeremy Mims"}},{"local_stop_id":327,"id":327,"geometry":"POINT(-8238307.241153 4970299.628631)","attributes":{"address":"New York, NY","placename":"New York, NY, USA","title":"Nikki Robinson"}},{"local_stop_id":326,"id":326,"geometry":"POINT(-8238307.241153 4970299.628631)","attributes":{"address":"New York, NY","placename":"New York, NY, USA","title":"Jordan Edelson"}},{"local_stop_id":325,"id":325,"geometry":"POINT(-8238307.241153 4970299.628631)","attributes":{"address":"New York, NY","placename":"New York, NY, USA","title":"Alex White"}},{"local_stop_id":324,"id":324,"geometry":"POINT(-8238307.241153 4970299.628631)","attributes":{"address":"New York, NY","placename":"New York, NY, USA","title":"Vasu Kulkarni"}},{"local_stop_id":323,"id":323,"geometry":"POINT(-8238307.241153 4970299.628631)","attributes":{"address":"New York, NY","placename":"New York, NY, USA","title":"Alyssa Wasko"}},{"local_stop_id":322,"id":322,"geometry":"POINT(-8238307.241153 4970299.628631)","attributes":{"address":"New York, NY","placename":"New York, NY, USA","title":"Alex Frias"}},{"local_stop_id":321,"id":321,"geometry":"POINT(-8238307.241153 4970299.628631)","attributes":{"address":"New York, NY","placename":"New York, NY, USA","title":"Shane Snow"}},{"local_stop_id":320,"id":320,"geometry":"POINT(-8238307.241153 4970299.628631)","attributes":{"address":"New York, NY","placename":"New York, NY, USA","title":"Michael Russell"}},{"local_stop_id":319,"id":319,"geometry":"POINT(-8238307.241153 4970299.628631)","attributes":{"address":"New York, NY","placename":"New York, NY, USA","title":"Melissa Kushner"}},{"local_stop_id":318,"id":318,"geometry":"POINT(-8238307.241153 4970299.628631)","attributes":{"address":"New York, NY","placename":"New York, NY, USA","title":"Erica Dhawan"}},{"local_stop_id":317,"id":317,"geometry":"POINT(-8238307.241153 4970299.628631)","attributes":{"address":"New York, NY","placename":"New York, NY, USA","title":"Richard Zelson"}},{"local_stop_id":316,"id":316,"geometry":"POINT(-8238307.241153 4970299.628631)","attributes":{"address":"New York, NY","placename":"New York, NY, USA","title":"Kathryn Minshew"}},{"local_stop_id":315,"id":315,"geometry":"POINT(-8238307.241153 4970299.628631)","attributes":{"address":"New York, NY","placename":"New York, NY, USA","title":"Jessica Brondo"}},{"local_stop_id":314,"id":314,"geometry":"POINT(-8238307.241153 4970299.628631)","attributes":{"address":"New York, NY","placename":"New York, NY, USA","title":"Kosta Stavreas"}},{"local_stop_id":313,"id":313,"geometry":"POINT(-8238307.241153 4970299.628631)","attributes":{"address":"New York, NY","placename":"New York, NY, USA","title":"Erika London"}},{"local_stop_id":312,"id":312,"geometry":"POINT(-8238307.241153 4970299.628631)","attributes":{"address":"New York, NY","placename":"New York, NY, USA","title":"Ashley Jaffe"}},{"local_stop_id":311,"id":311,"geometry":"POINT(-8238307.241153 4970299.628631)","attributes":{"address":"New York, NY","placename":"New York, NY, USA","title":"Chris Cunningham"}},{"local_stop_id":310,"id":310,"geometry":"POINT(-8238307.241153 4970299.628631)","attributes":{"address":"New York, NY","placename":"New York, NY, USA","title":"Phil Frost"}},{"local_stop_id":309,"id":309,"geometry":"POINT(-8238307.241153 4970299.628631)","attributes":{"address":"New York, NY","placename":"New York, NY, USA","title":"Richard Lorenzen"}},{"local_stop_id":308,"id":308,"geometry":"POINT(-8238307.241153 4970299.628631)","attributes":{"address":"New York, NY","placename":"New York, NY, USA","title":"Jesse Kirshbaum"}},{"local_stop_id":307,"id":307,"geometry":"POINT(-8238307.241153 4970299.628631)","attributes":{"address":"New York, NY","placename":"New York, NY, USA","title":"Albert Azout"}},{"local_stop_id":306,"id":306,"geometry":"POINT(-8238307.241153 4970299.628631)","attributes":{"address":"New York, NY","placename":"New York, NY, USA","title":"Derek Flanzraich"}},{"local_stop_id":305,"id":305,"geometry":"POINT(-8238307.241153 4970299.628631)","attributes":{"address":"New York, NY","placename":"New York, NY, USA","title":"Jason Mitchell"}},{"local_stop_id":304,"id":304,"geometry":"POINT(-8238307.241153 4970299.628631)","attributes":{"address":"New York, NY","placename":"New York, NY, USA","title":"Alexis Wolfer"}},{"local_stop_id":303,"id":303,"geometry":"POINT(-8238307.241153 4970299.628631)","attributes":{"address":"New York, NY","placename":"New York, NY, USA","title":"Michael Tolkin"}},{"local_stop_id":302,"id":302,"geometry":"POINT(-8238307.241153 4970299.628631)","attributes":{"address":"New York, NY","placename":"New York, NY, USA","title":"Megan Berry"}},{"local_stop_id":301,"id":301,"geometry":"POINT(-8238307.241153 4970299.628631)","attributes":{"address":"New York, NY","placename":"New York, NY, USA","title":"Lauren Fairbanks"}},{"local_stop_id":300,"id":300,"geometry":"POINT(-8238307.241153 4970299.628631)","attributes":{"address":"New York, NY","placename":"New York, NY, USA","title":"Ryan Simonetti"}},{"local_stop_id":299,"id":299,"geometry":"POINT(-8238307.241153 4970299.628631)","attributes":{"address":"New York, NY","placename":"New York, NY, USA","title":"Christopher Kelly"}},{"local_stop_id":298,"id":298,"geometry":"POINT(-8238307.241153 4970299.628631)","attributes":{"address":"New York, NY","placename":"New York, NY, USA","title":"Ari Meisel"}},{"local_stop_id":297,"id":297,"geometry":"POINT(-8238307.241153 4970299.628631)","attributes":{"address":"New York, NY","placename":"New York, NY, USA","title":"Amit Avner"}},{"local_stop_id":296,"id":296,"geometry":"POINT(-8238307.241153 4970299.628631)","attributes":{"address":"New York, NY","placename":"New York, NY, USA","title":"Vanessa Nornberg"}},{"local_stop_id":295,"id":295,"geometry":"POINT(-8238307.241153 4970299.628631)","attributes":{"address":"New York, NY","placename":"New York, NY, USA","title":"Trevor Owens"}},{"local_stop_id":294,"id":294,"geometry":"POINT(-8238307.241153 4970299.628631)","attributes":{"address":"New York, NY","placename":"New York, NY, USA","title":"Tracy Foster"}},{"local_stop_id":293,"id":293,"geometry":"POINT(-8238307.241153 4970299.628631)","attributes":{"address":"New York, NY","placename":"New York, NY, USA","title":"Tom Szaky"}},{"local_stop_id":292,"id":292,"geometry":"POINT(-8238307.241153 4970299.628631)","attributes":{"address":"New York, NY","placename":"New York, NY, USA","title":"Tammy Tibbetts"}},{"local_stop_id":291,"id":291,"geometry":"POINT(-8238307.241153 4970299.628631)","attributes":{"address":"New York, NY","placename":"New York, NY, USA","title":"Soraya Darabi"}},{"local_stop_id":290,"id":290,"geometry":"POINT(-8238307.241153 4970299.628631)","attributes":{"address":"New York, NY","placename":"New York, NY, USA","title":"Slava Rubin"}},{"local_stop_id":289,"id":289,"geometry":"POINT(-8238307.241153 4970299.628631)","attributes":{"address":"New York, NY","placename":"New York, NY, USA","title":"Sheena Lindahl"}},{"local_stop_id":288,"id":288,"geometry":"POINT(-8238307.241153 4970299.628631)","attributes":{"address":"New York, NY","placename":"New York, NY, USA","title":"Scott Belsky"}},{"local_stop_id":287,"id":287,"geometry":"POINT(-8238307.241153 4970299.628631)","attributes":{"address":"New York, NY","placename":"New York, NY, USA","title":"Ryan Kirlin"}},{"local_stop_id":286,"id":286,"geometry":"POINT(-8238307.241153 4970299.628631)","attributes":{"address":"New York, NY","placename":"New York, NY, USA","title":"Rebecca Zorowitz"}},{"local_stop_id":285,"id":285,"geometry":"POINT(-8238307.241153 4970299.628631)","attributes":{"address":"New York, NY","placename":"New York, NY, USA","title":"Ramit Sethi"}},{"local_stop_id":284,"id":284,"geometry":"POINT(-8238307.241153 4970299.628631)","attributes":{"address":"New York, NY","placename":"New York, NY, USA","title":"Peter Minton"}},{"local_stop_id":283,"id":283,"geometry":"POINT(-8238307.241153 4970299.628631)","attributes":{"address":"New York, NY","placename":"New York, NY, USA","title":"Paul Gollash"}},{"local_stop_id":282,"id":282,"geometry":"POINT(-8238307.241153 4970299.628631)","attributes":{"address":"New York, NY","placename":"New York, NY, USA","title":"Nina Cherny"}},{"local_stop_id":281,"id":281,"geometry":"POINT(-8238307.241153 4970299.628631)","attributes":{"address":"New York, NY","placename":"New York, NY, USA","title":"Michael Sinensky"}},{"local_stop_id":280,"id":280,"geometry":"POINT(-8238307.241153 4970299.628631)","attributes":{"address":"New York, NY","placename":"New York, NY, USA","title":"Michael Margolis"}},{"local_stop_id":279,"id":279,"geometry":"POINT(-8238307.241153 4970299.628631)","attributes":{"address":"New York, NY","placename":"New York, NY, USA","title":"Michael Karnjanaprakorn"}},{"local_stop_id":278,"id":278,"geometry":"POINT(-8238307.241153 4970299.628631)","attributes":{"address":"New York, NY","placename":"New York, NY, USA","title":"Michael Ellsberg"}},{"local_stop_id":277,"id":277,"geometry":"POINT(-8238307.241153 4970299.628631)","attributes":{"address":"New York, NY","placename":"New York, NY, USA","title":"Matt Wilson"}},{"local_stop_id":276,"id":276,"geometry":"POINT(-8238307.241153 4970299.628631)","attributes":{"address":"New York, NY","placename":"New York, NY, USA","title":"Mark Davis"}},{"local_stop_id":275,"id":275,"geometry":"POINT(-8238307.241153 4970299.628631)","attributes":{"address":"New York, NY","placename":"New York, NY, USA","title":"Maia Josebachvili"}},{"local_stop_id":274,"id":274,"geometry":"POINT(-8238307.241153 4970299.628631)","attributes":{"address":"New York, NY","placename":"New York, NY, USA","title":"Lindsey Pollak"}},{"local_stop_id":273,"id":273,"geometry":"POINT(-8238307.241153 4970299.628631)","attributes":{"address":"New York, NY","placename":"New York, NY, USA","title":"Lewis Howes"}},{"local_stop_id":272,"id":272,"geometry":"POINT(-8238307.241153 4970299.628631)","attributes":{"address":"New York, NY","placename":"New York, NY, USA","title":"Lauren Pierce Bush"}},{"local_stop_id":271,"id":271,"geometry":"POINT(-8238307.241153 4970299.628631)","attributes":{"address":"New York, NY","placename":"New York, NY, USA","title":"Lauren Perkins"}},{"local_stop_id":270,"id":270,"geometry":"POINT(-8238307.241153 4970299.628631)","attributes":{"address":"New York, NY","placename":"New York, NY, USA","title":"Lauren Maillian Bias"}},{"local_stop_id":269,"id":269,"geometry":"POINT(-8238307.241153 4970299.628631)","attributes":{"address":"New York, NY","placename":"New York, NY, USA","title":"Kris Ruby"}},{"local_stop_id":268,"id":268,"geometry":"POINT(-8238307.241153 4970299.628631)","attributes":{"address":"New York, NY","placename":"New York, NY, USA","title":"Kimberly E. Stone"}},{"local_stop_id":267,"id":267,"geometry":"POINT(-8238307.241153 4970299.628631)","attributes":{"address":"New York, NY","placename":"New York, NY, USA","title":"Ken Sundheim"}},{"local_stop_id":266,"id":266,"geometry":"POINT(-8238307.241153 4970299.628631)","attributes":{"address":"New York, NY","placename":"New York, NY, USA","title":"Kelly Sutton"}},{"local_stop_id":265,"id":265,"geometry":"POINT(-8238307.241153 4970299.628631)","attributes":{"address":"New York, NY","placename":"New York, NY, USA","title":"Katie Shea"}},{"local_stop_id":264,"id":264,"geometry":"POINT(-8238307.241153 4970299.628631)","attributes":{"address":"New York, NY","placename":"New York, NY, USA","title":"Karen Moon"}},{"local_stop_id":263,"id":263,"geometry":"POINT(-8238307.241153 4970299.628631)","attributes":{"address":"New York, NY","placename":"New York, NY, USA","title":"Justin Beegel"}},{"local_stop_id":262,"id":262,"geometry":"POINT(-8238307.241153 4970299.628631)","attributes":{"address":"New York, NY","placename":"New York, NY, USA","title":"Juliette Brindak"}},{"local_stop_id":261,"id":261,"geometry":"POINT(-8238307.241153 4970299.628631)","attributes":{"address":"New York, NY","placename":"New York, NY, USA","title":"Josh Weinstein"}},{"local_stop_id":260,"id":260,"geometry":"POINT(-8238307.241153 4970299.628631)","attributes":{"address":"New York, NY","placename":"New York, NY, USA","title":"Jordana Jaffe"}},{"local_stop_id":259,"id":259,"geometry":"POINT(-8238307.241153 4970299.628631)","attributes":{"address":"New York, NY","placename":"New York, NY, USA","title":"John Berkowitz"}},{"local_stop_id":258,"id":258,"geometry":"POINT(-8238307.241153 4970299.628631)","attributes":{"address":"New York, NY","placename":"New York, NY, USA","title":"Jerry Piscitelli"}},{"local_stop_id":257,"id":257,"geometry":"POINT(-8238307.241153 4970299.628631)","attributes":{"address":"New York, NY","placename":"New York, NY, USA","title":"Jeremy Johnson"}},{"local_stop_id":256,"id":256,"geometry":"POINT(-8238307.241153 4970299.628631)","attributes":{"address":"New York, NY","placename":"New York, NY, USA","title":"Jeremy Elbaum"}},{"local_stop_id":255,"id":255,"geometry":"POINT(-8238307.241153 4970299.628631)","attributes":{"address":"New York, NY","placename":"New York, NY, USA","title":"Jennifer Fleiss"}},{"local_stop_id":254,"id":254,"geometry":"POINT(-8238307.241153 4970299.628631)","attributes":{"address":"New York, NY","placename":"New York, NY, USA","title":"Jenn Vargas"}},{"local_stop_id":253,"id":253,"geometry":"POINT(-8238307.241153 4970299.628631)","attributes":{"address":"New York, NY","placename":"New York, NY, USA","title":"Jeff Berger"}},{"local_stop_id":252,"id":252,"geometry":"POINT(-8238307.241153 4970299.628631)","attributes":{"address":"New York, NY","placename":"New York, NY, USA","title":"Jean-Marc Freuler"}},{"local_stop_id":251,"id":251,"geometry":"POINT(-8238307.241153 4970299.628631)","attributes":{"address":"New York, NY","placename":"New York, NY, USA","title":"Jared O'Toole"}},{"local_stop_id":250,"id":250,"geometry":"POINT(-8238307.241153 4970299.628631)","attributes":{"address":"New York, NY","placename":"New York, NY, USA","title":"Jacob Cass"}},{"local_stop_id":249,"id":249,"geometry":"POINT(-8238307.241153 4970299.628631)","attributes":{"address":"New York, NY","placename":"New York, NY, USA","title":"Jaclyn Gross"}},{"local_stop_id":248,"id":248,"geometry":"POINT(-8238307.241153 4970299.628631)","attributes":{"address":"New York, NY","placename":"New York, NY, USA","title":"Ismail Colak"}},{"local_stop_id":247,"id":247,"geometry":"POINT(-8238307.241153 4970299.628631)","attributes":{"address":"New York, NY","placename":"New York, NY, USA","title":"Ishita Gupta"}},{"local_stop_id":246,"id":246,"geometry":"POINT(-8238307.241153 4970299.628631)","attributes":{"address":"New York, NY","placename":"New York, NY, USA","title":"Henry Glucroft"}},{"local_stop_id":245,"id":245,"geometry":"POINT(-8238307.241153 4970299.628631)","attributes":{"address":"New York, NY","placename":"New York, NY, USA","title":"Haig Kayserian"}},{"local_stop_id":244,"id":244,"geometry":"POINT(-8238307.241153 4970299.628631)","attributes":{"address":"New York, NY","placename":"New York, NY, USA","title":"Gregory Galant"}},{"local_stop_id":243,"id":243,"geometry":"POINT(-8238307.241153 4970299.628631)","attributes":{"address":"New York, NY","placename":"New York, NY, USA","title":"Gary Whitehill"}},{"local_stop_id":242,"id":242,"geometry":"POINT(-8238307.241153 4970299.628631)","attributes":{"address":"New York, NY","placename":"New York, NY, USA","title":"Gary Goldman"}},{"local_stop_id":241,"id":241,"geometry":"POINT(-8238307.241153 4970299.628631)","attributes":{"address":"New York, NY","placename":"New York, NY, USA","title":"Gabrielle Bernstein"}},{"local_stop_id":240,"id":240,"geometry":"POINT(-8238307.241153 4970299.628631)","attributes":{"address":"New York, NY","placename":"New York, NY, USA","title":"Fabian Pfortm\u2019_ller"}},{"local_stop_id":239,"id":239,"geometry":"POINT(-8238307.241153 4970299.628631)","attributes":{"address":"New York, NY","placename":"New York, NY, USA","title":"Doreen Bloch"}},{"local_stop_id":238,"id":238,"geometry":"POINT(-8238307.241153 4970299.628631)","attributes":{"address":"New York, NY","placename":"New York, NY, USA","title":"Dina Kaplan"}},{"local_stop_id":237,"id":237,"geometry":"POINT(-8238307.241153 4970299.628631)","attributes":{"address":"New York, NY","placename":"New York, NY, USA","title":"David Schnurman"}},{"local_stop_id":236,"id":236,"geometry":"POINT(-8238307.241153 4970299.628631)","attributes":{"address":"New York, NY","placename":"New York, NY, USA","title":"Daniel Karpantschof"}},{"local_stop_id":235,"id":235,"geometry":"POINT(-8238307.241153 4970299.628631)","attributes":{"address":"New York, NY","placename":"New York, NY, USA","title":"Dan Reich"}},{"local_stop_id":234,"id":234,"geometry":"POINT(-8238307.241153 4970299.628631)","attributes":{"address":"New York, NY","placename":"New York, NY, USA","title":"Dan Miller"}},{"local_stop_id":233,"id":233,"geometry":"POINT(-8238307.241153 4970299.628631)","attributes":{"address":"New York, NY","placename":"New York, NY, USA","title":"Dan Koifman"}},{"local_stop_id":232,"id":232,"geometry":"POINT(-8238307.241153 4970299.628631)","attributes":{"address":"New York, NY","placename":"New York, NY, USA","title":"Christen Brandt"}},{"local_stop_id":231,"id":231,"geometry":"POINT(-8238307.241153 4970299.628631)","attributes":{"address":"New York, NY","placename":"New York, NY, USA","title":"Caroline Ghosn"}},{"local_stop_id":230,"id":230,"geometry":"POINT(-8238307.241153 4970299.628631)","attributes":{"address":"New York, NY","placename":"New York, NY, USA","title":"Carissa Reiniger"}},{"local_stop_id":229,"id":229,"geometry":"POINT(-8238307.241153 4970299.628631)","attributes":{"address":"New York, NY","placename":"New York, NY, USA","title":"Cari Sommer"}},{"local_stop_id":228,"id":228,"geometry":"POINT(-8238307.241153 4970299.628631)","attributes":{"address":"New York, NY","placename":"New York, NY, USA","title":"Brett Kunsch"}},{"local_stop_id":227,"id":227,"geometry":"POINT(-8238307.241153 4970299.628631)","attributes":{"address":"New York, NY","placename":"New York, NY, USA","title":"Bert Gervais"}},{"local_stop_id":226,"id":226,"geometry":"POINT(-8238307.241153 4970299.628631)","attributes":{"address":"New York, NY","placename":"New York, NY, USA","title":"Ben Lerer"}},{"local_stop_id":225,"id":225,"geometry":"POINT(-8238307.241153 4970299.628631)","attributes":{"address":"New York, NY","placename":"New York, NY, USA","title":"Ben Cathers"}},{"local_stop_id":224,"id":224,"geometry":"POINT(-8238307.241153 4970299.628631)","attributes":{"address":"New York, NY","placename":"New York, NY, USA","title":"Aron Schoenfeld"}},{"local_stop_id":223,"id":223,"geometry":"POINT(-8238307.241153 4970299.628631)","attributes":{"address":"New York, NY","placename":"New York, NY, USA","title":"Andrew Saladino"}},{"local_stop_id":222,"id":222,"geometry":"POINT(-8238307.241153 4970299.628631)","attributes":{"address":"New York, NY","placename":"New York, NY, USA","title":"Alexis Ohanian"}},{"local_stop_id":221,"id":221,"geometry":"POINT(-8238307.241153 4970299.628631)","attributes":{"address":"New York, NY","placename":"New York, NY, USA","title":"Alexandra Mayzler"}},{"local_stop_id":220,"id":220,"geometry":"POINT(-8238307.241153 4970299.628631)","attributes":{"address":"New York, NY","placename":"New York, NY, USA","title":"Alexander Torrenegra"}},{"local_stop_id":219,"id":219,"geometry":"POINT(-8238307.241153 4970299.628631)","attributes":{"address":"New York, NY","placename":"New York, NY, USA","title":"Alec Andronikov"}},{"local_stop_id":218,"id":218,"geometry":"POINT(-8238307.241153 4970299.628631)","attributes":{"address":"New York, NY","placename":"New York, NY, USA","title":"Adriann Wanner"}},{"local_stop_id":217,"id":217,"geometry":"POINT(-8238307.241153 4970299.628631)","attributes":{"address":"New York, NY","placename":"New York, NY, USA","title":"Adam Sachs"}},{"local_stop_id":216,"id":216,"geometry":"POINT(-8238307.241153 4970299.628631)","attributes":{"address":"New York, NY","placename":"New York, NY, USA","title":"Adam Gilbert"}},{"local_stop_id":215,"id":215,"geometry":"POINT(-8238307.241153 4970299.628631)","attributes":{"address":"New York, NY","placename":"New York, NY, USA","title":"Nick Reese"}},{"local_stop_id":214,"id":214,"geometry":"POINT(-8238307.241153 4970299.628631)","attributes":{"address":"New York, NY","placename":"New York, NY, USA","title":"Jenny Blake"}},{"local_stop_id":213,"id":213,"geometry":"POINT(-8238307.241153 4970299.628631)","attributes":{"address":"New York, NY","placename":"New York, NY, USA","title":"Adelaide Lancaster"}},{"local_stop_id":212,"id":212,"geometry":"POINT(-8238307.241153 4970299.628631)","attributes":{"address":"New York, NY","placename":"New York, NY, USA","title":"Prolific Interactive"}},{"local_stop_id":211,"id":211,"geometry":"POINT(-8238307.241153 4970299.628631)","attributes":{"address":"New York, NY","placename":"New York, NY, USA","title":"Dave Kerpen"}},{"local_stop_id":210,"id":210,"geometry":"POINT(-8238307.241153 4970299.628631)","attributes":{"address":"New York, NY","placename":"New York, NY, USA","title":"Dave Ursillo"}},{"local_stop_id":209,"id":209,"geometry":"POINT(-8238307.241153 4970299.628631)","attributes":{"address":"New York, NY","placename":"New York, NY, USA","title":"Gina Mancuso"}},{"local_stop_id":208,"id":208,"geometry":"POINT(-8238307.241153 4970299.628631)","attributes":{"address":"New York, NY","placename":"New York, NY, USA","title":"Emily Miethner Miethner"}},{"local_stop_id":207,"id":207,"geometry":"POINT(-8238307.241153 4970299.628631)","attributes":{"address":"New York, NY","placename":"New York, NY, USA","title":"Michael Simmons"}},{"local_stop_id":206,"id":206,"geometry":"POINT(-8238307.241153 4970299.628631)","attributes":{"address":"New York, NY","placename":"New York, NY, USA","title":"Jordan Goldman"}},{"local_stop_id":205,"id":205,"geometry":"POINT(-8238307.241153 4970299.628631)","attributes":{"address":"New York, NY","placename":"New York, NY, USA","title":"Marcos Salazar"}},{"local_stop_id":204,"id":204,"geometry":"POINT(-8432413.267269 4820087.592411)","attributes":{"address":"Newark, DE","placename":"Newark, DE, USA","title":"Raoul Davis"}},{"local_stop_id":203,"id":203,"geometry":"POINT(-8256830.091976 4973428.973147)","attributes":{"address":"Newark, NJ","placename":"Newark, NJ, USA","title":"Sean Devlin"}},{"local_stop_id":202,"id":202,"geometry":"POINT(-8256830.091976 4973428.973147)","attributes":{"address":"Newark, NJ","placename":"Newark, NJ, USA","title":"Pete Chatmon"}},{"local_stop_id":201,"id":201,"geometry":"POINT(-7981273.364426 5196342.895532)","attributes":{"address":"North Grafton, MA","placename":"North Grafton, Grafton, MA 01536, USA","title":"Michael Bruny"}},{"local_stop_id":200,"id":200,"geometry":"POINT(-128917.543815 6974635.972863)","attributes":{"address":"Nottingham,","placename":"Nottingham, UK","title":"Lea Woodward"}},{"local_stop_id":199,"id":199,"geometry":"POINT(-8238307.241153 4970299.628631)","attributes":{"address":"NY, NY","placename":"New York, NY, USA","title":"Ben Fisher"}},{"local_stop_id":198,"id":198,"geometry":"POINT(-8238307.241153 4970299.628631)","attributes":{"address":"NYC, NY","placename":"New York, NY, USA","title":"Patrick Ambron"}},{"local_stop_id":197,"id":197,"geometry":"POINT(-13611158.11581 4551825.709453)","attributes":{"address":"Oakland, CA","placename":"Oakland, CA, USA","title":"Leigh Rowan"}},{"local_stop_id":196,"id":196,"geometry":"POINT(-10686447.174735 5049636.772523)","attributes":{"address":"Omaha, NE","placename":"Omaha, NE, USA","title":"Jake Stutzman"}},{"local_stop_id":195,"id":195,"geometry":"POINT(-10686447.174735 5049636.772523)","attributes":{"address":"Omaha, NE","placename":"Omaha, NE, USA","title":"Jeff Slobotski"}},{"local_stop_id":194,"id":194,"geometry":"POINT(-12433791.284034 4909180.93787)","attributes":{"address":"Orem, UT","placename":"Orem, UT, USA","title":"Zach Mangum"}},{"local_stop_id":193,"id":193,"geometry":"POINT(-9059095.168325 3317016.688314)","attributes":{"address":"ORLANDO, FL","placename":"Orlando, FL, USA","title":"Gregg Pollack"}},{"local_stop_id":192,"id":192,"geometry":"POINT(-9059095.168325 3317016.688314)","attributes":{"address":"Orlando, FL","placename":"Orlando, FL, USA","title":"Robert Sofia"}},{"local_stop_id":191,"id":191,"geometry":"POINT(-9059095.168325 3317016.688314)","attributes":{"address":"Orlando, FL","placename":"Orlando, FL, USA","title":"Nick Nanton"}},{"local_stop_id":190,"id":190,"geometry":"POINT(-9059095.168325 3317016.688314)","attributes":{"address":"Orlando, FL","placename":"Orlando, FL, USA","title":"Greg Rollett"}},{"local_stop_id":189,"id":189,"geometry":"POINT(-9059095.168325 3317016.688314)","attributes":{"address":"Orlando, FL","placename":"Orlando, FL, USA","title":"Tom Cannon"}},{"local_stop_id":188,"id":188,"geometry":"POINT(-8426572.990372 5688128.615033)","attributes":{"address":"Ottowa, Ontario, Canada","placename":"Ottawa, ON, Canada","title":"Erin Blaskie"}},{"local_stop_id":187,"id":187,"geometry":"POINT(2830897.319634 9592270.225839)","attributes":{"address":"Oulunsalo","placename":"90460 Oulunsalo, Finland","title":"Juha Liikala"}},{"local_stop_id":186,"id":186,"geometry":"POINT(-139737.687 6755357.861969)","attributes":{"address":"Oxford, England","placename":"Oxford, UK","title":"Christopher Pruijsen"}},{"local_stop_id":185,"id":185,"geometry":"POINT(-13596898.734693 4500879.924204)","attributes":{"address":"Palo Alto, CA","placename":"Palo Alto, CA, USA","title":"Andrew Laffoon"}},{"local_stop_id":184,"id":184,"geometry":"POINT(-10639138.673197 5876272.187177)","attributes":{"address":"Perham, MN","placename":"Perham, MN 56573, USA","title":"Blake Minge"}},{"local_stop_id":183,"id":183,"geometry":"POINT(-8367194.717573 4859018.147241)","attributes":{"address":"Philadelphia, PA","placename":"Philadelphia, PA, USA","title":"Robert J. Moore"}},{"local_stop_id":182,"id":182,"geometry":"POINT(-8367194.717573 4859018.147241)","attributes":{"address":"Philadelphia, PA","placename":"Philadelphia, PA, USA","title":"Tina Wells"}},{"local_stop_id":181,"id":181,"geometry":"POINT(-8367194.717573 4859018.147241)","attributes":{"address":"Philadelphia, PA","placename":"Philadelphia, PA, USA","title":"Scott Becker"}},{"local_stop_id":180,"id":180,"geometry":"POINT(-8367194.717573 4859018.147241)","attributes":{"address":"Philadelphia, PA","placename":"Philadelphia, PA, USA","title":"Rakia Reynolds"}},{"local_stop_id":179,"id":179,"geometry":"POINT(-8367194.717573 4859018.147241)","attributes":{"address":"Philadelphia, PA","placename":"Philadelphia, PA, USA","title":"Doug Fath"}},{"local_stop_id":178,"id":178,"geometry":"POINT(-8367194.717573 4859018.147241)","attributes":{"address":"Philadelphia, PA","placename":"Philadelphia, PA, USA","title":"Craig Smith"}},{"local_stop_id":177,"id":177,"geometry":"POINT(0 -0)","attributes":{"address":"Philadelphia, PA","title":"Nora Dweck"}},{"local_stop_id":176,"id":176,"geometry":"POINT(-8367194.717573 4859018.147241)","attributes":{"address":"Philadephia, PA","placename":"Philadelphia, PA, USA","title":"Catherine Cook"}},{"local_stop_id":175,"id":175,"geometry":"POINT(-8367194.717573 4859018.147241)","attributes":{"address":"Philadephia, PA","placename":"Philadelphia, PA, USA","title":"Adam Palmer"}},{"local_stop_id":174,"id":174,"geometry":"POINT(-12476024.763382 3954970.877516)","attributes":{"address":"Phoenix, AZ","placename":"Phoenix, AZ, USA","title":"Matthew Toren"}},{"local_stop_id":173,"id":173,"geometry":"POINT(-12476024.763382 3954970.877516)","attributes":{"address":"Phoenix, AZ","placename":"Phoenix, AZ, USA","title":"Kade Dworkin"}},{"local_stop_id":172,"id":172,"geometry":"POINT(-12476024.763382 3954970.877516)","attributes":{"address":"Phoenix, AZ","placename":"Phoenix, AZ, USA","title":"Jay Khor"}},{"local_stop_id":171,"id":171,"geometry":"POINT(-12476024.763382 3954970.877516)","attributes":{"address":"Phoenix, AZ","placename":"Phoenix, AZ, USA","title":"Fredrick Nijm"}},{"local_stop_id":170,"id":170,"geometry":"POINT(-12476024.763382 3954970.877516)","attributes":{"address":"Phoenix, AZ","placename":"Phoenix, AZ, USA","title":"Brett Farmiloe"}},{"local_stop_id":169,"id":169,"geometry":"POINT(-12476024.763382 3954970.877516)","attributes":{"address":"Phoenix, AZ","placename":"Phoenix, AZ, USA","title":"Adam Toren"}},{"local_stop_id":168,"id":168,"geometry":"POINT(-8905101.339605 4930180.797179)","attributes":{"address":"Pittsburgh, PA","placename":"Pittsburgh, PA, USA","title":"Brendan Mangus"}},{"local_stop_id":167,"id":167,"geometry":"POINT(-13656252.906822 5704308.111809)","attributes":{"address":"Portland, OR","placename":"Portland, OR, USA","title":"Thomas Brenneke"}},{"local_stop_id":166,"id":166,"geometry":"POINT(-13656252.906822 5704308.111809)","attributes":{"address":"Portland, OR","placename":"Portland, OR, USA","title":"Vanessa Van Edwards"}},{"local_stop_id":165,"id":165,"geometry":"POINT(-13656252.906822 5704308.111809)","attributes":{"address":"Portland, OR","placename":"Portland, OR, USA","title":"Trevor Mauch"}},{"local_stop_id":164,"id":164,"geometry":"POINT(-13656252.906822 5704308.111809)","attributes":{"address":"Portland, OR","placename":"Portland, OR, USA","title":"Sean Ogle"}},{"local_stop_id":163,"id":163,"geometry":"POINT(-13656252.906822 5704308.111809)","attributes":{"address":"Portland, OR","placename":"Portland, OR, USA","title":"Jonathan Mead"}},{"local_stop_id":162,"id":162,"geometry":"POINT(-13656252.906822 5704308.111809)","attributes":{"address":"Portland, OR","placename":"Portland, OR, USA","title":"Charlie Gilkey"}},{"local_stop_id":161,"id":161,"geometry":"POINT(-7877251.389456 5322900.10543)","attributes":{"address":"Portsmouth, NH","placename":"Portsmouth, NH, USA","title":"Charles Gaudet"}},{"local_stop_id":160,"id":160,"geometry":"POINT(-9247887.503264 4888905.767454)","attributes":{"address":"Powell, OH","placename":"Powell, OH, USA","title":"Eric Corl"}},{"local_stop_id":159,"id":159,"geometry":"POINT(-12429771.114208 4899982.23869)","attributes":{"address":"Provo, UT","placename":"Provo, UT, USA","title":"Jesse Mecham"}},{"local_stop_id":158,"id":158,"geometry":"POINT(-8754010.522829 4269307.276918)","attributes":{"address":"Raleigh, NC","placename":"Raleigh, NC, USA","title":"Brooks Bell"}},{"local_stop_id":157,"id":157,"geometry":"POINT(-8754010.522829 4269307.276918)","attributes":{"address":"Raleigh, NC","placename":"Raleigh, NC, USA","title":"Ambria Cotten"}},{"local_stop_id":156,"id":156,"geometry":"POINT(-8754010.522829 4269307.276918)","attributes":{"address":"Raleigh, NC","placename":"Raleigh, NC, USA","title":"Nancy T. Nguyen"}},{"local_stop_id":155,"id":155,"geometry":"POINT(-8620141.443535 4514747.230654)","attributes":{"address":"Richmond, VA","placename":"Richmond, VA, USA","title":"Drew Little"}},{"local_stop_id":154,"id":154,"geometry":"POINT(-8639608.305905 5336514.462419)","attributes":{"address":"Rochester, NY","placename":"Rochester, NY, USA","title":"Joe Cassara"}},{"local_stop_id":153,"id":153,"geometry":"POINT(0 -0)","attributes":{"address":"Salt Lake City, MO","title":"Jordan Guernsey"}},{"local_stop_id":152,"id":152,"geometry":"POINT(-12455654.420894 4977120.440969)","attributes":{"address":"Salt Lake City, UT","placename":"Salt Lake City, UT, USA","title":"Rachael Herrscher"}},{"local_stop_id":151,"id":151,"geometry":"POINT(-13041885.98047 3857579.348242)","attributes":{"address":"San Diego, CA","placename":"San Diego, CA, USA","title":"Naveed Lalani"}},{"local_stop_id":150,"id":150,"geometry":"POINT(-13041885.98047 3857579.348242)","attributes":{"address":"San Diego, CA","placename":"San Diego, CA, USA","title":"Molly Mahar"}},{"local_stop_id":149,"id":149,"geometry":"POINT(-13041885.98047 3857579.348242)","attributes":{"address":"San Diego, CA","placename":"San Diego, CA, USA","title":"Raj Lahoti"}},{"local_stop_id":148,"id":148,"geometry":"POINT(-13041885.98047 3857579.348242)","attributes":{"address":"San Diego, CA","placename":"San Diego, CA, USA","title":"Erik Groset"}},{"local_stop_id":147,"id":147,"geometry":"POINT(-13041885.98047 3857579.348242)","attributes":{"address":"San Diego, CA","placename":"San Diego, CA, USA","title":"Erica Douglass"}},{"local_stop_id":146,"id":146,"geometry":"POINT(-13041885.98047 3857579.348242)","attributes":{"address":"San Diego, CA","placename":"San Diego, CA, USA","title":"Andrea Lake"}},{"local_stop_id":145,"id":145,"geometry":"POINT(-13041885.98047 3857579.348242)","attributes":{"address":"San Diego, CA","placename":"San Diego, CA, USA","title":"Lindsey Donner"}},{"local_stop_id":144,"id":144,"geometry":"POINT(-13627666.99667 4547679.508982)","attributes":{"address":"San Francisco, CA","placename":"San Francisco, CA, USA","title":"Leah Neaderthal"}},{"local_stop_id":143,"id":143,"geometry":"POINT(-13627666.99667 4547679.508982)","attributes":{"address":"San Francisco, CA","placename":"San Francisco, CA, USA","title":"Michael Staton"}},{"local_stop_id":142,"id":142,"geometry":"POINT(-13627666.99667 4547679.508982)","attributes":{"address":"San Francisco, CA","placename":"San Francisco, CA, USA","title":"Sunil Rajaraman"}},{"local_stop_id":141,"id":141,"geometry":"POINT(-13627666.99667 4547679.508982)","attributes":{"address":"San Francisco, CA","placename":"San Francisco, CA, USA","title":"Sujan Patel"}},{"local_stop_id":140,"id":140,"geometry":"POINT(-13627666.99667 4547679.508982)","attributes":{"address":"San Francisco, CA","placename":"San Francisco, CA, USA","title":"Adam Khan"}},{"local_stop_id":139,"id":139,"geometry":"POINT(-13627666.99667 4547679.508982)","attributes":{"address":"SAN FRANCISCO, CA","placename":"San Francisco, CA, USA","title":"Elias Bizannes"}},{"local_stop_id":138,"id":138,"geometry":"POINT(-13627666.99667 4547679.508982)","attributes":{"address":"San Francisco, CA","placename":"San Francisco, CA, USA","title":"Leanne Pittsford"}},{"local_stop_id":137,"id":137,"geometry":"POINT(-13627666.99667 4547679.508982)","attributes":{"address":"San Francisco, CA","placename":"San Francisco, CA, USA","title":"Lucas Buick"}},{"local_stop_id":136,"id":136,"geometry":"POINT(-13627666.99667 4547679.508982)","attributes":{"address":"San Francisco, CA","placename":"San Francisco, CA, USA","title":"AJ Kumar"}},{"local_stop_id":135,"id":135,"geometry":"POINT(-13627666.99667 4547679.508982)","attributes":{"address":"San Francisco, CA","placename":"San Francisco, CA, USA","title":"David Ehrenberg"}},{"local_stop_id":134,"id":134,"geometry":"POINT(-13627666.99667 4547679.508982)","attributes":{"address":"San Francisco, CA","placename":"San Francisco, CA, USA","title":"Dan Martell"}},{"local_stop_id":133,"id":133,"geometry":"POINT(-13627666.99667 4547679.508982)","attributes":{"address":"San Francisco, CA","placename":"San Francisco, CA, USA","title":"Sundeep Ahuja"}},{"local_stop_id":132,"id":132,"geometry":"POINT(-13627666.99667 4547679.508982)","attributes":{"address":"San Francisco, CA","placename":"San Francisco, CA, USA","title":"Daniel Ha"}},{"local_stop_id":131,"id":131,"geometry":"POINT(-13627666.99667 4547679.508982)","attributes":{"address":"San Francisco, CA","placename":"San Francisco, CA, USA","title":"Ben Casnocha"}},{"local_stop_id":130,"id":130,"geometry":"POINT(-13627666.99667 4547679.508982)","attributes":{"address":"San Francisco, CA","placename":"San Francisco, CA, USA","title":"Ben Parr"}},{"local_stop_id":129,"id":129,"geometry":"POINT(-13627666.99667 4547679.508982)","attributes":{"address":"San Francisco, CA","placename":"San Francisco, CA, USA","title":"Heidi Allstop"}},{"local_stop_id":128,"id":128,"geometry":"POINT(-13627666.99667 4547679.508982)","attributes":{"address":"San Francisco, CA","placename":"San Francisco, CA, USA","title":"Emily Chiu"}},{"local_stop_id":127,"id":127,"geometry":"POINT(-13627666.99667 4547679.508982)","attributes":{"address":"San Francisco, CA","placename":"San Francisco, CA, USA","title":"Christian Springub"}},{"local_stop_id":126,"id":126,"geometry":"POINT(-13627666.99667 4547679.508982)","attributes":{"address":"San Francisco, CA","placename":"San Francisco, CA, USA","title":"Pete Kennedy"}},{"local_stop_id":125,"id":125,"geometry":"POINT(-13627666.99667 4547679.508982)","attributes":{"address":"San Francisco, CA","placename":"San Francisco, CA, USA","title":"Victor Wong"}},{"local_stop_id":124,"id":124,"geometry":"POINT(-13627666.99667 4547679.508982)","attributes":{"address":"San Francisco, CA","placename":"San Francisco, CA, USA","title":"Travis Kiefer"}},{"local_stop_id":123,"id":123,"geometry":"POINT(-13627666.99667 4547679.508982)","attributes":{"address":"San Francisco, CA","placename":"San Francisco, CA, USA","title":"Susan Koger"}},{"local_stop_id":122,"id":122,"geometry":"POINT(-13627666.99667 4547679.508982)","attributes":{"address":"San Francisco, CA","placename":"San Francisco, CA, USA","title":"Shaherose Charania"}},{"local_stop_id":121,"id":121,"geometry":"POINT(-13627666.99667 4547679.508982)","attributes":{"address":"San Francisco, CA","placename":"San Francisco, CA, USA","title":"Scott Dinsmore"}},{"local_stop_id":120,"id":120,"geometry":"POINT(-13627666.99667 4547679.508982)","attributes":{"address":"San Francisco, CA","placename":"San Francisco, CA, USA","title":"Richard White"}},{"local_stop_id":119,"id":119,"geometry":"POINT(-13627666.99667 4547679.508982)","attributes":{"address":"San Francisco, CA","placename":"San Francisco, CA, USA","title":"Richard Price"}},{"local_stop_id":118,"id":118,"geometry":"POINT(-13627666.99667 4547679.508982)","attributes":{"address":"San Francisco, CA","placename":"San Francisco, CA, USA","title":"Rebeca Hwang"}},{"local_stop_id":117,"id":117,"geometry":"POINT(-13627666.99667 4547679.508982)","attributes":{"address":"San Francisco, CA","placename":"San Francisco, CA, USA","title":"Rahim Fazal"}},{"local_stop_id":116,"id":116,"geometry":"POINT(-13627666.99667 4547679.508982)","attributes":{"address":"San Francisco, CA","placename":"San Francisco, CA, USA","title":"Paul Bragiel"}},{"local_stop_id":115,"id":115,"geometry":"POINT(-13627666.99667 4547679.508982)","attributes":{"address":"San Francisco, CA","placename":"San Francisco, CA, USA","title":"Nitin Rao"}},{"local_stop_id":114,"id":114,"geometry":"POINT(-13627666.99667 4547679.508982)","attributes":{"address":"San Francisco, CA","placename":"San Francisco, CA, USA","title":"Nicole Smartt"}},{"local_stop_id":113,"id":113,"geometry":"POINT(-13627666.99667 4547679.508982)","attributes":{"address":"San Francisco, CA","placename":"San Francisco, CA, USA","title":"Nick Arora"}},{"local_stop_id":112,"id":112,"geometry":"POINT(-13627666.99667 4547679.508982)","attributes":{"address":"San Francisco, CA","placename":"San Francisco, CA, USA","title":"Morgan First"}},{"local_stop_id":111,"id":111,"geometry":"POINT(-13627666.99667 4547679.508982)","attributes":{"address":"San Francisco, CA","placename":"San Francisco, CA, USA","title":"Michael Seibel"}},{"local_stop_id":110,"id":110,"geometry":"POINT(-13627666.99667 4547679.508982)","attributes":{"address":"San Francisco, CA","placename":"San Francisco, CA, USA","title":"Maren Kate"}},{"local_stop_id":109,"id":109,"geometry":"POINT(-13627666.99667 4547679.508982)","attributes":{"address":"San Francisco, CA","placename":"San Francisco, CA, USA","title":"Lindsay Reinsmith"}},{"local_stop_id":108,"id":108,"geometry":"POINT(-13627666.99667 4547679.508982)","attributes":{"address":"San Francisco, CA","placename":"San Francisco, CA, USA","title":"Lee Jacobs"}},{"local_stop_id":107,"id":107,"geometry":"POINT(-13627666.99667 4547679.508982)","attributes":{"address":"San Francisco, CA","placename":"San Francisco, CA, USA","title":"Kelly Azevedo"}},{"local_stop_id":106,"id":106,"geometry":"POINT(-13627666.99667 4547679.508982)","attributes":{"address":"San Francisco, CA","placename":"San Francisco, CA, USA","title":"Jun Loayza"}},{"local_stop_id":105,"id":105,"geometry":"POINT(-13627666.99667 4547679.508982)","attributes":{"address":"San Francisco, CA","placename":"San Francisco, CA, USA","title":"John Zimmer"}},{"local_stop_id":104,"id":104,"geometry":"POINT(-13627666.99667 4547679.508982)","attributes":{"address":"San Francisco, CA","placename":"San Francisco, CA, USA","title":"Joe Gebbia"}},{"local_stop_id":103,"id":103,"geometry":"POINT(-13627666.99667 4547679.508982)","attributes":{"address":"San Francisco, CA","placename":"San Francisco, CA, USA","title":"Joe Fernandez"}},{"local_stop_id":102,"id":102,"geometry":"POINT(-13627666.99667 4547679.508982)","attributes":{"address":"San Francisco, CA","placename":"San Francisco, CA, USA","title":"Jesse Pujji"}},{"local_stop_id":101,"id":101,"geometry":"POINT(-13627666.99667 4547679.508982)","attributes":{"address":"San Francisco, CA","placename":"San Francisco, CA, USA","title":"Jason Crowley"}},{"local_stop_id":100,"id":100,"geometry":"POINT(-13627666.99667 4547679.508982)","attributes":{"address":"San Francisco, CA","placename":"San Francisco, CA, USA","title":"Garrett Neiman"}},{"local_stop_id":99,"id":99,"geometry":"POINT(-13627666.99667 4547679.508982)","attributes":{"address":"San Francisco, CA","placename":"San Francisco, CA, USA","title":"Gagan Biyani"}},{"local_stop_id":98,"id":98,"geometry":"POINT(-13627666.99667 4547679.508982)","attributes":{"address":"San Francisco, CA","placename":"San Francisco, CA, USA","title":"Eric Bahn"}},{"local_stop_id":97,"id":97,"geometry":"POINT(-13627666.99667 4547679.508982)","attributes":{"address":"San Francisco, CA","placename":"San Francisco, CA, USA","title":"Doug Bend"}},{"local_stop_id":96,"id":96,"geometry":"POINT(-13627666.99667 4547679.508982)","attributes":{"address":"San Francisco, CA","placename":"San Francisco, CA, USA","title":"David Spinks"}},{"local_stop_id":95,"id":95,"geometry":"POINT(-13627666.99667 4547679.508982)","attributes":{"address":"San Francisco, CA","placename":"San Francisco, CA, USA","title":"David Rusenko"}},{"local_stop_id":94,"id":94,"geometry":"POINT(-13627666.99667 4547679.508982)","attributes":{"address":"San Francisco, CA","placename":"San Francisco, CA, USA","title":"Daniel Brusilovsky"}},{"local_stop_id":93,"id":93,"geometry":"POINT(-13627666.99667 4547679.508982)","attributes":{"address":"San Francisco, CA","placename":"San Francisco, CA, USA","title":"Corbett Barr"}},{"local_stop_id":92,"id":92,"geometry":"POINT(-13627666.99667 4547679.508982)","attributes":{"address":"San Francisco, CA","placename":"San Francisco, CA, USA","title":"Brian Wong"}},{"local_stop_id":91,"id":91,"geometry":"POINT(-13627666.99667 4547679.508982)","attributes":{"address":"San Francisco, CA","placename":"San Francisco, CA, USA","title":"Brian Rowen"}},{"local_stop_id":90,"id":90,"geometry":"POINT(-13627666.99667 4547679.508982)","attributes":{"address":"San Francisco, CA","placename":"San Francisco, CA, USA","title":"Brenton Gieser"}},{"local_stop_id":89,"id":89,"geometry":"POINT(-13627666.99667 4547679.508982)","attributes":{"address":"San Francisco, CA","placename":"San Francisco, CA, USA","title":"Avichal Garg"}},{"local_stop_id":88,"id":88,"geometry":"POINT(-13627666.99667 4547679.508982)","attributes":{"address":"San Francisco, CA","placename":"San Francisco, CA, USA","title":"Arjun Arora"}},{"local_stop_id":87,"id":87,"geometry":"POINT(-13627666.99667 4547679.508982)","attributes":{"address":"San Francisco, CA","placename":"San Francisco, CA, USA","title":"Arielle Patrice Scott"}},{"local_stop_id":86,"id":86,"geometry":"POINT(-13627666.99667 4547679.508982)","attributes":{"address":"San Francisco, CA","placename":"San Francisco, CA, USA","title":"Amanda Holt"}},{"local_stop_id":85,"id":85,"geometry":"POINT(-13627666.99667 4547679.508982)","attributes":{"address":"San Francisco, CA","placename":"San Francisco, CA, USA","title":"Alejandro Velez"}},{"local_stop_id":84,"id":84,"geometry":"POINT(-13627666.99667 4547679.508982)","attributes":{"address":"San Francisco, CA","placename":"San Francisco, CA, USA","title":"Aaron Schwartz"}},{"local_stop_id":83,"id":83,"geometry":"POINT(-13627666.99667 4547679.508982)","attributes":{"address":"San Francisco, CA","placename":"San Francisco, CA, USA","title":"Rishi Shah"}},{"local_stop_id":82,"id":82,"geometry":"POINT(-13569284.376529 4486518.948002)","attributes":{"address":"San Jose, CA","placename":"San Jose, CA, USA","title":"Josh Shipp"}},{"local_stop_id":81,"id":81,"geometry":"POINT(-13569284.376529 4486518.948002)","attributes":{"address":"San Jose, CA","placename":"San Jose, CA, USA","title":"Aj Thomas"}},{"local_stop_id":80,"id":80,"geometry":"POINT(-7358855.278166 2092205.001374)","attributes":{"address":"San Juan,","placename":"San Juan, Puerto Rico","title":"Paul Gonzalez"}},{"local_stop_id":79,"id":79,"geometry":"POINT(-12452167.315581 4949488.54205)","attributes":{"address":"Sandy, UT","placename":"Sandy, UT, USA","title":"TC Krueger"}},{"local_stop_id":78,"id":78,"geometry":"POINT(-13190379.067872 4031414.562541)","attributes":{"address":"Santa Monica, CA","placename":"Santa Monica, CA, USA","title":"Sam Friedman"}},{"local_stop_id":77,"id":77,"geometry":"POINT(-13190379.067872 4031414.562541)","attributes":{"address":"Santa Monica, CA","placename":"Santa Monica, CA, USA","title":"Wade Eyerly"}},{"local_stop_id":76,"id":76,"geometry":"POINT(-13190379.067872 4031414.562541)","attributes":{"address":"Santa Monica, CA","placename":"Santa Monica, CA, USA","title":"Antonio Neves"}},{"local_stop_id":75,"id":75,"geometry":"POINT(-13190379.067872 4031414.562541)","attributes":{"address":"Santa Monica, CA","placename":"Santa Monica, CA, USA","title":"Mario Schulzke"}},{"local_stop_id":74,"id":74,"geometry":"POINT(-9187270.233401 3165568.066061)","attributes":{"address":"Sarasota, FL","placename":"Sarasota, FL, USA","title":"Janis Krums"}},{"local_stop_id":73,"id":73,"geometry":"POINT(-9187270.233401 3165568.066061)","attributes":{"address":"Sarasota, FL","placename":"Sarasota, FL, USA","title":"Steven Staley"}},{"local_stop_id":72,"id":72,"geometry":"POINT(-7904913.626133 5230912.151007)","attributes":{"address":"Saugus, MA","placename":"Saugus, MA, USA","title":"James DiSabatino"}},{"local_stop_id":71,"id":71,"geometry":"POINT(-8913388.630416 4878433.696644)","attributes":{"address":"Scenery Hill, PA","placename":"Scenery Hill, North Bethlehem, PA, USA","title":"Tori Molnar"}},{"local_stop_id":70,"id":70,"geometry":"POINT(-13617943.829143 6041590.385935)","attributes":{"address":"Seattle, WA","placename":"Seattle, WA, USA","title":"Martina Welke"}},{"local_stop_id":69,"id":69,"geometry":"POINT(-13617943.829143 6041590.385935)","attributes":{"address":"Seattle, WA","placename":"Seattle, WA, USA","title":"Nick Soman"}},{"local_stop_id":68,"id":68,"geometry":"POINT(-13617943.829143 6041590.385935)","attributes":{"address":"Seattle, WA","placename":"Seattle, WA, USA","title":"Adrian Aoun"}},{"local_stop_id":67,"id":67,"geometry":"POINT(-13617943.829143 6041590.385935)","attributes":{"address":"Seattle, WA","placename":"Seattle, WA, USA","title":"Brandon Wu"}},{"local_stop_id":66,"id":66,"geometry":"POINT(-13617943.829143 6041590.385935)","attributes":{"address":"Seattle, WA","placename":"Seattle, WA, USA","title":"Shane Mac"}},{"local_stop_id":65,"id":65,"geometry":"POINT(-13617943.829143 6041590.385935)","attributes":{"address":"Seattle, WA","placename":"Seattle, WA, USA","title":"Neil Patel"}},{"local_stop_id":64,"id":64,"geometry":"POINT(-13617943.829143 6041590.385935)","attributes":{"address":"Seattle, WA","placename":"Seattle, WA, USA","title":"Marc Nager"}},{"local_stop_id":63,"id":63,"geometry":"POINT(-13617943.829143 6041590.385935)","attributes":{"address":"Seattle, WA","placename":"Seattle, WA, USA","title":"Jennifer Donogh"}},{"local_stop_id":62,"id":62,"geometry":"POINT(-13617943.829143 6041590.385935)","attributes":{"address":"Seattle, WA","placename":"Seattle, WA, USA","title":"Derek Johnson"}},{"local_stop_id":61,"id":61,"geometry":"POINT(-13617943.829143 6041590.385935)","attributes":{"address":"Seattle, WA","placename":"Seattle, WA, USA","title":"Chris Lee"}},{"local_stop_id":60,"id":60,"geometry":"POINT(-13617943.829143 6041590.385935)","attributes":{"address":"Seattle, WA","placename":"Seattle, WA, USA","title":"Ankur Jain"}},{"local_stop_id":59,"id":59,"geometry":"POINT(-163649.113623 7053809.999978)","attributes":{"address":"Sheffield, United Kingdom","placename":"Sheffield, South Yorkshire, UK","title":"Shane Bratby"}},{"local_stop_id":58,"id":58,"geometry":"POINT(11557171.277761 150527.162641)","attributes":{"address":"Singapore,","placename":"Singapore","title":"Carmen Benitez"}},{"local_stop_id":57,"id":57,"geometry":"POINT(-10764631.161183 5396061.8416)","attributes":{"address":"Sioux Falls, SD","placename":"Sioux Falls, SD, USA","title":"John Meyer"}},{"local_stop_id":56,"id":56,"geometry":"POINT(-13051027.503658 6052662.788958)","attributes":{"address":"Spokane Valley, WA","placename":"Spokane Valley, WA, USA","title":"Ruben Gamez"}},{"local_stop_id":55,"id":55,"geometry":"POINT(-8592440.200509 4691532.544667)","attributes":{"address":"Springfield, VA","placename":"Springfield, VA, USA","title":"Rosetta Thurman"}},{"local_stop_id":54,"id":54,"geometry":"POINT(-10040951.745401 4668382.843839)","attributes":{"address":"St. Louis, MO","placename":"St Louis, MO, USA","title":"Nathaniel Broughton"}},{"local_stop_id":53,"id":53,"geometry":"POINT(-10040951.745401 4668382.843839)","attributes":{"address":"St. Louis, MO","placename":"St Louis, MO, USA","title":"David Siteman Garland"}},{"local_stop_id":52,"id":52,"geometry":"POINT(-8254060.229274 4947734.631567)","attributes":{"address":"Staten island, NY","placename":"Richmond, NY, USA","title":"Anthony Saladino"}},{"local_stop_id":51,"id":51,"geometry":"POINT(-10646033.524158 3454756.166644)","attributes":{"address":"Sugar Land, TX","placename":"Sugar Land, TX, USA","title":"Ak Kurji"}},{"local_stop_id":50,"id":50,"geometry":"POINT(0 -0)","attributes":{"address":"Sunnyvale, CA","title":"Wade Foster"}},{"local_stop_id":49,"id":49,"geometry":"POINT(16832273.954707 -4011849.033755)","attributes":{"address":"Sydney, Australia","placename":"Sydney NSW, Australia","title":"Jack Delosa"}},{"local_stop_id":48,"id":48,"geometry":"POINT(-8476692.509427 5319299.39199)","attributes":{"address":"Syracuse, NY","placename":"Syracuse, NY, USA","title":"Andrew Farah"}},{"local_stop_id":47,"id":47,"geometry":"POINT(-8476692.509427 5319299.39199)","attributes":{"address":"Syracuse, NY","placename":"Syracuse, NY, USA","title":"Arel Moodie"}},{"local_stop_id":46,"id":46,"geometry":"POINT(-9179091.022683 3242743.855783)","attributes":{"address":"Tampa, FL","placename":"Tampa, FL, USA","title":"Omar Soliman"}},{"local_stop_id":45,"id":45,"geometry":"POINT(-9179091.022683 3242743.855783)","attributes":{"address":"Tampa, FL","placename":"Tampa, FL, USA","title":"Ashley Bodi"}},{"local_stop_id":44,"id":44,"geometry":"POINT(-9179091.022683 3242743.855783)","attributes":{"address":"Tampa, FL","placename":"Tampa, FL, USA","title":"Andrew Norcross"}},{"local_stop_id":43,"id":43,"geometry":"POINT(-12461104.400524 3951920.510157)","attributes":{"address":"Tempe, AZ","placename":"Tempe, AZ, USA","title":"Sean Coleman"}},{"local_stop_id":42,"id":42,"geometry":"POINT(-8836895.653825 5411933.999327)","attributes":{"address":"Toronto, Ontario, Canada","placename":"Toronto, ON, Canada","title":"Kirk Simpson"}},{"local_stop_id":41,"id":41,"geometry":"POINT(-8836895.653825 5411933.999327)","attributes":{"address":"Toronto, Ontario, Canada","placename":"Toronto, ON, Canada","title":"Jennifer Corriero"}},{"local_stop_id":40,"id":40,"geometry":"POINT(-8836895.653825 5411933.999327)","attributes":{"address":"Toronto, Ontario, Canada","placename":"Toronto, ON, Canada","title":"Sarah Prevette"}},{"local_stop_id":39,"id":39,"geometry":"POINT(-8836895.653825 5411933.999327)","attributes":{"address":"Toronto, Ontario, Canada","placename":"Toronto, ON, Canada","title":"Natalie MacNeil"}},{"local_stop_id":38,"id":38,"geometry":"POINT(-8836895.653825 5411933.999327)","attributes":{"address":"Toronto, Ontario, Canada","placename":"Toronto, ON, Canada","title":"Benjamin Gulak"}},{"local_stop_id":37,"id":37,"geometry":"POINT(-8836895.653825 5411933.999327)","attributes":{"address":"Toronto, Ontario, Canada","placename":"Toronto, ON, Canada","title":"Nathalie Lussier"}},{"local_stop_id":36,"id":36,"geometry":"POINT(-8836895.653825 5411933.999327)","attributes":{"address":"Toronto, Ontario, Canada","placename":"Toronto, ON, Canada","title":"Lauren Friese"}},{"local_stop_id":35,"id":35,"geometry":"POINT(-13198509.609709 4081265.694955)","attributes":{"address":"Valencia, CA","placename":"Valencia, Santa Clarita, CA, USA","title":"Nathaniel Victor"}},{"local_stop_id":34,"id":34,"geometry":"POINT(-13704979.640936 6319302.780575)","attributes":{"address":"Vancouver, British Columbia, Canada","placename":"Vancouver, BC, Canada","title":"Azita Ardakani"}},{"local_stop_id":33,"id":33,"geometry":"POINT(-13704979.640936 6319302.780575)","attributes":{"address":"Vancouver, British Columbia, Canada","placename":"Vancouver, BC, Canada","title":"Yael Cohen"}},{"local_stop_id":32,"id":32,"geometry":"POINT(-13704979.640936 6319302.780575)","attributes":{"address":"Vancouver, British Columbia, Canada","placename":"Vancouver, BC, Canada","title":"Sean Aiken"}},{"local_stop_id":31,"id":31,"geometry":"POINT(-13704979.640936 6319302.780575)","attributes":{"address":"Vancouver, British Columbia, Canada","placename":"Vancouver, BC, Canada","title":"Ryan Holmes"}},{"local_stop_id":30,"id":30,"geometry":"POINT(-13704979.640936 6319302.780575)","attributes":{"address":"Vancouver, British Columbia, Canada","placename":"Vancouver, BC, Canada","title":"Matt Mickiewicz"}},{"local_stop_id":29,"id":29,"geometry":"POINT(-13704979.640936 6319302.780575)","attributes":{"address":"Vancouver, British Columbia, Canada","placename":"Vancouver, BC, Canada","title":"Derek Shanahan"}},{"local_stop_id":28,"id":28,"geometry":"POINT(-13187895.129283 4028293.723871)","attributes":{"address":"Venice, CA","placename":"Venice, Los Angeles, CA, USA","title":"Derek Zobrist"}},{"local_stop_id":27,"id":27,"geometry":"POINT(-8575649.01342 4706658.354775)","attributes":{"address":"Washington, DC","placename":"Washington, DC, USA","title":"Arthur Ebeling"}},{"local_stop_id":26,"id":26,"geometry":"POINT(-8575649.01342 4706658.354775)","attributes":{"address":"Washington, DC","placename":"Washington, DC, USA","title":"Marvin Ammori"}},{"local_stop_id":25,"id":25,"geometry":"POINT(-8575649.01342 4706658.354775)","attributes":{"address":"Washington, DC","placename":"Washington, DC, USA","title":"Pranav Vora"}},{"local_stop_id":24,"id":24,"geometry":"POINT(-8575649.01342 4706658.354775)","attributes":{"address":"Washington, DC","placename":"Washington, DC, USA","title":"Yanik Silver"}},{"local_stop_id":23,"id":23,"geometry":"POINT(-8575649.01342 4706658.354775)","attributes":{"address":"Washington, DC","placename":"Washington, DC, USA","title":"Tim O'Shaughnessy"}},{"local_stop_id":22,"id":22,"geometry":"POINT(-8575649.01342 4706658.354775)","attributes":{"address":"Washington, DC","placename":"Washington, DC, USA","title":"Susan Strayer"}},{"local_stop_id":21,"id":21,"geometry":"POINT(-8575649.01342 4706658.354775)","attributes":{"address":"Washington, DC","placename":"Washington, DC, USA","title":"Saul Garlick"}},{"local_stop_id":20,"id":20,"geometry":"POINT(-8575649.01342 4706658.354775)","attributes":{"address":"Washington, DC","placename":"Washington, DC, USA","title":"Ryan Healy"}},{"local_stop_id":19,"id":19,"geometry":"POINT(-8575649.01342 4706658.354775)","attributes":{"address":"Washington, DC","placename":"Washington, DC, USA","title":"Rochelle Behrens"}},{"local_stop_id":18,"id":18,"geometry":"POINT(-8575649.01342 4706658.354775)","attributes":{"address":"Washington, DC","placename":"Washington, DC, USA","title":"Paul Carrick Brunson"}},{"local_stop_id":17,"id":17,"geometry":"POINT(-8575649.01342 4706658.354775)","attributes":{"address":"Washington, DC","placename":"Washington, DC, USA","title":"Nick Friedman"}},{"local_stop_id":16,"id":16,"geometry":"POINT(-8575649.01342 4706658.354775)","attributes":{"address":"Washington, DC","placename":"Washington, DC, USA","title":"Michael Petriella"}},{"local_stop_id":15,"id":15,"geometry":"POINT(-8575649.01342 4706658.354775)","attributes":{"address":"Washington, DC","placename":"Washington, DC, USA","title":"Leo Pareja"}},{"local_stop_id":14,"id":14,"geometry":"POINT(-8575649.01342 4706658.354775)","attributes":{"address":"Washington, DC","placename":"Washington, DC, USA","title":"Johnica Reed"}},{"local_stop_id":13,"id":13,"geometry":"POINT(-8575649.01342 4706658.354775)","attributes":{"address":"Washington, DC","placename":"Washington, DC, USA","title":"Joel Backaler"}},{"local_stop_id":12,"id":12,"geometry":"POINT(-8575649.01342 4706658.354775)","attributes":{"address":"Washington, DC","placename":"Washington, DC, USA","title":"Heather Huhman"}},{"local_stop_id":11,"id":11,"geometry":"POINT(-8575649.01342 4706658.354775)","attributes":{"address":"Washington, DC","placename":"Washington, DC, USA","title":"DJ Saul"}},{"local_stop_id":10,"id":10,"geometry":"POINT(-8575649.01342 4706658.354775)","attributes":{"address":"Washington, DC","placename":"Washington, DC, USA","title":"David Baldwin Barnes"}},{"local_stop_id":9,"id":9,"geometry":"POINT(-8575649.01342 4706658.354775)","attributes":{"address":"Washington, DC","placename":"Washington, DC, USA","title":"Allen Gannett"}},{"local_stop_id":8,"id":8,"geometry":"POINT(-8575649.01342 4706658.354775)","attributes":{"address":"Washington, DC","placename":"Washington, DC, USA","title":"Alex Simon"}},{"local_stop_id":7,"id":7,"geometry":"POINT(-8575649.01342 4706658.354775)","attributes":{"address":"Washington, DC","placename":"Washington, DC, USA","title":"Alex Budak"}},{"local_stop_id":6,"id":6,"geometry":"POINT(-8575649.01342 4706658.354775)","attributes":{"address":"Washington, DC","placename":"Washington, DC, USA","title":"Aaron Smith"}},{"local_stop_id":5,"id":5,"geometry":"POINT(-8575649.01342 4706658.354775)","attributes":{"address":"Washington, DC","placename":"Washington, DC, USA","title":"Zach Cutler"}},{"local_stop_id":4,"id":4,"geometry":"POINT(-8575649.01342 4706658.354775)","attributes":{"address":"Washington, DC","placename":"Washington, DC, USA","title":"David Adelman"}},{"local_stop_id":3,"id":3,"geometry":"POINT(-8191737.199721 4976367.525347)","attributes":{"address":"Westbury, NY","placename":"Westbury, NY, USA","title":"Michael Seiman"}},{"local_stop_id":2,"id":2,"geometry":"POINT(-10813296.335619 6428933.082767)","attributes":{"address":"Winnipeg","placename":"Winnipeg, MB, Canada","title":"Brad Kendall"}},{"local_stop_id":1,"id":1,"geometry":"POINT(-13203490.722776 4051027.101291)","attributes":{"address":"Woodland Hills, CA","placename":"Woodland Hills, Los Angeles, CA, USA","title":"Travis Steffen"}}],"hops":[]},"editable":false}