{"type":"FeatureCollection","features":[{"type":"Feature","geometry":{"type":"Point","coordinates":[-88.497649987681,17.189876997679]},"properties":{"supplychain_instance_id":"supplychain-1","stop_instance_id":"stop-37204","description":"","address":"Belize","title":"belize"}},{"type":"Feature","geometry":{"type":"Point","coordinates":[-90.230758987436,15.783470997858]},"properties":{"supplychain_instance_id":"supplychain-1","stop_instance_id":"stop-36939","description":"","address":"Guatemala","title":"guatemala"}},{"type":"Feature","geometry":{"type":"Point","coordinates":[-86.241904987995,15.199998997934]},"properties":{"supplychain_instance_id":"supplychain-1","stop_instance_id":"stop-36676","description":"","address":"Honduras","title":"honduras"}},{"type":"Feature","geometry":{"type":"Point","coordinates":[-88.896529987625,13.794184998117]},"properties":{"supplychain_instance_id":"supplychain-1","stop_instance_id":"stop-36415","description":"","address":"El Salvador","title":"El Salvador"}},{"type":"Feature","geometry":{"type":"Point","coordinates":[-85.207228988139,12.865415998239]},"properties":{"supplychain_instance_id":"supplychain-1","stop_instance_id":"stop-36156","description":"","address":"Nicaragua","title":"nicaragua"}},{"type":"Feature","geometry":{"type":"Point","coordinates":[-83.753427988342,9.7489169986561]},"properties":{"supplychain_instance_id":"supplychain-1","stop_instance_id":"stop-35899","description":"","address":"Costa Rica","title":"costa rica"}},{"type":"Feature","geometry":{"type":"Point","coordinates":[-80.782126988755,8.5379809988203]},"properties":{"supplychain_instance_id":"supplychain-1","stop_instance_id":"stop-35644","description":"","address":"Panama","title":"panama"}},{"type":"Feature","geometry":{"type":"Point","coordinates":[-81.254599988689,19.313299997413]},"properties":{"supplychain_instance_id":"supplychain-1","stop_instance_id":"stop-32115","description":"","address":"Cayman Islands","title":"cayman islands"}},{"type":"Feature","geometry":{"type":"Point","coordinates":[-77.29750798924,18.109580997563]},"properties":{"supplychain_instance_id":"supplychain-1","stop_instance_id":"stop-31864","description":"","address":"Jamaica","title":"jamaica"}},{"type":"Feature","geometry":{"type":"Point","coordinates":[-72.285214989938,18.971186997456]},"properties":{"supplychain_instance_id":"supplychain-1","stop_instance_id":"stop-31615","description":"","address":"Haiti","title":"haiti"}},{"type":"Feature","geometry":{"type":"Point","coordinates":[-66.59014899073,18.220832997549]},"properties":{"supplychain_instance_id":"supplychain-1","stop_instance_id":"stop-31368","description":"","address":"Puerto Rico","title":"puerto rico"}},{"type":"Feature","geometry":{"type":"Point","coordinates":[-61.796427991398,17.060815997695]},"properties":{"supplychain_instance_id":"supplychain-1","stop_instance_id":"stop-31123","description":"","address":"Antigua and Barbuda","title":"antigua and barbuda"}},{"type":"Feature","geometry":{"type":"Point","coordinates":[-62.187365991344,16.742497997736]},"properties":{"supplychain_instance_id":"supplychain-1","stop_instance_id":"stop-30880","description":"","address":"Montserrat","title":"montserrat"}},{"type":"Feature","geometry":{"type":"Point","coordinates":[-61.370975991457,15.414998997906]},"properties":{"supplychain_instance_id":"supplychain-1","stop_instance_id":"stop-29792","description":"","address":"Dominica","title":"dominica"}},{"type":"Feature","geometry":{"type":"Point","coordinates":[-60.978892991512,13.909443998101]},"properties":{"supplychain_instance_id":"supplychain-1","stop_instance_id":"stop-29553","description":"","address":"St Lucia","title":"saint lucia"}},{"type":"Feature","geometry":{"type":"Point","coordinates":[-59.543197991712,13.193886998195]},"properties":{"supplychain_instance_id":"supplychain-1","stop_instance_id":"stop-29316","description":"","address":"Barbados","title":"barbados"}},{"type":"Feature","geometry":{"type":"Point","coordinates":[-61.678999991415,12.116499998339]},"properties":{"supplychain_instance_id":"supplychain-1","stop_instance_id":"stop-29081","description":"","address":"Grenada","title":"grenada"}},{"type":"Feature","geometry":{"type":"Point","coordinates":[-61.222502991478,10.691802998529]},"properties":{"supplychain_instance_id":"supplychain-1","stop_instance_id":"stop-28497","description":"","address":"Trinidad and Tobago","title":"trinidad and tobago"}},{"type":"Feature","geometry":{"type":"Point","coordinates":[-68.990019990396,12.169569998331]},"properties":{"supplychain_instance_id":"supplychain-1","stop_instance_id":"stop-28266","description":"","address":"Cura\u00e7ao","title":"curacao"}},{"type":"Feature","geometry":{"type":"Point","coordinates":[-69.96833799026,12.521109998285]},"properties":{"supplychain_instance_id":"supplychain-1","stop_instance_id":"stop-28037","description":"","address":"Aruba","title":"aruba"}},{"type":"Feature","geometry":{"type":"Point","coordinates":[-77.781166989173,21.521756997145]},"properties":{"supplychain_instance_id":"supplychain-1","stop_instance_id":"stop-27132","description":"","address":"Cuba","title":"cuba"}},{"type":"Feature","geometry":{"type":"Point","coordinates":[-71.797927990006,21.694024997124]},"properties":{"supplychain_instance_id":"supplychain-1","stop_instance_id":"stop-26907","description":"","address":"Turks and Caicos Islands","title":"turks and caicos islands"}},{"type":"Feature","geometry":{"type":"Point","coordinates":[-70.162650990233,18.735692997485]},"properties":{"supplychain_instance_id":"supplychain-1","stop_instance_id":"stop-26462","description":"","address":"Dominican Republic","title":"dominican republic"}},{"type":"Feature","geometry":{"type":"Point","coordinates":[-74.297332989658,4.5708679993651]},"properties":{"supplychain_instance_id":"supplychain-1","stop_instance_id":"stop-24261","description":"","address":"Colombia","title":"columbia"}},{"type":"Feature","geometry":{"type":"Point","coordinates":[-78.183405989117,-1.8312389997452]},"properties":{"supplychain_instance_id":"supplychain-1","stop_instance_id":"stop-24042","description":"","address":"Ecuador","title":"ecuador"}},{"type":"Feature","geometry":{"type":"Point","coordinates":[-71.542968990041,-35.675146995677]},"properties":{"supplychain_instance_id":"supplychain-1","stop_instance_id":"stop-23825","description":"","address":"Chile","title":"chile"}},{"type":"Feature","geometry":{"type":"Point","coordinates":[-55.765834992238,-32.52277899596]},"properties":{"supplychain_instance_id":"supplychain-1","stop_instance_id":"stop-23610","description":"","address":"Uruguay","title":"uruguay"}},{"type":"Feature","geometry":{"type":"Point","coordinates":[-58.443831991865,-23.442502996919]},"properties":{"supplychain_instance_id":"supplychain-1","stop_instance_id":"stop-23397","description":"","address":"Paraguay","title":"paraguay"}},{"type":"Feature","geometry":{"type":"Point","coordinates":[-63.588652991148,-16.290153997793]},"properties":{"supplychain_instance_id":"supplychain-1","stop_instance_id":"stop-23186","description":"","address":"Bolivia","title":"bolivia"}},{"type":"Feature","geometry":{"type":"Point","coordinates":[-56.027782992201,3.9193049994553]},"properties":{"supplychain_instance_id":"supplychain-1","stop_instance_id":"stop-22977","description":"","address":"Suriname","title":"suriname"}},{"type":"Feature","geometry":{"type":"Point","coordinates":[-53.125781992605,3.9338889994532]},"properties":{"supplychain_instance_id":"supplychain-1","stop_instance_id":"stop-22770","description":"","address":"French Guiana","title":"french guiana"}},{"type":"Feature","geometry":{"type":"Point","coordinates":[-58.930179991797,4.8604159993251]},"properties":{"supplychain_instance_id":"supplychain-1","stop_instance_id":"stop-22565","description":"","address":"Guyana","title":"guyana"}},{"type":"Feature","geometry":{"type":"Point","coordinates":[-66.589729990731,6.4237499991096]},"properties":{"supplychain_instance_id":"supplychain-1","stop_instance_id":"stop-22362","description":"","address":"Venezuela","title":"venezuela"}},{"type":"Feature","geometry":{"type":"Point","coordinates":[174.88597097565,-40.900556995276]},"properties":{"supplychain_instance_id":"supplychain-1","stop_instance_id":"stop-21961","description":"","address":"New Zealand","title":"new zealand"}},{"type":"Feature","geometry":{"type":"Point","coordinates":[133.77513598138,-25.27439799671]},"properties":{"supplychain_instance_id":"supplychain-1","stop_instance_id":"stop-20970","description":"","address":"Australia","title":"australia"}},{"type":"Feature","geometry":{"type":"Point","coordinates":[143.95554997996,-6.3149929991245]},"properties":{"youtube:link":"","water":"0","energy":"0","co2e":"0","weight":"0","supplychain_instance_id":"supplychain-1","stop_instance_id":"stop-20675","description":"","address":"Papua New Guinea","title":"papua new guinea"}},{"type":"Feature","geometry":{"type":"Point","coordinates":[113.92132698414,-0.78927499989015]},"properties":{"supplychain_instance_id":"supplychain-1","stop_instance_id":"stop-20480","description":"","address":"Indonesia","title":"indonesia"}},{"type":"Feature","geometry":{"type":"Point","coordinates":[121.77401698304,12.879720998237]},"properties":{"supplychain_instance_id":"supplychain-1","stop_instance_id":"stop-20287","description":"","address":"Philippines","title":"philippines"}},{"type":"Feature","geometry":{"type":"Point","coordinates":[101.97576598581,4.2104839994149]},"properties":{"supplychain_instance_id":"supplychain-1","stop_instance_id":"stop-19336","description":"","address":"Malaysia","title":"malaysia"}},{"type":"Feature","geometry":{"type":"Point","coordinates":[104.99096298539,12.565678998279]},"properties":{"supplychain_instance_id":"supplychain-1","stop_instance_id":"stop-19147","description":"","address":"Cambodia","title":"cambodia"}},{"type":"Feature","geometry":{"type":"Point","coordinates":[100.99254098594,15.870031997848]},"properties":{"supplychain_instance_id":"supplychain-1","stop_instance_id":"stop-18960","description":"","address":"Thailand","title":"thailand"}},{"type":"Feature","geometry":{"type":"Point","coordinates":[95.956222986644,21.913964997098]},"properties":{"supplychain_instance_id":"supplychain-1","stop_instance_id":"stop-18775","description":"","address":"Burma","title":"myanmar"}},{"type":"Feature","geometry":{"type":"Point","coordinates":[90.356330987419,23.684993996891]},"properties":{"supplychain_instance_id":"supplychain-1","stop_instance_id":"stop-17591","description":"","address":"Bangladesh","title":"bangladesh"}},{"type":"Feature","geometry":{"type":"Point","coordinates":[84.12400798829,28.394856996371]},"properties":{"supplychain_instance_id":"supplychain-1","stop_instance_id":"stop-17410","description":"","address":"Nepal","title":"nepal"}},{"type":"Feature","geometry":{"type":"Point","coordinates":[80.771796988756,7.873053998911]},"properties":{"supplychain_instance_id":"supplychain-1","stop_instance_id":"stop-17231","description":"","address":"Sri Lanka","title":"sri lanka"}},{"type":"Feature","geometry":{"type":"Point","coordinates":[78.962879989009,20.593683997257]},"properties":{"supplychain_instance_id":"supplychain-1","stop_instance_id":"stop-17054","description":"","address":"India","title":"india"}},{"type":"Feature","geometry":{"type":"Point","coordinates":[69.345115990347,30.375320996168]},"properties":{"supplychain_instance_id":"supplychain-1","stop_instance_id":"stop-16879","description":"","address":"Pakistan","title":"pakistan"}},{"type":"Feature","geometry":{"type":"Point","coordinates":[74.766097989592,41.204379995256]},"properties":{"supplychain_instance_id":"supplychain-1","stop_instance_id":"stop-16362","description":"","address":"Kyrgyzstan","title":"kyrgyzstan"}},{"type":"Feature","geometry":{"type":"Point","coordinates":[66.923683990684,48.01957299489]},"properties":{"supplychain_instance_id":"supplychain-1","stop_instance_id":"stop-16191","description":"","address":"Kazakhstan","title":"kazakhstan"}},{"type":"Feature","geometry":{"type":"Point","coordinates":[47.576926993377,40.143104995329]},"properties":{"supplychain_instance_id":"supplychain-1","stop_instance_id":"stop-15854","description":"","address":"Azerbaijan","title":"azerbaijan"}},{"type":"Feature","geometry":{"type":"Point","coordinates":[43.356891993965,42.315406995184]},"properties":{"supplychain_instance_id":"supplychain-1","stop_instance_id":"stop-14691","description":"","address":"Georgia","title":"georgia"}},{"type":"Feature","geometry":{"type":"Point","coordinates":[34.851611995149,31.046050996101]},"properties":{"supplychain_instance_id":"supplychain-1","stop_instance_id":"stop-14526","description":"","address":"Israel","title":"israel"}},{"type":"Feature","geometry":{"type":"Point","coordinates":[35.862284995008,33.854720995837]},"properties":{"supplychain_instance_id":"supplychain-1","stop_instance_id":"stop-14363","description":"","address":"Lebanon","title":"lebanon"}},{"type":"Feature","geometry":{"type":"Point","coordinates":[35.243321995095,38.963744995414]},"properties":{"supplychain_instance_id":"supplychain-1","stop_instance_id":"stop-14202","description":"","address":"Turkey","title":"turkey"}},{"type":"Feature","geometry":{"type":"Point","coordinates":[-14.452361997988,14.497400998025]},"properties":{"supplychain_instance_id":"supplychain-1","stop_instance_id":"stop-13806","description":"","address":"Senegal","title":"senegal"}},{"type":"Feature","geometry":{"type":"Point","coordinates":[-15.310138997869,13.443181998163]},"properties":{"supplychain_instance_id":"supplychain-1","stop_instance_id":"stop-13181","description":"","address":"The Gambia","title":"gambia"}},{"type":"Feature","geometry":{"type":"Point","coordinates":[-15.180412997887,11.803748998381]},"properties":{"supplychain_instance_id":"supplychain-1","stop_instance_id":"stop-13026","description":"","address":"Guinea-Bissau","title":"guinea bissau"}},{"type":"Feature","geometry":{"type":"Point","coordinates":[-11.77988899836,8.4605549988308]},"properties":{"supplychain_instance_id":"supplychain-1","stop_instance_id":"stop-12642","description":"","address":"Sierra Leone","title":"sierra leone"}},{"type":"Feature","geometry":{"type":"Point","coordinates":[-9.6966449986504,9.9455869986294]},"properties":{"supplychain_instance_id":"supplychain-1","stop_instance_id":"stop-12191","description":"","address":"Guinea","title":"guinea"}},{"type":"Feature","geometry":{"type":"Point","coordinates":[-9.4294989986877,6.428054999109]},"properties":{"supplychain_instance_id":"supplychain-1","stop_instance_id":"stop-12042","description":"","address":"Liberia","title":"liberia"}},{"type":"Feature","geometry":{"type":"Point","coordinates":[-5.5470799992279,7.5399889989565]},"properties":{"supplychain_instance_id":"supplychain-1","stop_instance_id":"stop-11749","description":"","address":"C\u00f4te d'Ivoire","title":"cote divoire"}},{"type":"Feature","geometry":{"type":"Point","coordinates":[-3.9961659994437,17.570691997631]},"properties":{"supplychain_instance_id":"supplychain-1","stop_instance_id":"stop-11388","description":"","address":"Mali","title":"mali"}},{"type":"Feature","geometry":{"type":"Point","coordinates":[-1.5615929997826,12.238332998323]},"properties":{"supplychain_instance_id":"supplychain-1","stop_instance_id":"stop-11103","description":"","address":"Burkina Faso","title":"burkina faso"}},{"type":"Feature","geometry":{"type":"Point","coordinates":[-1.0231939998576,7.946526998901]},"properties":{"supplychain_instance_id":"supplychain-1","stop_instance_id":"stop-10122","description":"","address":"Ghana","title":"ghana"}},{"type":"Feature","geometry":{"type":"Point","coordinates":[0.82478199988519,8.6195429988092]},"properties":{"supplychain_instance_id":"supplychain-1","stop_instance_id":"stop-9773","description":"","address":"Togo","title":"togo"}},{"type":"Feature","geometry":{"type":"Point","coordinates":[2.3158339996776,9.3076899987157]},"properties":{"supplychain_instance_id":"supplychain-1","stop_instance_id":"stop-9636","description":"","address":"Benin","title":"benin"}},{"type":"Feature","geometry":{"type":"Point","coordinates":[8.081665998875,17.607788997627]},"properties":{"supplychain_instance_id":"supplychain-1","stop_instance_id":"stop-9501","description":"","address":"Niger","title":"niger"}},{"type":"Feature","geometry":{"type":"Point","coordinates":[8.6752769987924,9.0819989987467]},"properties":{"supplychain_instance_id":"supplychain-1","stop_instance_id":"stop-9368","description":"","address":"Nigeria","title":"nigeria"}},{"type":"Feature","geometry":{"type":"Point","coordinates":[18.732206997392,15.454165997901]},"properties":{"supplychain_instance_id":"supplychain-1","stop_instance_id":"stop-9237","description":"","address":"Chad","title":"chad"}},{"type":"Feature","geometry":{"type":"Point","coordinates":[32.62067229546,0.34861349995147]},"properties":{"supplychain_instance_id":"supplychain-1","stop_instance_id":"stop-8788","description":"","address":"Republic Rd, Kampala, Uganda","title":"central africa republic"}},{"type":"Feature","geometry":{"type":"Point","coordinates":[12.35472199828,7.3697219989797]},"properties":{"supplychain_instance_id":"supplychain-1","stop_instance_id":"stop-8661","description":"","address":"Cameroon","title":"cameroon"}},{"type":"Feature","geometry":{"type":"Point","coordinates":[10.267894998571,1.6508009997702]},"properties":{"youtube:link":"","water":"0","energy":"0","co2e":"0","weight":"0","supplychain_instance_id":"supplychain-1","stop_instance_id":"stop-8226","description":"","address":"Equatorial Guinea","title":"equatorial guinea"}},{"type":"Feature","geometry":{"type":"Point","coordinates":[11.609443998384,-0.80368899988814]},"properties":{"supplychain_instance_id":"supplychain-1","stop_instance_id":"stop-8103","description":"","address":"Gabon","title":"gabon"}},{"type":"Feature","geometry":{"type":"Point","coordinates":[17.873886997512,-11.20269199846]},"properties":{"supplychain_instance_id":"supplychain-1","stop_instance_id":"stop-7862","description":"","address":"Angola","title":"angola"}},{"type":"Feature","geometry":{"type":"Point","coordinates":[21.758663996971,-4.0383329994388]},"properties":{"supplychain_instance_id":"supplychain-1","stop_instance_id":"stop-7448","description":"","address":"Democratic Republic of the Congo","title":"dr congo"}},{"type":"Feature","geometry":{"type":"Point","coordinates":[15.827658997797,-0.22802099996827]},"properties":{"youtube:link":"","water":"0","energy":"0","co2e":"0","weight":"0","supplychain_instance_id":"supplychain-1","stop_instance_id":"stop-7331","description":"","address":"Congo","title":"congo"}},{"type":"Feature","geometry":{"type":"Point","coordinates":[18.490409997426,-22.957639996975]},"properties":{"supplychain_instance_id":"supplychain-1","stop_instance_id":"stop-6475","description":"","address":"Namibia","title":"namibia"}},{"type":"Feature","geometry":{"type":"Point","coordinates":[22.937505996807,-30.55948199615]},"properties":{"supplychain_instance_id":"supplychain-1","stop_instance_id":"stop-6362","description":"","address":"South Africa","title":"South Africa"}},{"type":"Feature","geometry":{"type":"Point","coordinates":[28.23360799607,-29.609987996245]},"properties":{"supplychain_instance_id":"supplychain-1","stop_instance_id":"stop-6251","description":"","address":"Lesotho","title":"lestho"}},{"type":"Feature","geometry":{"type":"Point","coordinates":[31.46586599562,-26.522502996572]},"properties":{"supplychain_instance_id":"supplychain-1","stop_instance_id":"stop-6142","description":"","address":"Swaziland","title":"swaziland"}},{"type":"Feature","geometry":{"type":"Point","coordinates":[24.684865996564,-22.328473997049]},"properties":{"youtube:link":"","water":"0","energy":"0","co2e":"0","weight":"0","supplychain_instance_id":"supplychain-1","stop_instance_id":"stop-5982","description":"","address":"Botswana","title":"Botswana"}},{"type":"Feature","geometry":{"type":"Point","coordinates":[27.849331996124,-13.133896998204]},"properties":{"supplychain_instance_id":"supplychain-1","stop_instance_id":"stop-5721","description":"","address":"Zambia","title":"zambia"}},{"type":"Feature","geometry":{"type":"Point","coordinates":[46.869106993476,-18.766946997481]},"properties":{"supplychain_instance_id":"supplychain-1","stop_instance_id":"stop-5210","description":"","address":"Madagascar","title":"madagascar"}},{"type":"Feature","geometry":{"type":"Point","coordinates":[29.154856995941,-19.015437997451]},"properties":{"supplychain_instance_id":"supplychain-1","stop_instance_id":"stop-5109","description":"","address":"Zimbabwe","title":"zimbabwe"}},{"type":"Feature","geometry":{"type":"Point","coordinates":[35.529561995054,-18.665694997494]},"properties":{"supplychain_instance_id":"supplychain-1","stop_instance_id":"stop-5010","description":"","address":"Mozambique","title":"mozambieque"}},{"type":"Feature","geometry":{"type":"Point","coordinates":[34.301524995225,-13.254307998188]},"properties":{"supplychain_instance_id":"supplychain-1","stop_instance_id":"stop-4913","description":"","address":"Malawi","title":"malwai"}},{"type":"Feature","geometry":{"type":"Point","coordinates":[34.888821995143,-6.3690279991171]},"properties":{"supplychain_instance_id":"supplychain-1","stop_instance_id":"stop-4489","description":"","address":"Tanzania","title":"tazania"}},{"type":"Feature","geometry":{"type":"Point","coordinates":[29.918885995835,-3.373055999531]},"properties":{"youtube:link":"","water":"0","energy":"0","co2e":"0","weight":"0","supplychain_instance_id":"supplychain-1","stop_instance_id":"stop-4350","description":"","address":"Burundi","title":"burundi"}},{"type":"Feature","geometry":{"type":"Point","coordinates":[29.873887995842,-1.94027799973]},"properties":{"supplychain_instance_id":"supplychain-1","stop_instance_id":"stop-4259","description":"","address":"Rwanda","title":"rwanda"}},{"type":"Feature","geometry":{"type":"Point","coordinates":[32.290274995505,1.3733329998089]},"properties":{"supplychain_instance_id":"supplychain-1","stop_instance_id":"stop-3774","description":"","address":"Uganda","title":"uganda"}},{"type":"Feature","geometry":{"type":"Point","coordinates":[37.906192994724,-0.023558999996731]},"properties":{"supplychain_instance_id":"supplychain-1","stop_instance_id":"stop-3687","description":"","address":"Kenya","title":"kenya"}},{"type":"Feature","geometry":{"type":"Point","coordinates":[40.489672994363,9.1449999987374]},"properties":{"supplychain_instance_id":"supplychain-1","stop_instance_id":"stop-3602","description":"","address":"Ethiopia","title":"eithopia"}},{"type":"Feature","geometry":{"type":"Point","coordinates":[30.217635995793,12.86280699824]},"properties":{"supplychain_instance_id":"supplychain-1","stop_instance_id":"stop-3519","description":"","address":"Sudan","title":"sudan"}},{"type":"Feature","geometry":{"type":"Point","coordinates":[25.748150996416,61.924109994797]},"properties":{"supplychain_instance_id":"supplychain-1","stop_instance_id":"stop-3075","description":"","address":"Finland","title":"Finland"}},{"type":"Feature","geometry":{"type":"Point","coordinates":[8.4689459988211,60.472023994758]},"properties":{"supplychain_instance_id":"supplychain-1","stop_instance_id":"stop-2996","description":"","address":"Norway","title":"Norway"}},{"type":"Feature","geometry":{"type":"Point","coordinates":[25.013606996518,58.595271994726]},"properties":{"supplychain_instance_id":"supplychain-1","stop_instance_id":"stop-2843","description":"","address":"Estonia","title":"Estonia"}},{"type":"Feature","geometry":{"type":"Point","coordinates":[24.603188996575,56.879634994715]},"properties":{"supplychain_instance_id":"supplychain-1","stop_instance_id":"stop-2361","description":"","address":"Latvia","title":"Latvia"}},{"type":"Feature","geometry":{"type":"Point","coordinates":[23.881274996676,55.169437994719]},"properties":{"supplychain_instance_id":"supplychain-1","stop_instance_id":"stop-2288","description":"","address":"Lithuania","title":"Lithuania"}},{"type":"Feature","geometry":{"type":"Point","coordinates":[27.953388996109,53.709806994734]},"properties":{"supplychain_instance_id":"supplychain-1","stop_instance_id":"stop-2217","description":"","address":"Belarus","title":"Belarus"}},{"type":"Feature","geometry":{"type":"Point","coordinates":[31.165579995662,48.379432994875]},"properties":{"supplychain_instance_id":"supplychain-1","stop_instance_id":"stop-2148","description":"","address":"Ukraine","title":"Ukraine"}},{"type":"Feature","geometry":{"type":"Point","coordinates":[28.369884996051,47.411630994914]},"properties":{"supplychain_instance_id":"supplychain-1","stop_instance_id":"stop-2081","description":"","address":"Moldova","title":"Moldova"}},{"type":"Feature","geometry":{"type":"Point","coordinates":[24.966759996525,45.943160994982]},"properties":{"youtube:link":"","water":"0","energy":"0","co2e":"0","weight":"0","supplychain_instance_id":"supplychain-1","stop_instance_id":"stop-1856","description":"","address":"Romania","title":"Romania"}},{"type":"Feature","geometry":{"type":"Point","coordinates":[25.485829996452,42.733882995158]},"properties":{"supplychain_instance_id":"supplychain-1","stop_instance_id":"stop-1793","description":"","address":"Bulgaria","title":"Bulgaria"}},{"type":"Feature","geometry":{"type":"Point","coordinates":[21.824311996962,39.074207995406]},"properties":{"supplychain_instance_id":"supplychain-1","stop_instance_id":"stop-1732","description":"","address":"Greece","title":"Greece"}},{"type":"Feature","geometry":{"type":"Point","coordinates":[21.005858997076,44.016520995083]},"properties":{"supplychain_instance_id":"supplychain-1","stop_instance_id":"stop-1673","description":"","address":"Serbia","title":"Serbia"}},{"type":"Feature","geometry":{"type":"Point","coordinates":[19.503303997285,47.162493994925]},"properties":{"supplychain_instance_id":"supplychain-1","stop_instance_id":"stop-1448","description":"","address":"Hungary","title":"Hungary"}},{"type":"Feature","geometry":{"type":"Point","coordinates":[19.699023997258,48.669025994865]},"properties":{"supplychain_instance_id":"supplychain-1","stop_instance_id":"stop-1393","description":"","address":"Slovakia","title":"Slovakia"}},{"type":"Feature","geometry":{"type":"Point","coordinates":[15.989125597774,45.753342694991]},"properties":{"supplychain_instance_id":"supplychain-1","stop_instance_id":"stop-1340","description":"","address":"Croatia","title":"Croatia"}},{"type":"Feature","geometry":{"type":"Point","coordinates":[14.550071997975,47.51623099491]},"properties":{"supplychain_instance_id":"supplychain-1","stop_instance_id":"stop-1064","description":"","address":"Austria","title":"Austria"}},{"type":"Feature","geometry":{"type":"Point","coordinates":[15.472961997846,49.817491994824]},"properties":{"supplychain_instance_id":"supplychain-1","stop_instance_id":"stop-1015","description":"","address":"Czech Republic","title":"Czech Republic"}},{"type":"Feature","geometry":{"type":"Point","coordinates":[9.5017849986771,56.263919994714]},"properties":{"supplychain_instance_id":"supplychain-1","stop_instance_id":"stop-968","description":"","address":"Denmark","title":"Denmark"}},{"type":"Feature","geometry":{"type":"Point","coordinates":[4.4699359993778,50.503886994803]},"properties":{"supplychain_instance_id":"supplychain-1","stop_instance_id":"stop-769","description":"","address":"Belgium","title":"Belgium"}},{"type":"Feature","geometry":{"type":"Point","coordinates":[5.2912659992635,52.132632994762]},"properties":{"supplychain_instance_id":"supplychain-1","stop_instance_id":"stop-726","description":"","address":"The Netherlands","title":"Netherlands"}},{"type":"Feature","geometry":{"type":"Point","coordinates":[19.145135997335,51.919437994767]},"properties":{"supplychain_instance_id":"supplychain-1","stop_instance_id":"stop-685","description":"","address":"Poland","title":"Poland"}},{"type":"Feature","geometry":{"type":"Point","coordinates":[-8.2244539988552,39.399871995382]},"properties":{"supplychain_instance_id":"supplychain-1","stop_instance_id":"stop-551","description":"","address":"Portugal","title":"portugal"}},{"type":"Feature","geometry":{"type":"Point","coordinates":[-3.7492199994781,40.463666995306]},"properties":{"supplychain_instance_id":"supplychain-1","stop_instance_id":"stop-514","description":"","address":"Spain","title":"Spain"}},{"type":"Feature","geometry":{"type":"Point","coordinates":[-170.69620017624,-14.30594099805]},"properties":{"supplychain_instance_id":"supplychain-1","stop_instance_id":"stop-391","description":"","address":"American Samoa","title":"american samoa"}},{"type":"Feature","geometry":{"type":"Point","coordinates":[20.168330997193,41.153331995259]},"properties":{"supplychain_instance_id":"supplychain-1","stop_instance_id":"stop-262","description":"","address":"Albania","title":"Albania"}},{"type":"Feature","geometry":{"type":"Point","coordinates":[12.56737999825,41.871939995212]},"properties":{"supplychain_instance_id":"supplychain-1","stop_instance_id":"stop-231","description":"","address":"Italy","title":"Italy"}},{"type":"Feature","geometry":{"type":"Point","coordinates":[2.2137489996918,46.227637994968]},"properties":{"supplychain_instance_id":"supplychain-1","stop_instance_id":"stop-202","description":"","address":"France","title":"France"}},{"type":"Feature","geometry":{"type":"Point","coordinates":[-3.4359729995217,55.378050994717]},"properties":{"supplychain_instance_id":"supplychain-1","stop_instance_id":"stop-149","description":"","address":"United Kingdom","title":"United Kingdoms"}},{"type":"Feature","geometry":{"type":"Point","coordinates":[10.451525998545,51.165690994785]},"properties":{"supplychain_instance_id":"supplychain-1","stop_instance_id":"stop-100","description":"","address":"Germany","title":"germany"}},{"type":"Feature","geometry":{"type":"Point","coordinates":[-73.949999989706,40.649999995294]},"properties":{"youtube:link":"","water":"0","energy":"0","co2e":"0","weight":"0","title":"The bibles of NWTOTHS","address":"Brooklyn, NY, USA","description":"","stop_instance_id":"stop-1","supplychain_instance_id":"supplychain-1"}},{"type":"Feature","geometry":{"type":"Point","coordinates":[138.25292398076,36.204823995632]},"properties":{"title":" Japan","address":"Japan","description":"","stop_instance_id":"stop-14","supplychain_instance_id":"supplychain-1","weight":"0","co2e":"0","energy":"0","water":"0","youtube:link":""}},{"type":"Feature","geometry":{"type":"Point","coordinates":[-106.3467709852,56.130365994714]},"properties":{"title":"canada","address":"Canada","description":"","stop_instance_id":"stop-38","supplychain_instance_id":"supplychain-1","weight":"0","co2e":"0","energy":"0","water":"0","youtube:link":""}},{"type":"Feature","geometry":{"type":"Point","coordinates":[-95.712890986677,37.090239995559]},"properties":{"title":" U.S","address":"United States","description":"","stop_instance_id":"stop-54","supplychain_instance_id":"supplychain-1","weight":"0","co2e":"0","energy":"0","water":"0","youtube:link":""}},{"type":"Feature","geometry":{"type":"Point","coordinates":[-102.55278398572,23.634500996897]},"properties":{"youtube:link":"","water":"0","energy":"0","co2e":"0","weight":"0","title":" Mexico","address":"Mexico","description":"","stop_instance_id":"stop-87","supplychain_instance_id":"supplychain-1"}},{"type":"Feature","geometry":{"type":"Point","coordinates":[-75.015151989558,-9.1899669987314]},"properties":{"youtube:link":"","water":"0","energy":"0","co2e":"0","weight":"0","title":"Peru","address":"Peru","description":"","stop_instance_id":"stop-108","supplychain_instance_id":"supplychain-1"}},{"type":"Feature","geometry":{"type":"Point","coordinates":[-51.925279992772,-14.235003998059]},"properties":{"youtube:link":"","water":"0","energy":"0","co2e":"0","weight":"0","title":"Brazil","address":"Brazil","description":"","stop_instance_id":"stop-133","supplychain_instance_id":"supplychain-1"}},{"type":"Feature","geometry":{"type":"Point","coordinates":[-63.616671991144,-38.416096995455]},"properties":{"youtube:link":"","water":"0","energy":"0","co2e":"0","weight":"0","title":"Argentina","address":"Argentina","description":"","stop_instance_id":"stop-162","supplychain_instance_id":"supplychain-1"}},{"type":"Feature","geometry":{"type":"Point","coordinates":[-149.49367327919,64.200841294884]},"properties":{"youtube:link":"","water":"0","energy":"0","co2e":"0","weight":"0","title":"alaska","address":"Alaska, USA","description":"","stop_instance_id":"stop-195","supplychain_instance_id":"supplychain-1"}},{"type":"Feature","geometry":{"type":"Point","coordinates":[-42.60430299407,71.706935995428]},"properties":{"title":"greenland","address":"Greenland","description":"","stop_instance_id":"stop-232","supplychain_instance_id":"supplychain-1","weight":"0","co2e":"0","energy":"0","water":"0","youtube:link":""}},{"type":"Feature","geometry":{"type":"Point","coordinates":[-19.020834997352,64.96305099492]},"properties":{"youtube:link":"","water":"0","energy":"0","co2e":"0","weight":"0","title":" iceland","address":"Iceland","description":"","stop_instance_id":"stop-283","supplychain_instance_id":"supplychain-1"}},{"type":"Feature","geometry":{"type":"LineString","coordinates":[[-73.949999989706,40.649999995294],[138.25292398076,36.204823995632]]},"properties":{"co2e":"0","title":"The bibles are made to N","distance":"10858.954690"}},{"type":"Feature","geometry":{"type":"LineString","coordinates":[[-73.949999989706,40.649999995294],[-106.3467709852,56.130365994714]]},"properties":{"distance":"2903.860103","title":"The bibles are made to LL","co2e":"0"}},{"type":"Feature","geometry":{"type":"LineString","coordinates":[[-73.949999989706,40.649999995294],[-95.712890986677,37.090239995559]]},"properties":{"weight":"0","youtube:link":"","description":"","co2e":"0","distance":"1919.933884","title":"The bibles are made to everywhere in the U.S","transportcat":"Method of Transportation"}},{"type":"Feature","geometry":{"type":"LineString","coordinates":[[-73.949999989706,40.649999995294],[-102.55278398572,23.634500996897]]},"properties":{"distance":"3266.716304","title":"The bibles are made to The bibles are everywhere in Mexico","co2e":"0"}},{"type":"Feature","geometry":{"type":"LineString","coordinates":[[-73.949999989706,40.649999995294],[-75.015151989558,-9.1899669987314]]},"properties":{"title":"The bibles are made to DDDDD","co2e":"0","distance":"5543.030272"}},{"type":"Feature","geometry":{"type":"LineString","coordinates":[[-73.949999989706,40.649999995294],[-51.925279992772,-14.235003998059]]},"properties":{"co2e":"0","title":"The bibles are made to CCCCCC","distance":"6511.981718"}},{"type":"Feature","geometry":{"type":"LineString","coordinates":[[-73.949999989706,40.649999995294],[-63.616671991144,-38.416096995455]]},"properties":{"distance":"8854.252967","title":"The bibles are made to FFFFFFF","co2e":"0"}},{"type":"Feature","geometry":{"type":"LineString","coordinates":[[-73.949999989706,40.649999995294],[-149.49367327919,64.200841294884]]},"properties":{"distance":"5339.017857","title":"The bibles are made to MMMMMMMM","co2e":"0"}},{"type":"Feature","geometry":{"type":"LineString","coordinates":[[-73.949999989706,40.649999995294],[-42.60430299407,71.706935995428]]},"properties":{"distance":"3861.225758","title":"The bibles are made to the bibles are made everywhere in greenland","co2e":"0"}},{"type":"Feature","geometry":{"type":"LineString","coordinates":[[-73.949999989706,40.649999995294],[-19.020834997352,64.96305099492]]},"properties":{"co2e":"0","title":"The bibles are made to the bibles are made everywhere in iceland","distance":"4361.141117"}},{"type":"Feature","geometry":{"type":"LineString","coordinates":[[-73.949999989706,40.649999995294],[10.451525998545,51.165690994785]]},"properties":{"title":"The bibles are made to germany","co2e":"0","distance":"6267.823977"}},{"type":"Feature","geometry":{"type":"LineString","coordinates":[[-73.949999989706,40.649999995294],[-3.4359729995217,55.378050994717]]},"properties":{"co2e":"0","distance":"5244.659588","title":"The bibles are made to United Kingdoms"}},{"type":"Feature","geometry":{"type":"LineString","coordinates":[[-73.949999989706,40.649999995294],[2.2137489996918,46.227637994968]]},"properties":{"title":"The bibles are made to France","distance":"5940.234153","co2e":"0"}},{"type":"Feature","geometry":{"type":"LineString","coordinates":[[-73.949999989706,40.649999995294],[12.56737999825,41.871939995212]]},"properties":{"distance":"6896.535864","title":"The bibles are made to Italy","co2e":"0"}},{"type":"Feature","geometry":{"type":"LineString","coordinates":[[-73.949999989706,40.649999995294],[20.168330997193,41.153331995259]]},"properties":{"title":"The bibles are made to Albania","co2e":"0","distance":"7471.241322"}},{"type":"Feature","geometry":{"type":"LineString","coordinates":[[-73.949999989706,40.649999995294],[-170.69620017624,-14.30594099805]]},"properties":{"distance":"11599.819412","co2e":"0","title":"The bibles are made to american samoa"}},{"type":"Feature","geometry":{"type":"LineString","coordinates":[[-73.949999989706,40.649999995294],[-8.2244539988552,39.399871995382]]},"properties":{"distance":"5461.629227","title":"The bibles are made to portugal","co2e":"0"}},{"type":"Feature","geometry":{"type":"LineString","coordinates":[[-73.949999989706,40.649999995294],[-3.7492199994781,40.463666995306]]},"properties":{"co2e":"0","title":"The bibles are made to Spain","distance":"5760.906515"}},{"type":"Feature","geometry":{"type":"LineString","coordinates":[[-73.949999989706,40.649999995294],[4.4699359993778,50.503886994803]]},"properties":{"title":"The bibles are made to Belgium","distance":"5911.307455","co2e":"0"}},{"type":"Feature","geometry":{"type":"LineString","coordinates":[[-73.949999989706,40.649999995294],[19.145135997335,51.919437994767]]},"properties":{"title":"The bibles are made to Poland","distance":"6763.215149","co2e":"0"}},{"type":"Feature","geometry":{"type":"LineString","coordinates":[[-73.949999989706,40.649999995294],[14.550071997975,47.51623099491]]},"properties":{"co2e":"0","title":"The bibles of NWTOTHS to Austria","distance":"6717.016255"}},{"type":"Feature","geometry":{"type":"LineString","coordinates":[[-73.949999989706,40.649999995294],[15.472961997846,49.817491994824]]},"properties":{"co2e":"0","distance":"6652.381450","title":"The bibles of NWTOTHS to Czech Republic"}},{"type":"Feature","geometry":{"type":"LineString","coordinates":[[-73.949999989706,40.649999995294],[9.5017849986771,56.263919994714]]},"properties":{"co2e":"0","title":"The bibles of NWTOTHS to Denmark","distance":"5988.731070"}},{"type":"Feature","geometry":{"type":"LineString","coordinates":[[-73.949999989706,40.649999995294],[5.2912659992635,52.132632994762]]},"properties":{"title":"The bibles of NWTOTHS to Netherlands","distance":"5898.207292","co2e":"0"}},{"type":"Feature","geometry":{"type":"LineString","coordinates":[[-73.949999989706,40.649999995294],[15.989125597774,45.753342694991]]},"properties":{"distance":"6910.362356","co2e":"0","title":"The bibles of NWTOTHS to Croatia"}},{"type":"Feature","geometry":{"type":"LineString","coordinates":[[-73.949999989706,40.649999995294],[19.699023997258,48.669025994865]]},"properties":{"distance":"6981.743134","co2e":"0","title":"The bibles of NWTOTHS to Slovakia"}},{"type":"Feature","geometry":{"type":"LineString","coordinates":[[-73.949999989706,40.649999995294],[19.503303997285,47.162493994925]]},"properties":{"distance":"7057.901434","title":"The bibles of NWTOTHS to Hungary","co2e":"0"}},{"type":"Feature","geometry":{"type":"LineString","coordinates":[[-73.949999989706,40.649999995294],[24.966759996525,45.943160994982]]},"properties":{"title":"The bibles of NWTOTHS to Romania","distance":"7480.142123","co2e":"0"}},{"type":"Feature","geometry":{"type":"LineString","coordinates":[[-73.949999989706,40.649999995294],[25.485829996452,42.733882995158]]},"properties":{"distance":"7724.700882","co2e":"0","title":"The bibles of NWTOTHS to Bulgaria"}},{"type":"Feature","geometry":{"type":"LineString","coordinates":[[-73.949999989706,40.649999995294],[27.953388996109,53.709806994734]]},"properties":{"title":"The bibles of NWTOTHS to Belarus","distance":"7158.354275","co2e":"0"}},{"type":"Feature","geometry":{"type":"LineString","coordinates":[[-73.949999989706,40.649999995294],[23.881274996676,55.169437994719]]},"properties":{"title":"The bibles of NWTOTHS to Lithuania","distance":"6849.176895","co2e":"0"}},{"type":"Feature","geometry":{"type":"LineString","coordinates":[[-73.949999989706,40.649999995294],[24.603188996575,56.879634994715]]},"properties":{"distance":"6789.235171","title":"The bibles of NWTOTHS to Latvia","co2e":"0"}},{"type":"Feature","geometry":{"type":"LineString","coordinates":[[-73.949999989706,40.649999995294],[28.369884996051,47.411630994914]]},"properties":{"title":"The bibles of NWTOTHS to Moldova","co2e":"0","distance":"7592.473660"}},{"type":"Feature","geometry":{"type":"LineString","coordinates":[[-73.949999989706,40.649999995294],[31.165579995662,48.379432994875]]},"properties":{"distance":"7691.462670","co2e":"0","title":"The bibles of NWTOTHS to Ukraine"}},{"type":"Feature","geometry":{"type":"LineString","coordinates":[[-73.949999989706,40.649999995294],[25.013606996518,58.595271994726]]},"properties":{"distance":"6712.752988","co2e":"0","title":"The bibles of NWTOTHS to Estonia"}},{"type":"Feature","geometry":{"type":"LineString","coordinates":[[-73.949999989706,40.649999995294],[25.748150996416,61.924109994797]]},"properties":{"title":"The bibles of NWTOTHS to Finland","distance":"6563.559222","co2e":"0"}},{"type":"Feature","geometry":{"type":"LineString","coordinates":[[-73.949999989706,40.649999995294],[8.4689459988211,60.472023994758]]},"properties":{"co2e":"0","title":"The bibles of NWTOTHS to Norway","distance":"5778.134436"}},{"type":"Feature","geometry":{"type":"LineString","coordinates":[[-73.949999989706,40.649999995294],[37.906192994724,-0.023558999996743]]},"properties":{"distance":"11833.631197","co2e":"0","title":"The bibles of NWTOTHS to kenya"}},{"type":"Feature","geometry":{"type":"LineString","coordinates":[[-73.949999989706,40.649999995294],[32.290274995505,1.3733329998089]]},"properties":{"co2e":"0","distance":"11267.707359","title":"The bibles of NWTOTHS to uganda"}},{"type":"Feature","geometry":{"type":"LineString","coordinates":[[-73.949999989706,40.649999995294],[30.217635995793,12.86280699824]]},"properties":{"title":"The bibles of NWTOTHS to sudan","distance":"10237.069801","co2e":"0"}},{"type":"Feature","geometry":{"type":"LineString","coordinates":[[-73.949999989706,40.649999995294],[40.489672994363,9.1449999987374]]},"properties":{"distance":"11331.887789","title":"The bibles of NWTOTHS to eithopia","co2e":"0"}},{"type":"Feature","geometry":{"type":"LineString","coordinates":[[-73.949999989706,40.649999995294],[29.918885995835,-3.373055999531]]},"properties":{"distance":"11419.908769","title":"The bibles of NWTOTHS to burundi","co2e":"0"}},{"type":"Feature","geometry":{"type":"LineString","coordinates":[[-73.949999989706,40.649999995294],[34.888821995143,-6.3690279991171]]},"properties":{"title":"The bibles of NWTOTHS to tazania","co2e":"0","distance":"12054.164194"}},{"type":"Feature","geometry":{"type":"LineString","coordinates":[[-73.949999989706,40.649999995294],[29.873887995842,-1.94027799973]]},"properties":{"distance":"11311.440292","title":"The bibles of NWTOTHS to rwanda","co2e":"0"}},{"type":"Feature","geometry":{"type":"LineString","coordinates":[[-73.949999989706,40.649999995294],[29.154856995941,-19.015437997451]]},"properties":{"co2e":"0","title":"The bibles of NWTOTHS to zimbabwe","distance":"12455.775540"}},{"type":"Feature","geometry":{"type":"LineString","coordinates":[[-73.949999989706,40.649999995294],[35.529561995054,-18.665694997494]]},"properties":{"distance":"12968.378913","co2e":"0","title":"The bibles of NWTOTHS to mozambieque"}},{"type":"Feature","geometry":{"type":"LineString","coordinates":[[-73.949999989706,40.649999995294],[46.869106993476,-18.766946997481]]},"properties":{"title":"The bibles of NWTOTHS to madagascar","distance":"13930.870683","co2e":"0"}},{"type":"Feature","geometry":{"type":"LineString","coordinates":[[-73.949999989706,40.649999995294],[34.301524995225,-13.254307998188]]},"properties":{"co2e":"0","distance":"12495.379281","title":"The bibles of NWTOTHS to malwai"}},{"type":"Feature","geometry":{"type":"LineString","coordinates":[[-73.949999989706,40.649999995294],[27.849331996124,-13.133896998204]]},"properties":{"title":"The bibles of NWTOTHS to zambia","distance":"11942.791477","co2e":"0"}},{"type":"Feature","geometry":{"type":"LineString","coordinates":[[-73.949999989706,40.649999995294],[18.490409997426,-22.957639996975]]},"properties":{"title":"The bibles of NWTOTHS to namibia","co2e":"0","distance":"11841.095427"}},{"type":"Feature","geometry":{"type":"LineString","coordinates":[[-73.949999989706,40.649999995294],[24.684865996564,-22.328473997049]]},"properties":{"title":"The bibles of NWTOTHS to Botswana","co2e":"0","distance":"12305.089436"}},{"type":"Feature","geometry":{"type":"LineString","coordinates":[[-73.949999989706,40.649999995294],[31.46586599562,-26.522502996572]]},"properties":{"co2e":"0","title":"The bibles of NWTOTHS to swaziland","distance":"13134.593676"}},{"type":"Feature","geometry":{"type":"LineString","coordinates":[[-73.949999989706,40.649999995294],[28.23360799607,-29.609987996245]]},"properties":{"title":"The bibles of NWTOTHS to lestho","distance":"13060.608210","co2e":"0"}},{"type":"Feature","geometry":{"type":"LineString","coordinates":[[-73.949999989706,40.649999995294],[22.937505996807,-30.55948199615]]},"properties":{"title":"The bibles of NWTOTHS to South Africa","distance":"12695.911285","co2e":"0"}},{"type":"Feature","geometry":{"type":"LineString","coordinates":[[-73.949999989706,40.649999995294],[21.758663996971,-4.0383329994388]]},"properties":{"distance":"10781.339944","title":"The bibles of NWTOTHS to dr congo","co2e":"0"}},{"type":"Feature","geometry":{"type":"LineString","coordinates":[[-73.949999989706,40.649999995294],[15.827658997797,-0.22802099996827]]},"properties":{"distance":"10005.303017","title":"The bibles of NWTOTHS to congo","co2e":"0"}},{"type":"Feature","geometry":{"type":"LineString","coordinates":[[-73.949999989706,40.649999995294],[17.873886997512,-11.20269199846]]},"properties":{"title":"The bibles of NWTOTHS to angola","co2e":"0","distance":"10968.417557"}},{"type":"Feature","geometry":{"type":"LineString","coordinates":[[-73.949999989706,40.649999995294],[11.609443998384,-0.80368899988814]]},"properties":{"co2e":"0","title":"The bibles of NWTOTHS to gabon","distance":"9691.417108"}},{"type":"Feature","geometry":{"type":"LineString","coordinates":[[-73.949999989706,40.649999995294],[10.267894998571,1.6508009997702]]},"properties":{"distance":"9400.291260","co2e":"0","title":"The bibles of NWTOTHS to equatorial guinea"}},{"type":"Feature","geometry":{"type":"LineString","coordinates":[[-73.949999989706,40.649999995294],[32.62067229546,0.34861349995147]]},"properties":{"distance":"11371.214456","co2e":"0","title":"The bibles of NWTOTHS to central africa republic"}},{"type":"Feature","geometry":{"type":"LineString","coordinates":[[-73.949999989706,40.649999995294],[12.35472199828,7.3697219989796]]},"properties":{"title":"The bibles of NWTOTHS to cameroon","distance":"9163.754550","co2e":"0"}},{"type":"Feature","geometry":{"type":"LineString","coordinates":[[-73.949999989706,40.649999995294],[-1.0231939998576,7.946526998901]]},"properties":{"co2e":"0","title":"The bibles of NWTOTHS to ghana","distance":"7994.948841"}},{"type":"Feature","geometry":{"type":"LineString","coordinates":[[-73.949999989706,40.649999995294],[8.6752769987924,9.0819989987467]]},"properties":{"distance":"8731.241537","title":"The bibles of NWTOTHS to nigeria","co2e":"0"}},{"type":"Feature","geometry":{"type":"LineString","coordinates":[[-73.949999989706,40.649999995294],[2.3158339996776,9.3076899987157]]},"properties":{"title":"The bibles of NWTOTHS to benin","distance":"8178.784180","co2e":"0"}},{"type":"Feature","geometry":{"type":"LineString","coordinates":[[-73.949999989706,40.649999995294],[8.081665998875,17.607788997627]]},"properties":{"distance":"8084.320800","co2e":"0","title":"The bibles of NWTOTHS to niger"}},{"type":"Feature","geometry":{"type":"LineString","coordinates":[[-73.949999989706,40.649999995294],[18.732206997392,15.454165997901]]},"properties":{"co2e":"0","title":"The bibles of NWTOTHS to chad","distance":"9116.743768"}},{"type":"Feature","geometry":{"type":"LineString","coordinates":[[-73.949999989706,40.649999995294],[0.82478199988519,8.6195429988092]]},"properties":{"title":"The bibles of NWTOTHS to togo","co2e":"0","distance":"8102.192260"}},{"type":"Feature","geometry":{"type":"LineString","coordinates":[[-73.949999989706,40.649999995294],[-1.5615929997826,12.238332998323]]},"properties":{"title":"The bibles of NWTOTHS to burkina faso","co2e":"0","distance":"7644.711952"}},{"type":"Feature","geometry":{"type":"LineString","coordinates":[[-73.949999989706,40.649999995294],[-3.9961659994437,17.570691997631]]},"properties":{"co2e":"0","distance":"7072.319114","title":"The bibles of NWTOTHS to mali"}},{"type":"Feature","geometry":{"type":"LineString","coordinates":[[-73.949999989706,40.649999995294],[-5.5470799992279,7.5399889989565]]},"properties":{"distance":"7645.410555","title":"The bibles of NWTOTHS to cote divoire","co2e":"0"}},{"type":"Feature","geometry":{"type":"LineString","coordinates":[[-73.949999989706,40.649999995294],[-9.6966449986504,9.9455869986294]]},"properties":{"distance":"7125.244349","title":"The bibles of NWTOTHS to guinea","co2e":"0"}},{"type":"Feature","geometry":{"type":"LineString","coordinates":[[-73.949999989706,40.649999995294],[-9.4294989986877,6.428054999109]]},"properties":{"co2e":"0","title":"The bibles of NWTOTHS to liberia","distance":"7404.768653"}},{"type":"Feature","geometry":{"type":"LineString","coordinates":[[-73.949999989706,40.649999995294],[-15.180412997887,11.803748998381]]},"properties":{"title":"The bibles of NWTOTHS to guinea bissau","co2e":"0","distance":"6536.132917"}},{"type":"Feature","geometry":{"type":"LineString","coordinates":[[-73.949999989706,40.649999995294],[-15.310138997869,13.443181998163]]},"properties":{"title":"The bibles of NWTOTHS to gambia","distance":"6407.524624","co2e":"0"}},{"type":"Feature","geometry":{"type":"LineString","coordinates":[[-73.949999989706,40.649999995294],[-11.77988899836,8.4605549988308]]},"properties":{"distance":"7060.938306","title":"The bibles of NWTOTHS to sierra leone","co2e":"0"}},{"type":"Feature","geometry":{"type":"LineString","coordinates":[[-73.949999989706,40.649999995294],[-14.452361997988,14.497400998025]]},"properties":{"title":"The bibles of NWTOTHS to senegal","co2e":"0","distance":"6404.169280"}},{"type":"Feature","geometry":{"type":"LineString","coordinates":[[-73.949999989706,40.649999995294],[35.862284995008,33.854720995837]]},"properties":{"title":"The bibles of NWTOTHS to lebanon","distance":"9052.439263","co2e":"0"}},{"type":"Feature","geometry":{"type":"LineString","coordinates":[[-73.949999989706,40.649999995294],[35.243321995095,38.963744995414]]},"properties":{"title":"The bibles of NWTOTHS to turkey","co2e":"0","distance":"8622.432004"}},{"type":"Feature","geometry":{"type":"LineString","coordinates":[[-73.949999989706,40.649999995294],[34.851611995149,31.046050996101]]},"properties":{"co2e":"0","title":"The bibles of NWTOTHS to israel","distance":"9199.662152"}},{"type":"Feature","geometry":{"type":"LineString","coordinates":[[-73.949999989706,40.649999995294],[43.356891993965,42.315406995184]]},"properties":{"distance":"8846.825232","title":"The bibles of NWTOTHS to georgia","co2e":"0"}},{"type":"Feature","geometry":{"type":"LineString","coordinates":[[-73.949999989706,40.649999995294],[21.005858997076,44.016520995083]]},"properties":{"co2e":"0","title":"The bibles of NWTOTHS to Serbia","distance":"7347.302955"}},{"type":"Feature","geometry":{"type":"LineString","coordinates":[[-73.949999989706,40.649999995294],[21.824311996962,39.074207995406]]},"properties":{"distance":"7720.220679","title":"The bibles of NWTOTHS to Greece","co2e":"0"}},{"type":"Feature","geometry":{"type":"LineString","coordinates":[[-73.949999989706,40.649999995294],[47.576926993377,40.143104995329]]},"properties":{"distance":"9262.291079","title":"The bibles of NWTOTHS to azerbaijan","co2e":"0"}},{"type":"Feature","geometry":{"type":"LineString","coordinates":[[-73.949999989706,40.649999995294],[74.766097989592,41.204379995256]]},"properties":{"distance":"10381.702761","title":"The bibles of NWTOTHS to kyrgyzstan","co2e":"0"}},{"type":"Feature","geometry":{"type":"LineString","coordinates":[[-73.949999989706,40.649999995294],[66.923683990684,48.01957299489]]},"properties":{"distance":"9429.662916","title":"The bibles of NWTOTHS to kazakhstan","co2e":"0"}},{"type":"Feature","geometry":{"type":"LineString","coordinates":[[-73.949999989706,40.649999995294],[90.356330987419,23.684993996891]]},"properties":{"distance":"12679.507901","title":"The bibles of NWTOTHS to bangladesh","co2e":"0"}},{"type":"Feature","geometry":{"type":"LineString","coordinates":[[-73.949999989706,40.649999995294],[84.12400798829,28.394856996371]]},"properties":{"co2e":"0","distance":"12011.350568","title":"The bibles of NWTOTHS to nepal"}},{"type":"Feature","geometry":{"type":"LineString","coordinates":[[-73.949999989706,40.649999995294],[69.345115990347,30.375320996168]]},"properties":{"title":"The bibles of NWTOTHS to pakistan","co2e":"0","distance":"11260.288535"}},{"type":"Feature","geometry":{"type":"LineString","coordinates":[[-73.949999989706,40.649999995294],[78.962879989009,20.593683997257]]},"properties":{"distance":"12651.473986","co2e":"0","title":"The bibles of NWTOTHS to india"}},{"type":"Feature","geometry":{"type":"LineString","coordinates":[[-73.949999989706,40.649999995294],[80.771796988756,7.873053998911]]},"properties":{"co2e":"0","title":"The bibles of NWTOTHS to sri lanka","distance":"14030.811980"}},{"type":"Feature","geometry":{"type":"LineString","coordinates":[[-73.949999989706,40.649999995294],[95.956222986644,21.913964997098]]},"properties":{"co2e":"0","title":"The bibles of NWTOTHS to myanmar","distance":"12980.331724"}},{"type":"Feature","geometry":{"type":"LineString","coordinates":[[-73.949999989706,40.649999995294],[100.99254098594,15.870031997848]]},"properties":{"distance":"13708.668181","title":"The bibles of NWTOTHS to thailand","co2e":"0"}},{"type":"Feature","geometry":{"type":"LineString","coordinates":[[-73.949999989706,40.649999995294],[104.99096298539,12.565678998279]]},"properties":{"co2e":"0","distance":"14096.767075","title":"The bibles of NWTOTHS to cambodia"}},{"type":"Feature","geometry":{"type":"LineString","coordinates":[[-73.949999989706,40.649999995294],[101.97576598581,4.2104839994149]]},"properties":{"distance":"15009.581126","title":"The bibles of NWTOTHS to malaysia","co2e":"0"}},{"type":"Feature","geometry":{"type":"LineString","coordinates":[[-73.949999989706,40.649999995294],[133.77513598138,-25.27439799671]]},"properties":{"title":"The bibles of NWTOTHS to australia","co2e":"0","distance":"16935.620975"}},{"type":"Feature","geometry":{"type":"LineString","coordinates":[[-73.949999989706,40.649999995294],[143.95554997996,-6.3149929991245]]},"properties":{"title":"The bibles of NWTOTHS to papua new guinea","co2e":"0","distance":"14656.558933"}},{"type":"Feature","geometry":{"type":"LineString","coordinates":[[-73.949999989706,40.649999995294],[121.77401698304,12.879720998237]]},"properties":{"co2e":"0","distance":"13846.256514","title":"The bibles of NWTOTHS to philippines"}},{"type":"Feature","geometry":{"type":"LineString","coordinates":[[-73.949999989706,40.649999995294],[113.92132698414,-0.78927499989015]]},"properties":{"distance":"15512.192353","co2e":"0","title":"The bibles of NWTOTHS to indonesia"}},{"type":"Feature","geometry":{"type":"LineString","coordinates":[[-73.949999989706,40.649999995294],[174.88597097565,-40.900556995276]]},"properties":{"title":"The bibles of NWTOTHS to new zealand","distance":"14379.058743","co2e":"0"}},{"type":"Feature","geometry":{"type":"LineString","coordinates":[[-73.949999989706,40.649999995294],[-66.589729990731,6.4237499991096]]},"properties":{"co2e":"0","title":"The bibles of NWTOTHS to venezuela","distance":"3875.591064"}},{"type":"Feature","geometry":{"type":"LineString","coordinates":[[-73.949999989706,40.649999995294],[-58.930179991797,4.8604159993251]]},"properties":{"distance":"4252.935599","co2e":"0","title":"The bibles of NWTOTHS to guyana"}},{"type":"Feature","geometry":{"type":"LineString","coordinates":[[-73.949999989706,40.649999995294],[-74.297332989658,4.5708679993651]]},"properties":{"title":"The bibles of NWTOTHS to columbia","co2e":"0","distance":"4011.966772"}},{"type":"Feature","geometry":{"type":"LineString","coordinates":[[-73.949999989706,40.649999995294],[-53.125781992605,3.9338889994532]]},"properties":{"distance":"4583.672429","title":"The bibles of NWTOTHS to french guiana","co2e":"0"}},{"type":"Feature","geometry":{"type":"LineString","coordinates":[[-73.949999989706,40.649999995294],[-56.027782992201,3.9193049994553]]},"properties":{"co2e":"0","distance":"4460.853736","title":"The bibles of NWTOTHS to suriname"}},{"type":"Feature","geometry":{"type":"LineString","coordinates":[[-73.949999989706,40.649999995294],[-63.588652991148,-16.290153997793]]},"properties":{"co2e":"0","distance":"6421.320413","title":"The bibles of NWTOTHS to bolivia"}},{"type":"Feature","geometry":{"type":"LineString","coordinates":[[-73.949999989706,40.649999995294],[-58.443831991865,-23.442502996919]]},"properties":{"distance":"7305.024320","title":"The bibles of NWTOTHS to paraguay","co2e":"0"}},{"type":"Feature","geometry":{"type":"LineString","coordinates":[[-73.949999989706,40.649999995294],[-55.765834992238,-32.52277899596]]},"properties":{"title":"The bibles of NWTOTHS to uruguay","distance":"8348.068618","co2e":"0"}},{"type":"Feature","geometry":{"type":"LineString","coordinates":[[-73.949999989706,40.649999995294],[-71.542968990041,-35.675146995677]]},"properties":{"distance":"8490.534446","title":"The bibles of NWTOTHS to chile","co2e":"0"}},{"type":"Feature","geometry":{"type":"LineString","coordinates":[[-73.949999989706,40.649999995294],[-70.162650990233,18.735692997485]]},"properties":{"distance":"2463.407266","title":"The bibles of NWTOTHS to dominican republic","co2e":"0"}},{"type":"Feature","geometry":{"type":"LineString","coordinates":[[-73.949999989706,40.649999995294],[-77.781166989173,21.521756997145]]},"properties":{"title":"The bibles of NWTOTHS to cuba","distance":"2157.420189","co2e":"0"}},{"type":"Feature","geometry":{"type":"LineString","coordinates":[[-73.949999989706,40.649999995294],[-78.183405989117,-1.8312389997452]]},"properties":{"title":"The bibles of NWTOTHS to ecuador","co2e":"0","distance":"4743.183798"}},{"type":"Feature","geometry":{"type":"LineString","coordinates":[[-73.949999989706,40.649999995294],[-71.797927990006,21.694024997124]]},"properties":{"title":"The bibles of NWTOTHS to turks and caicos islands","distance":"2117.538557","co2e":"0"}},{"type":"Feature","geometry":{"type":"LineString","coordinates":[[-73.949999989706,40.649999995294],[-77.29750798924,18.109580997563]]},"properties":{"distance":"2526.751220","co2e":"0","title":"The bibles of NWTOTHS to jamaica"}},{"type":"Feature","geometry":{"type":"LineString","coordinates":[[-73.949999989706,40.649999995294],[-81.254599988689,19.313299997413]]},"properties":{"title":"The bibles of NWTOTHS to cayman islands","distance":"2472.287521","co2e":"0"}},{"type":"Feature","geometry":{"type":"LineString","coordinates":[[-73.949999989706,40.649999995294],[-66.59014899073,18.220832997549]]},"properties":{"distance":"2591.354825","title":"The bibles of NWTOTHS to puerto rico","co2e":"0"}},{"type":"Feature","geometry":{"type":"LineString","coordinates":[[-73.949999989706,40.649999995294],[-72.285214989938,18.971186997456]]},"properties":{"distance":"2415.791822","title":"The bibles of NWTOTHS to haiti","co2e":"0"}},{"type":"Feature","geometry":{"type":"LineString","coordinates":[[-73.949999989706,40.649999995294],[-61.370975991457,15.414998997906]]},"properties":{"distance":"3057.865913","co2e":"0","title":"The bibles of NWTOTHS to dominica"}},{"type":"Feature","geometry":{"type":"LineString","coordinates":[[-73.949999989706,40.649999995294],[-62.187365991344,16.742497997736]]},"properties":{"title":"The bibles of NWTOTHS to montserrat","co2e":"0","distance":"2888.888941"}},{"type":"Feature","geometry":{"type":"LineString","coordinates":[[-73.949999989706,40.649999995294],[-61.796427991398,17.060815997695]]},"properties":{"co2e":"0","title":"The bibles of NWTOTHS to antigua and barbuda","distance":"2870.835556"}},{"type":"Feature","geometry":{"type":"LineString","coordinates":[[-73.949999989706,40.649999995294],[-60.978892991512,13.909443998101]]},"properties":{"title":"The bibles of NWTOTHS to saint lucia","co2e":"0","distance":"3229.360138"}},{"type":"Feature","geometry":{"type":"LineString","coordinates":[[-73.949999989706,40.649999995294],[-59.543197991712,13.193886998195]]},"properties":{"title":"The bibles of NWTOTHS to barbados","co2e":"0","distance":"3359.849594"}},{"type":"Feature","geometry":{"type":"LineString","coordinates":[[-73.949999989706,40.649999995294],[-61.678999991415,12.116499998339]]},"properties":{"title":"The bibles of NWTOTHS to grenada","distance":"3391.933761","co2e":"0"}},{"type":"Feature","geometry":{"type":"LineString","coordinates":[[-73.949999989706,40.649999995294],[-61.222502991478,10.691802998529]]},"properties":{"distance":"3557.956728","co2e":"0","title":"The bibles of NWTOTHS to trinidad and tobago"}},{"type":"Feature","geometry":{"type":"LineString","coordinates":[[-73.949999989706,40.649999995294],[-68.990019990396,12.169569998331]]},"properties":{"distance":"3203.787473","title":"The bibles of NWTOTHS to curacao","co2e":"0"}},{"type":"Feature","geometry":{"type":"LineString","coordinates":[[-73.949999989706,40.649999995294],[-69.96833799026,12.521109998285]]},"properties":{"distance":"3151.862927","title":"The bibles of NWTOTHS to aruba","co2e":"0"}},{"type":"Feature","geometry":{"type":"LineString","coordinates":[[-73.949999989706,40.649999995294],[-88.896529987625,13.794184998117]]},"properties":{"title":"The bibles of NWTOTHS to El Salvador","co2e":"0","distance":"3320.629617"}},{"type":"Feature","geometry":{"type":"LineString","coordinates":[[-73.949999989706,40.649999995294],[-86.241904987995,15.199998997934]]},"properties":{"co2e":"0","distance":"3069.354827","title":"The bibles of NWTOTHS to honduras"}},{"type":"Feature","geometry":{"type":"LineString","coordinates":[[-73.949999989706,40.649999995294],[-90.230758987436,15.783470997858]]},"properties":{"co2e":"0","title":"The bibles of NWTOTHS to guatemala","distance":"3179.781339"}},{"type":"Feature","geometry":{"type":"LineString","coordinates":[[-73.949999989706,40.649999995294],[-88.497649987681,17.189876997679]]},"properties":{"co2e":"0","title":"The bibles of NWTOTHS to belize","distance":"2958.567701"}},{"type":"Feature","geometry":{"type":"LineString","coordinates":[[-73.949999989706,40.649999995294],[-80.782126988755,8.5379809988203]]},"properties":{"distance":"3634.047876","title":"The bibles of NWTOTHS to panama","co2e":"0"}},{"type":"Feature","geometry":{"type":"LineString","coordinates":[[-73.949999989706,40.649999995294],[-83.753427988342,9.7489169986561]]},"properties":{"title":"The bibles of NWTOTHS to costa rica","co2e":"0","distance":"3569.183745"}},{"type":"Feature","geometry":{"type":"LineString","coordinates":[[-73.949999989706,40.649999995294],[-85.207228988139,12.865415998239]]},"properties":{"distance":"3278.694461","co2e":"0","title":"The bibles of NWTOTHS to nicaragua"}}],"properties":{"description":"THE NEW WORLD TRANSLATION OF THE HOLY SCRIPTURES","tags":"","title":"Globalize Me"}}