{"supplychain":{"category":null,"created":1348637863,"enable_comments":true,"flags":0,"id":3980,"modified":1348719323,"other_perms":1,"passcode":null,"user_featured":false,"usergroup_id":null,"usergroup_perms":0,"user_id":2971,"owner":{"id":2971,"name":"ALYSHA","avatar":"http:\/\/free.sourcemap.com\/assets\/images\/default-user.png","banner_url":null,"display_name":null},"taxonomy":null,"attributes":{"description":"THE NEW WORLD TRANSLATION OF THE HOLY SCRIPTURES","tags":"","title":"Globalize Me"},"stops":[{"local_stop_id":133,"id":133,"geometry":"POINT(-9851513.33303 1942939.083407)","attributes":{"supplychain_instance_id":"supplychain-1","stop_instance_id":"stop-37204","description":"","address":"Belize","title":"belize"}},{"local_stop_id":132,"id":132,"geometry":"POINT(-10044442.144372 1779661.0115165)","attributes":{"supplychain_instance_id":"supplychain-1","stop_instance_id":"stop-36939","description":"","address":"Guatemala","title":"guatemala"}},{"local_stop_id":131,"id":131,"geometry":"POINT(-9600404.9483055 1712260.1402682)","attributes":{"supplychain_instance_id":"supplychain-1","stop_instance_id":"stop-36676","description":"","address":"Honduras","title":"honduras"}},{"local_stop_id":130,"id":130,"geometry":"POINT(-9895916.4515114 1550614.4482931)","attributes":{"supplychain_instance_id":"supplychain-1","stop_instance_id":"stop-36415","description":"","address":"El Salvador","title":"El Salvador"}},{"local_stop_id":129,"id":129,"geometry":"POINT(-9485225.3428655 1444360.5193557)","attributes":{"supplychain_instance_id":"supplychain-1","stop_instance_id":"stop-36156","description":"","address":"Nicaragua","title":"nicaragua"}},{"local_stop_id":128,"id":128,"geometry":"POINT(-9323388.9558533 1090519.2314395)","attributes":{"supplychain_instance_id":"supplychain-1","stop_instance_id":"stop-35899","description":"","address":"Costa Rica","title":"costa rica"}},{"local_stop_id":127,"id":127,"geometry":"POINT(-8992625.2415858 953980.90122213)","attributes":{"supplychain_instance_id":"supplychain-1","stop_instance_id":"stop-35644","description":"","address":"Panama","title":"panama"}},{"local_stop_id":126,"id":126,"geometry":"POINT(-9045220.695352 2191856.8657813)","attributes":{"supplychain_instance_id":"supplychain-1","stop_instance_id":"stop-32115","description":"","address":"Cayman Islands","title":"cayman islands"}},{"local_stop_id":125,"id":125,"geometry":"POINT(-8604719.2289512 2050378.8023429)","attributes":{"supplychain_instance_id":"supplychain-1","stop_instance_id":"stop-31864","description":"","address":"Jamaica","title":"jamaica"}},{"local_stop_id":124,"id":124,"geometry":"POINT(-8046753.3245622 2151543.9444501)","attributes":{"supplychain_instance_id":"supplychain-1","stop_instance_id":"stop-31615","description":"","address":"Haiti","title":"haiti"}},{"local_stop_id":123,"id":123,"geometry":"POINT(-7412781.4774963 2063412.9210676)","attributes":{"supplychain_instance_id":"supplychain-1","stop_instance_id":"stop-31368","description":"","address":"Puerto Rico","title":"puerto rico"}},{"local_stop_id":122,"id":122,"geometry":"POINT(-6879146.8968456 1927905.5299867)","attributes":{"supplychain_instance_id":"supplychain-1","stop_instance_id":"stop-31123","description":"","address":"Antigua and Barbuda","title":"antigua and barbuda"}},{"local_stop_id":121,"id":121,"geometry":"POINT(-6922665.9159313 1890870.7683421)","attributes":{"supplychain_instance_id":"supplychain-1","stop_instance_id":"stop-30880","description":"","address":"Montserrat","title":"montserrat"}},{"local_stop_id":120,"id":120,"geometry":"POINT(-6831785.7968552 1737074.1776652)","attributes":{"supplychain_instance_id":"supplychain-1","stop_instance_id":"stop-29792","description":"","address":"Dominica","title":"dominica"}},{"local_stop_id":119,"id":119,"geometry":"POINT(-6788139.3169526 1563829.3370691)","attributes":{"supplychain_instance_id":"supplychain-1","stop_instance_id":"stop-29553","description":"","address":"St Lucia","title":"saint lucia"}},{"local_stop_id":118,"id":118,"geometry":"POINT(-6628318.4806404 1481892.1055377)","attributes":{"supplychain_instance_id":"supplychain-1","stop_instance_id":"stop-29316","description":"","address":"Barbados","title":"barbados"}},{"local_stop_id":117,"id":117,"geometry":"POINT(-6866074.8716826 1358969.7329036)","attributes":{"supplychain_instance_id":"supplychain-1","stop_instance_id":"stop-29081","description":"","address":"Grenada","title":"grenada"}},{"local_stop_id":116,"id":116,"geometry":"POINT(-6815257.858101 1197174.420759)","attributes":{"supplychain_instance_id":"supplychain-1","stop_instance_id":"stop-28497","description":"","address":"Trinidad and Tobago","title":"trinidad and tobago"}},{"local_stop_id":115,"id":115,"geometry":"POINT(-7679933.8951487 1365012.6660205)","attributes":{"supplychain_instance_id":"supplychain-1","stop_instance_id":"stop-28266","description":"","address":"Cura\u00e7ao","title":"curacao"}},{"local_stop_id":114,"id":114,"geometry":"POINT(-7788839.7567274 1405072.298339)","attributes":{"supplychain_instance_id":"supplychain-1","stop_instance_id":"stop-28037","description":"","address":"Aruba","title":"aruba"}},{"local_stop_id":113,"id":113,"geometry":"POINT(-8658559.9025413 2454202.3906074)","attributes":{"supplychain_instance_id":"supplychain-1","stop_instance_id":"stop-27132","description":"","address":"Cuba","title":"cuba"}},{"local_stop_id":112,"id":112,"geometry":"POINT(-7992508.7838596 2474828.6827795)","attributes":{"supplychain_instance_id":"supplychain-1","stop_instance_id":"stop-26907","description":"","address":"Turks and Caicos Islands","title":"turks and caicos islands"}},{"local_stop_id":111,"id":111,"geometry":"POINT(-7810470.5809389 2123842.6258654)","attributes":{"supplychain_instance_id":"supplychain-1","stop_instance_id":"stop-26462","description":"","address":"Dominican Republic","title":"dominican republic"}},{"local_stop_id":110,"id":110,"geometry":"POINT(-8270741.275707 509367.28126829)","attributes":{"supplychain_instance_id":"supplychain-1","stop_instance_id":"stop-24261","description":"","address":"Colombia","title":"columbia"}},{"local_stop_id":109,"id":109,"geometry":"POINT(-8703336.9431923 -203887.30825549)","attributes":{"supplychain_instance_id":"supplychain-1","stop_instance_id":"stop-24042","description":"","address":"Ecuador","title":"ecuador"}},{"local_stop_id":108,"id":108,"geometry":"POINT(-7964126.8778103 -4256013.6745668)","attributes":{"supplychain_instance_id":"supplychain-1","stop_instance_id":"stop-23825","description":"","address":"Chile","title":"chile"}},{"local_stop_id":107,"id":107,"geometry":"POINT(-6207824.3549976 -3832130.8244604)","attributes":{"supplychain_instance_id":"supplychain-1","stop_instance_id":"stop-23610","description":"","address":"Uruguay","title":"uruguay"}},{"local_stop_id":106,"id":106,"geometry":"POINT(-6505937.617342 -2685620.3316564)","attributes":{"supplychain_instance_id":"supplychain-1","stop_instance_id":"stop-23397","description":"","address":"Paraguay","title":"paraguay"}},{"local_stop_id":105,"id":105,"geometry":"POINT(-7078656.4712048 -1838348.7892659)","attributes":{"supplychain_instance_id":"supplychain-1","stop_instance_id":"stop-23186","description":"","address":"Bolivia","title":"bolivia"}},{"local_stop_id":104,"id":104,"geometry":"POINT(-6236984.2729678 436635.68830894)","attributes":{"supplychain_instance_id":"supplychain-1","stop_instance_id":"stop-22977","description":"","address":"Suriname","title":"suriname"}},{"local_stop_id":103,"id":103,"geometry":"POINT(-5913934.9994112 438262.99170163)","attributes":{"supplychain_instance_id":"supplychain-1","stop_instance_id":"stop-22770","description":"","address":"French Guiana","title":"french guiana"}},{"local_stop_id":102,"id":102,"geometry":"POINT(-6560077.6290428 541709.12975002)","attributes":{"supplychain_instance_id":"supplychain-1","stop_instance_id":"stop-22565","description":"","address":"Guyana","title":"guyana"}},{"local_stop_id":101,"id":101,"geometry":"POINT(-7412734.8346297 716591.40313719)","attributes":{"supplychain_instance_id":"supplychain-1","stop_instance_id":"stop-22362","description":"","address":"Venezuela","title":"venezuela"}},{"local_stop_id":100,"id":100,"geometry":"POINT(19468217.235897 -4997684.8898554)","attributes":{"supplychain_instance_id":"supplychain-1","stop_instance_id":"stop-21961","description":"","address":"New Zealand","title":"new zealand"}},{"local_stop_id":99,"id":99,"geometry":"POINT(14891780.018248 -2909486.0545921)","attributes":{"supplychain_instance_id":"supplychain-1","stop_instance_id":"stop-20970","description":"","address":"Australia","title":"australia"}},{"local_stop_id":98,"id":98,"geometry":"POINT(16025058.520635 -704409.43255675)","attributes":{"youtube:link":"","water":"0","energy":"0","co2e":"0","weight":"0","supplychain_instance_id":"supplychain-1","stop_instance_id":"stop-20675","description":"","address":"Papua New Guinea","title":"papua new guinea"}},{"local_stop_id":97,"id":97,"geometry":"POINT(12681664.110369 -87864.47003112)","attributes":{"supplychain_instance_id":"supplychain-1","stop_instance_id":"stop-20480","description":"","address":"Indonesia","title":"indonesia"}},{"local_stop_id":96,"id":96,"geometry":"POINT(13555821.562404 1445993.9972958)","attributes":{"supplychain_instance_id":"supplychain-1","stop_instance_id":"stop-20287","description":"","address":"Philippines","title":"philippines"}},{"local_stop_id":95,"id":95,"geometry":"POINT(11351890.342794 469131.36759243)","attributes":{"supplychain_instance_id":"supplychain-1","stop_instance_id":"stop-19336","description":"","address":"Malaysia","title":"malaysia"}},{"local_stop_id":94,"id":94,"geometry":"POINT(11687540.537429 1410155.0120853)","attributes":{"supplychain_instance_id":"supplychain-1","stop_instance_id":"stop-19147","description":"","address":"Cambodia","title":"cambodia"}},{"local_stop_id":93,"id":93,"geometry":"POINT(11242438.236474 1789676.6232449)","attributes":{"supplychain_instance_id":"supplychain-1","stop_instance_id":"stop-18960","description":"","address":"Thailand","title":"thailand"}},{"local_stop_id":92,"id":92,"geometry":"POINT(10681797.881319 2501198.833862)","attributes":{"supplychain_instance_id":"supplychain-1","stop_instance_id":"stop-18775","description":"","address":"Burma","title":"myanmar"}},{"local_stop_id":91,"id":91,"geometry":"POINT(10058420.755468 2715069.9669033)","attributes":{"supplychain_instance_id":"supplychain-1","stop_instance_id":"stop-17591","description":"","address":"Bangladesh","title":"bangladesh"}},{"local_stop_id":90,"id":90,"geometry":"POINT(9364641.7327457 3298848.051391)","attributes":{"supplychain_instance_id":"supplychain-1","stop_instance_id":"stop-17410","description":"","address":"Nepal","title":"nepal"}},{"local_stop_id":89,"id":89,"geometry":"POINT(8991475.311246 879195.5175163)","attributes":{"supplychain_instance_id":"supplychain-1","stop_instance_id":"stop-17231","description":"","address":"Sri Lanka","title":"sri lanka"}},{"local_stop_id":88,"id":88,"geometry":"POINT(8790107.5919468 2343495.1653783)","attributes":{"supplychain_instance_id":"supplychain-1","stop_instance_id":"stop-17054","description":"","address":"India","title":"india"}},{"local_stop_id":87,"id":87,"geometry":"POINT(7719463.0010459 3551885.6644184)","attributes":{"supplychain_instance_id":"supplychain-1","stop_instance_id":"stop-16879","description":"","address":"Pakistan","title":"pakistan"}},{"local_stop_id":86,"id":86,"geometry":"POINT(8322923.9568014 5042534.5664215)","attributes":{"supplychain_instance_id":"supplychain-1","stop_instance_id":"stop-16362","description":"","address":"Kyrgyzstan","title":"kyrgyzstan"}},{"local_stop_id":85,"id":85,"geometry":"POINT(7449910.4238529 6110111.7017501)","attributes":{"supplychain_instance_id":"supplychain-1","stop_instance_id":"stop-16191","description":"","address":"Kazakhstan","title":"kazakhstan"}},{"local_stop_id":84,"id":84,"geometry":"POINT(5296239.2864115 4886759.7511277)","attributes":{"supplychain_instance_id":"supplychain-1","stop_instance_id":"stop-15854","description":"","address":"Azerbaijan","title":"azerbaijan"}},{"local_stop_id":83,"id":83,"geometry":"POINT(4826467.1391471 5208343.6022163)","attributes":{"supplychain_instance_id":"supplychain-1","stop_instance_id":"stop-14691","description":"","address":"Georgia","title":"georgia"}},{"local_stop_id":82,"id":82,"geometry":"POINT(3879663.7006247 3638731.1870765)","attributes":{"supplychain_instance_id":"supplychain-1","stop_instance_id":"stop-14526","description":"","address":"Israel","title":"israel"}},{"local_stop_id":81,"id":81,"geometry":"POINT(3992171.3043275 4009311.2470976)","attributes":{"supplychain_instance_id":"supplychain-1","stop_instance_id":"stop-14363","description":"","address":"Lebanon","title":"lebanon"}},{"local_stop_id":80,"id":80,"geometry":"POINT(3923268.6583573 4716479.6839723)","attributes":{"supplychain_instance_id":"supplychain-1","stop_instance_id":"stop-14202","description":"","address":"Turkey","title":"turkey"}},{"local_stop_id":79,"id":79,"geometry":"POINT(-1608829.5783761 1631344.6304793)","attributes":{"supplychain_instance_id":"supplychain-1","stop_instance_id":"stop-13806","description":"","address":"Senegal","title":"senegal"}},{"local_stop_id":78,"id":78,"geometry":"POINT(-1704316.877217 1510410.5427138)","attributes":{"supplychain_instance_id":"supplychain-1","stop_instance_id":"stop-13181","description":"","address":"The Gambia","title":"gambia"}},{"local_stop_id":77,"id":77,"geometry":"POINT(-1689875.8449564 1323381.8644936)","attributes":{"supplychain_instance_id":"supplychain-1","stop_instance_id":"stop-13026","description":"","address":"Guinea-Bissau","title":"guinea bissau"}},{"local_stop_id":76,"id":76,"geometry":"POINT(-1311331.2448987 945266.17030497)","attributes":{"supplychain_instance_id":"supplychain-1","stop_instance_id":"stop-12642","description":"","address":"Sierra Leone","title":"sierra leone"}},{"local_stop_id":75,"id":75,"geometry":"POINT(-1079425.5836529 1112739.8187527)","attributes":{"supplychain_instance_id":"supplychain-1","stop_instance_id":"stop-12191","description":"","address":"Guinea","title":"guinea"}},{"local_stop_id":74,"id":74,"geometry":"POINT(-1049687.0269696 717073.6633816)","attributes":{"supplychain_instance_id":"supplychain-1","stop_instance_id":"stop-12042","description":"","address":"Liberia","title":"liberia"}},{"local_stop_id":73,"id":73,"geometry":"POINT(-617498.1209036 841780.90629474)","attributes":{"supplychain_instance_id":"supplychain-1","stop_instance_id":"stop-11749","description":"","address":"C\u00f4te d'Ivoire","title":"cote divoire"}},{"local_stop_id":72,"id":72,"geometry":"POINT(-444851.16418347 1987359.3993266)","attributes":{"supplychain_instance_id":"supplychain-1","stop_instance_id":"stop-11388","description":"","address":"Mali","title":"mali"}},{"local_stop_id":71,"id":71,"geometry":"POINT(-173835.73756214 1372844.3135833)","attributes":{"supplychain_instance_id":"supplychain-1","stop_instance_id":"stop-11103","description":"","address":"Burkina Faso","title":"burkina faso"}},{"local_stop_id":70,"id":70,"geometry":"POINT(-113901.43504688 887453.05758817)","attributes":{"supplychain_instance_id":"supplychain-1","stop_instance_id":"stop-10122","description":"","address":"Ghana","title":"ghana"}},{"local_stop_id":69,"id":69,"geometry":"POINT(91814.312242677 963163.0748596)","attributes":{"supplychain_instance_id":"supplychain-1","stop_instance_id":"stop-9773","description":"","address":"Togo","title":"togo"}},{"local_stop_id":68,"id":68,"geometry":"POINT(257797.46160586 1040714.8342954)","attributes":{"supplychain_instance_id":"supplychain-1","stop_instance_id":"stop-9636","description":"","address":"Benin","title":"benin"}},{"local_stop_id":67,"id":67,"geometry":"POINT(899646.94375608 1991691.5581079)","attributes":{"supplychain_instance_id":"supplychain-1","stop_instance_id":"stop-9501","description":"","address":"Niger","title":"niger"}},{"local_stop_id":66,"id":66,"geometry":"POINT(965727.41799617 1015263.9830431)","attributes":{"supplychain_instance_id":"supplychain-1","stop_instance_id":"stop-9368","description":"","address":"Nigeria","title":"nigeria"}},{"local_stop_id":65,"id":65,"geometry":"POINT(2085259.7443839 1741597.3569702)","attributes":{"supplychain_instance_id":"supplychain-1","stop_instance_id":"stop-9237","description":"","address":"Chad","title":"chad"}},{"local_stop_id":64,"id":64,"geometry":"POINT(3631316.6292648 38807.716746317)","attributes":{"supplychain_instance_id":"supplychain-1","stop_instance_id":"stop-8788","description":"","address":"Republic Rd, Kampala, Uganda","title":"central africa republic"}},{"local_stop_id":63,"id":63,"geometry":"POINT(1375321.361741 822665.28661685)","attributes":{"supplychain_instance_id":"supplychain-1","stop_instance_id":"stop-8661","description":"","address":"Cameroon","title":"cameroon"}},{"local_stop_id":62,"id":62,"geometry":"POINT(1143016.8427597 183791.75685048)","attributes":{"youtube:link":"","water":"0","energy":"0","co2e":"0","weight":"0","supplychain_instance_id":"supplychain-1","stop_instance_id":"stop-8226","description":"","address":"Equatorial Guinea","title":"equatorial guinea"}},{"local_stop_id":61,"id":61,"geometry":"POINT(1292357.3942931 -89469.184223853)","attributes":{"supplychain_instance_id":"supplychain-1","stop_instance_id":"stop-8103","description":"","address":"Gabon","title":"gabon"}},{"local_stop_id":60,"id":60,"geometry":"POINT(1989711.9990595 -1255100.6421219)","attributes":{"supplychain_instance_id":"supplychain-1","stop_instance_id":"stop-7862","description":"","address":"Angola","title":"angola"}},{"local_stop_id":59,"id":59,"geometry":"POINT(2422163.3964848 -449917.84010977)","attributes":{"supplychain_instance_id":"supplychain-1","stop_instance_id":"stop-7448","description":"","address":"Democratic Republic of the Congo","title":"dr congo"}},{"local_stop_id":58,"id":58,"geometry":"POINT(1761926.9400843 -25383.248610674)","attributes":{"youtube:link":"","water":"0","energy":"0","co2e":"0","weight":"0","supplychain_instance_id":"supplychain-1","stop_instance_id":"stop-7331","description":"","address":"Congo","title":"congo"}},{"local_stop_id":57,"id":57,"geometry":"POINT(2058343.0254723 -2626896.714962)","attributes":{"supplychain_instance_id":"supplychain-1","stop_instance_id":"stop-6475","description":"","address":"Namibia","title":"namibia"}},{"local_stop_id":56,"id":56,"geometry":"POINT(2553391.4876322 -3575670.6750294)","attributes":{"supplychain_instance_id":"supplychain-1","stop_instance_id":"stop-6362","description":"","address":"South Africa","title":"South Africa"}},{"local_stop_id":55,"id":55,"geometry":"POINT(3142950.8653794 -3453515.3049818)","attributes":{"supplychain_instance_id":"supplychain-1","stop_instance_id":"stop-6251","description":"","address":"Lesotho","title":"lestho"}},{"local_stop_id":54,"id":54,"geometry":"POINT(3502764.1800018 -3063940.4257334)","attributes":{"supplychain_instance_id":"supplychain-1","stop_instance_id":"stop-6142","description":"","address":"Swaziland","title":"swaziland"}},{"local_stop_id":53,"id":53,"geometry":"POINT(2747906.7130377 -2551008.4204375)","attributes":{"youtube:link":"","water":"0","energy":"0","co2e":"0","weight":"0","supplychain_instance_id":"supplychain-1","stop_instance_id":"stop-5982","description":"","address":"Botswana","title":"Botswana"}},{"local_stop_id":52,"id":52,"geometry":"POINT(3100173.4567413 -1475033.8314531)","attributes":{"supplychain_instance_id":"supplychain-1","stop_instance_id":"stop-5721","description":"","address":"Zambia","title":"zambia"}},{"local_stop_id":51,"id":51,"geometry":"POINT(5217445.1244492 -2127516.8215841)","attributes":{"supplychain_instance_id":"supplychain-1","stop_instance_id":"stop-5210","description":"","address":"Madagascar","title":"madagascar"}},{"local_stop_id":50,"id":50,"geometry":"POINT(3245503.8349389 -2156753.5734652)","attributes":{"supplychain_instance_id":"supplychain-1","stop_instance_id":"stop-5109","description":"","address":"Zimbabwe","title":"zimbabwe"}},{"local_stop_id":49,"id":49,"geometry":"POINT(3955132.7493975 -2115616.179804)","attributes":{"supplychain_instance_id":"supplychain-1","stop_instance_id":"stop-5010","description":"","address":"Mozambique","title":"mozambieque"}},{"local_stop_id":48,"id":48,"geometry":"POINT(3818428.2959012 -1488801.3549448)","attributes":{"supplychain_instance_id":"supplychain-1","stop_instance_id":"stop-4913","description":"","address":"Malawi","title":"malwai"}},{"local_stop_id":47,"id":47,"geometry":"POINT(3883805.8988765 -710461.61946901)","attributes":{"supplychain_instance_id":"supplychain-1","stop_instance_id":"stop-4489","description":"","address":"Tanzania","title":"tazania"}},{"local_stop_id":46,"id":46,"geometry":"POINT(3330555.1541584 -375703.95730778)","attributes":{"youtube:link":"","water":"0","energy":"0","co2e":"0","weight":"0","supplychain_instance_id":"supplychain-1","stop_instance_id":"stop-4350","description":"","address":"Burundi","title":"burundi"}},{"local_stop_id":45,"id":45,"geometry":"POINT(3325545.9997124 -216032.0533224)","attributes":{"supplychain_instance_id":"supplychain-1","stop_instance_id":"stop-4259","description":"","address":"Rwanda","title":"rwanda"}},{"local_stop_id":44,"id":44,"geometry":"POINT(3594536.9700744 152893.3710229)","attributes":{"supplychain_instance_id":"supplychain-1","stop_instance_id":"stop-3774","description":"","address":"Uganda","title":"uganda"}},{"local_stop_id":43,"id":43,"geometry":"POINT(4219698.1020842 -2622.5759571355)","attributes":{"supplychain_instance_id":"supplychain-1","stop_instance_id":"stop-3687","description":"","address":"Kenya","title":"kenya"}},{"local_stop_id":42,"id":42,"geometry":"POINT(4507289.7801187 1022366.8860381)","attributes":{"supplychain_instance_id":"supplychain-1","stop_instance_id":"stop-3602","description":"","address":"Ethiopia","title":"eithopia"}},{"local_stop_id":41,"id":41,"geometry":"POINT(3363811.8520282 1444062.6095178)","attributes":{"supplychain_instance_id":"supplychain-1","stop_instance_id":"stop-3519","description":"","address":"Sudan","title":"sudan"}},{"local_stop_id":40,"id":40,"geometry":"POINT(2866271.0577893 8841170.3929835)","attributes":{"supplychain_instance_id":"supplychain-1","stop_instance_id":"stop-3075","description":"","address":"Finland","title":"Finland"}},{"local_stop_id":39,"id":39,"geometry":"POINT(942758.7561445 8505587.0375049)","attributes":{"supplychain_instance_id":"supplychain-1","stop_instance_id":"stop-2996","description":"","address":"Norway","title":"Norway"}},{"local_stop_id":38,"id":38,"geometry":"POINT(2784501.9937555 8093419.1221292)","attributes":{"supplychain_instance_id":"supplychain-1","stop_instance_id":"stop-2843","description":"","address":"Estonia","title":"Estonia"}},{"local_stop_id":37,"id":37,"geometry":"POINT(2738814.4709894 7735556.7988111)","attributes":{"supplychain_instance_id":"supplychain-1","stop_instance_id":"stop-2361","description":"","address":"Latvia","title":"Latvia"}},{"local_stop_id":36,"id":36,"geometry":"POINT(2658451.3721241 7394820.2592118)","attributes":{"supplychain_instance_id":"supplychain-1","stop_instance_id":"stop-2288","description":"","address":"Lithuania","title":"Lithuania"}},{"local_stop_id":35,"id":35,"geometry":"POINT(3111757.0289931 7115387.6574112)","attributes":{"supplychain_instance_id":"supplychain-1","stop_instance_id":"stop-2217","description":"","address":"Belarus","title":"Belarus"}},{"local_stop_id":34,"id":34,"geometry":"POINT(3469336.4953941 6170212.7105816)","attributes":{"supplychain_instance_id":"supplychain-1","stop_instance_id":"stop-2148","description":"","address":"Ukraine","title":"Ukraine"}},{"local_stop_id":33,"id":33,"geometry":"POINT(3158121.1516241 6009523.4670508)","attributes":{"supplychain_instance_id":"supplychain-1","stop_instance_id":"stop-2081","description":"","address":"Moldova","title":"Moldova"}},{"local_stop_id":32,"id":32,"geometry":"POINT(2779287.009571 5771245.4036282)","attributes":{"youtube:link":"","water":"0","energy":"0","co2e":"0","weight":"0","supplychain_instance_id":"supplychain-1","stop_instance_id":"stop-1856","description":"","address":"Romania","title":"Romania"}},{"local_stop_id":31,"id":31,"geometry":"POINT(2837069.617649 5271553.4466849)","attributes":{"supplychain_instance_id":"supplychain-1","stop_instance_id":"stop-1793","description":"","address":"Bulgaria","title":"Bulgaria"}},{"local_stop_id":30,"id":30,"geometry":"POINT(2429471.2984153 4732306.8123197)","attributes":{"supplychain_instance_id":"supplychain-1","stop_instance_id":"stop-1732","description":"","address":"Greece","title":"Greece"}},{"local_stop_id":29,"id":29,"geometry":"POINT(2338361.5272298 5467999.2014166)","attributes":{"supplychain_instance_id":"supplychain-1","stop_instance_id":"stop-1673","description":"","address":"Serbia","title":"Serbia"}},{"local_stop_id":28,"id":28,"geometry":"POINT(2171097.8697642 5968637.6782985)","attributes":{"supplychain_instance_id":"supplychain-1","stop_instance_id":"stop-1448","description":"","address":"Hungary","title":"Hungary"}},{"local_stop_id":27,"id":27,"geometry":"POINT(2192885.3204992 6218887.4930174)","attributes":{"supplychain_instance_id":"supplychain-1","stop_instance_id":"stop-1393","description":"","address":"Slovakia","title":"Slovakia"}},{"local_stop_id":26,"id":26,"geometry":"POINT(1779901.3197739 5740909.9363462)","attributes":{"supplychain_instance_id":"supplychain-1","stop_instance_id":"stop-1340","description":"","address":"Croatia","title":"Croatia"}},{"local_stop_id":25,"id":25,"geometry":"POINT(1619706.60582 6026746.9738055)","attributes":{"supplychain_instance_id":"supplychain-1","stop_instance_id":"stop-1064","description":"","address":"Austria","title":"Austria"}},{"local_stop_id":24,"id":24,"geometry":"POINT(1722442.2506639 6414728.458057)","attributes":{"supplychain_instance_id":"supplychain-1","stop_instance_id":"stop-1015","description":"","address":"Czech Republic","title":"Czech Republic"}},{"local_stop_id":23,"id":23,"geometry":"POINT(1057733.8676799 7611135.0671694)","attributes":{"supplychain_instance_id":"supplychain-1","stop_instance_id":"stop-968","description":"","address":"Denmark","title":"Denmark"}},{"local_stop_id":22,"id":22,"geometry":"POINT(497590.99932926 6534001.8553792)","attributes":{"supplychain_instance_id":"supplychain-1","stop_instance_id":"stop-769","description":"","address":"Belgium","title":"Belgium"}},{"local_stop_id":21,"id":21,"geometry":"POINT(589021.03668977 6824142.8206739)","attributes":{"supplychain_instance_id":"supplychain-1","stop_instance_id":"stop-726","description":"","address":"The Netherlands","title":"Netherlands"}},{"local_stop_id":20,"id":20,"geometry":"POINT(2131226.7903913 6785571.8978479)","attributes":{"supplychain_instance_id":"supplychain-1","stop_instance_id":"stop-685","description":"","address":"Poland","title":"Poland"}},{"local_stop_id":19,"id":19,"geometry":"POINT(-915542.03120526 4779112.7409819)","attributes":{"supplychain_instance_id":"supplychain-1","stop_instance_id":"stop-551","description":"","address":"Portugal","title":"portugal"}},{"local_stop_id":18,"id":18,"geometry":"POINT(-417361.26121386 4933551.651775)","attributes":{"supplychain_instance_id":"supplychain-1","stop_instance_id":"stop-514","description":"","address":"Spain","title":"Spain"}},{"local_stop_id":17,"id":17,"geometry":"POINT(-19001814.083966 -1609339.9112245)","attributes":{"supplychain_instance_id":"supplychain-1","stop_instance_id":"stop-391","description":"","address":"American Samoa","title":"american samoa"}},{"local_stop_id":16,"id":16,"geometry":"POINT(2245128.3367577 5034984.4728485)","attributes":{"supplychain_instance_id":"supplychain-1","stop_instance_id":"stop-262","description":"","address":"Albania","title":"Albania"}},{"local_stop_id":15,"id":15,"geometry":"POINT(1398994.3420108 5141815.9369254)","attributes":{"supplychain_instance_id":"supplychain-1","stop_instance_id":"stop-231","description":"","address":"Italy","title":"Italy"}},{"local_stop_id":14,"id":14,"geometry":"POINT(246433.41138981 5816903.7126173)","attributes":{"supplychain_instance_id":"supplychain-1","stop_instance_id":"stop-202","description":"","address":"France","title":"France"}},{"local_stop_id":13,"id":13,"geometry":"POINT(-382490.76468619 7435586.5299477)","attributes":{"supplychain_instance_id":"supplychain-1","stop_instance_id":"stop-149","description":"","address":"United Kingdom","title":"United Kingdoms"}},{"local_stop_id":12,"id":12,"geometry":"POINT(1163458.5521707 6650655.0402484)","attributes":{"supplychain_instance_id":"supplychain-1","stop_instance_id":"stop-100","description":"","address":"Germany","title":"germany"}},{"local_stop_id":11,"id":11,"geometry":"POINT(-8232076.3430167 4960853.0093532)","attributes":{"youtube:link":"","water":"0","energy":"0","co2e":"0","weight":"0","title":"The bibles of NWTOTHS","address":"Brooklyn, NY, USA","description":"","stop_instance_id":"stop-1","supplychain_instance_id":"supplychain-1"}},{"local_stop_id":10,"id":10,"geometry":"POINT(15390245.098219 4328841.5619102)","attributes":{"title":" Japan","address":"Japan","description":"","stop_instance_id":"stop-14","supplychain_instance_id":"supplychain-1","weight":"0","co2e":"0","energy":"0","water":"0","youtube:link":""}},{"local_stop_id":9,"id":9,"geometry":"POINT(-11838468.393581 7584411.7316911)","attributes":{"title":"canada","address":"Canada","description":"","stop_instance_id":"stop-38","supplychain_instance_id":"supplychain-1","weight":"0","co2e":"0","energy":"0","water":"0","youtube:link":""}},{"local_stop_id":8,"id":8,"geometry":"POINT(-10654710.286989 4451692.5541908)","attributes":{"title":" U.S","address":"United States","description":"","stop_instance_id":"stop-54","supplychain_instance_id":"supplychain-1","weight":"0","co2e":"0","energy":"0","water":"0","youtube:link":""}},{"local_stop_id":7,"id":7,"geometry":"POINT(-11416123.692723 2708933.2918558)","attributes":{"youtube:link":"","water":"0","energy":"0","co2e":"0","weight":"0","title":" Mexico","address":"Mexico","description":"","stop_instance_id":"stop-87","supplychain_instance_id":"supplychain-1"}},{"local_stop_id":6,"id":6,"geometry":"POINT(-8350648.5212576 -1027437.3556249)","attributes":{"youtube:link":"","water":"0","energy":"0","co2e":"0","weight":"0","title":"Peru","address":"Peru","description":"","stop_instance_id":"stop-108","supplychain_instance_id":"supplychain-1"}},{"local_stop_id":5,"id":5,"geometry":"POINT(-5780295.7280935 -1601191.8132151)","attributes":{"youtube:link":"","water":"0","energy":"0","co2e":"0","weight":"0","title":"Brazil","address":"Brazil","description":"","stop_instance_id":"stop-133","supplychain_instance_id":"supplychain-1"}},{"local_stop_id":4,"id":4,"geometry":"POINT(-7081775.5320169 -4638374.2744388)","attributes":{"youtube:link":"","water":"0","energy":"0","co2e":"0","weight":"0","title":"Argentina","address":"Argentina","description":"","stop_instance_id":"stop-162","supplychain_instance_id":"supplychain-1"}},{"local_stop_id":3,"id":3,"geometry":"POINT(-16641559.586255 9400949.855758)","attributes":{"youtube:link":"","water":"0","energy":"0","co2e":"0","weight":"0","title":"alaska","address":"Alaska, USA","description":"","stop_instance_id":"stop-195","supplychain_instance_id":"supplychain-1"}},{"local_stop_id":2,"id":2,"geometry":"POINT(-4742689.3149022 11648433.887764)","attributes":{"title":"greenland","address":"Greenland","description":"","stop_instance_id":"stop-232","supplychain_instance_id":"supplychain-1","weight":"0","co2e":"0","energy":"0","water":"0","youtube:link":""}},{"local_stop_id":1,"id":1,"geometry":"POINT(-2117389.6663681 9598645.7040154)","attributes":{"youtube:link":"","water":"0","energy":"0","co2e":"0","weight":"0","title":" iceland","address":"Iceland","description":"","stop_instance_id":"stop-283","supplychain_instance_id":"supplychain-1"}}],"hops":[{"from_stop_id":11,"to_stop_id":10,"geometry":"MULTILINESTRING((-8232076.3430167 4960853.0093532,15390245.098219 4328841.5619102))","attributes":{"co2e":"0","title":"The bibles are made to N","distance":"10858.954690"}},{"from_stop_id":11,"to_stop_id":9,"geometry":"MULTILINESTRING((-8232076.3430167 4960853.0093532,-11838468.393581 7584411.7316911))","attributes":{"distance":"2903.860103","title":"The bibles are made to LL","co2e":"0"}},{"from_stop_id":11,"to_stop_id":8,"geometry":"MULTILINESTRING((-8232076.3430167 4960853.0093532,-10654710.286989 4451692.5541908))","attributes":{"weight":"0","youtube:link":"","description":"","co2e":"0","distance":"1919.933884","title":"The bibles are made to everywhere in the U.S","transportcat":"Method of Transportation"}},{"from_stop_id":11,"to_stop_id":7,"geometry":"MULTILINESTRING((-8232076.3430167 4960853.0093532,-11416123.692723 2708933.2918558))","attributes":{"distance":"3266.716304","title":"The bibles are made to The bibles are everywhere in Mexico","co2e":"0"}},{"from_stop_id":11,"to_stop_id":6,"geometry":"MULTILINESTRING((-8232076.3430167 4960853.0093532,-8350648.5212576 -1027437.3556249))","attributes":{"title":"The bibles are made to DDDDD","co2e":"0","distance":"5543.030272"}},{"from_stop_id":11,"to_stop_id":5,"geometry":"MULTILINESTRING((-8232076.3430167 4960853.0093532,-5780295.7280935 -1601191.8132151))","attributes":{"co2e":"0","title":"The bibles are made to CCCCCC","distance":"6511.981718"}},{"from_stop_id":11,"to_stop_id":4,"geometry":"MULTILINESTRING((-8232076.3430167 4960853.0093532,-7081775.5320169 -4638374.2744388))","attributes":{"distance":"8854.252967","title":"The bibles are made to FFFFFFF","co2e":"0"}},{"from_stop_id":11,"to_stop_id":3,"geometry":"MULTILINESTRING((-8232076.3430167 4960853.0093532,-16641559.586255 9400949.855758))","attributes":{"distance":"5339.017857","title":"The bibles are made to MMMMMMMM","co2e":"0"}},{"from_stop_id":11,"to_stop_id":2,"geometry":"MULTILINESTRING((-8232076.3430167 4960853.0093532,-4742689.3149022 11648433.887764))","attributes":{"distance":"3861.225758","title":"The bibles are made to the bibles are made everywhere in greenland","co2e":"0"}},{"from_stop_id":11,"to_stop_id":1,"geometry":"MULTILINESTRING((-8232076.3430167 4960853.0093532,-2117389.6663681 9598645.7040154))","attributes":{"co2e":"0","title":"The bibles are made to the bibles are made everywhere in iceland","distance":"4361.141117"}},{"from_stop_id":11,"to_stop_id":12,"geometry":"MULTILINESTRING((-8232076.3430167 4960853.0093532,1163458.5521707 6650655.0402484))","attributes":{"title":"The bibles are made to germany","co2e":"0","distance":"6267.823977"}},{"from_stop_id":11,"to_stop_id":13,"geometry":"MULTILINESTRING((-8232076.3430167 4960853.0093532,-382490.76468619 7435586.5299477))","attributes":{"co2e":"0","distance":"5244.659588","title":"The bibles are made to United Kingdoms"}},{"from_stop_id":11,"to_stop_id":14,"geometry":"MULTILINESTRING((-8232076.3430167 4960853.0093532,246433.41138981 5816903.7126173))","attributes":{"title":"The bibles are made to France","distance":"5940.234153","co2e":"0"}},{"from_stop_id":11,"to_stop_id":15,"geometry":"MULTILINESTRING((-8232076.3430167 4960853.0093532,1398994.3420108 5141815.9369254))","attributes":{"distance":"6896.535864","title":"The bibles are made to Italy","co2e":"0"}},{"from_stop_id":11,"to_stop_id":16,"geometry":"MULTILINESTRING((-8232076.3430167 4960853.0093532,2245128.3367577 5034984.4728485))","attributes":{"title":"The bibles are made to Albania","co2e":"0","distance":"7471.241322"}},{"from_stop_id":11,"to_stop_id":17,"geometry":"MULTILINESTRING((-8232076.3430167 4960853.0093532,-19001814.083966 -1609339.9112245))","attributes":{"distance":"11599.819412","co2e":"0","title":"The bibles are made to american samoa"}},{"from_stop_id":11,"to_stop_id":19,"geometry":"MULTILINESTRING((-8232076.3430167 4960853.0093532,-915542.03120526 4779112.7409819))","attributes":{"distance":"5461.629227","title":"The bibles are made to portugal","co2e":"0"}},{"from_stop_id":11,"to_stop_id":18,"geometry":"MULTILINESTRING((-8232076.3430167 4960853.0093532,-417361.26121386 4933551.651775))","attributes":{"co2e":"0","title":"The bibles are made to Spain","distance":"5760.906515"}},{"from_stop_id":11,"to_stop_id":22,"geometry":"MULTILINESTRING((-8232076.3430167 4960853.0093532,497590.99932926 6534001.8553792))","attributes":{"title":"The bibles are made to Belgium","distance":"5911.307455","co2e":"0"}},{"from_stop_id":11,"to_stop_id":20,"geometry":"MULTILINESTRING((-8232076.3430167 4960853.0093532,2131226.7903913 6785571.8978479))","attributes":{"title":"The bibles are made to Poland","distance":"6763.215149","co2e":"0"}},{"from_stop_id":11,"to_stop_id":25,"geometry":"MULTILINESTRING((-8232076.3430167 4960853.0093532,1619706.60582 6026746.9738055))","attributes":{"co2e":"0","title":"The bibles of NWTOTHS to Austria","distance":"6717.016255"}},{"from_stop_id":11,"to_stop_id":24,"geometry":"MULTILINESTRING((-8232076.3430167 4960853.0093532,1722442.2506639 6414728.458057))","attributes":{"co2e":"0","distance":"6652.381450","title":"The bibles of NWTOTHS to Czech Republic"}},{"from_stop_id":11,"to_stop_id":23,"geometry":"MULTILINESTRING((-8232076.3430167 4960853.0093532,1057733.8676799 7611135.0671694))","attributes":{"co2e":"0","title":"The bibles of NWTOTHS to Denmark","distance":"5988.731070"}},{"from_stop_id":11,"to_stop_id":21,"geometry":"MULTILINESTRING((-8232076.3430167 4960853.0093532,589021.03668977 6824142.8206739))","attributes":{"title":"The bibles of NWTOTHS to Netherlands","distance":"5898.207292","co2e":"0"}},{"from_stop_id":11,"to_stop_id":26,"geometry":"MULTILINESTRING((-8232076.3430167 4960853.0093532,1779901.3197739 5740909.9363462))","attributes":{"distance":"6910.362356","co2e":"0","title":"The bibles of NWTOTHS to Croatia"}},{"from_stop_id":11,"to_stop_id":27,"geometry":"MULTILINESTRING((-8232076.3430167 4960853.0093532,2192885.3204992 6218887.4930174))","attributes":{"distance":"6981.743134","co2e":"0","title":"The bibles of NWTOTHS to Slovakia"}},{"from_stop_id":11,"to_stop_id":28,"geometry":"MULTILINESTRING((-8232076.3430167 4960853.0093532,2171097.8697642 5968637.6782985))","attributes":{"distance":"7057.901434","title":"The bibles of NWTOTHS to Hungary","co2e":"0"}},{"from_stop_id":11,"to_stop_id":32,"geometry":"MULTILINESTRING((-8232076.3430167 4960853.0093532,2779287.009571 5771245.4036282))","attributes":{"title":"The bibles of NWTOTHS to Romania","distance":"7480.142123","co2e":"0"}},{"from_stop_id":11,"to_stop_id":31,"geometry":"MULTILINESTRING((-8232076.3430167 4960853.0093532,2837069.617649 5271553.4466849))","attributes":{"distance":"7724.700882","co2e":"0","title":"The bibles of NWTOTHS to Bulgaria"}},{"from_stop_id":11,"to_stop_id":35,"geometry":"MULTILINESTRING((-8232076.3430167 4960853.0093532,3111757.0289931 7115387.6574112))","attributes":{"title":"The bibles of NWTOTHS to Belarus","distance":"7158.354275","co2e":"0"}},{"from_stop_id":11,"to_stop_id":36,"geometry":"MULTILINESTRING((-8232076.3430167 4960853.0093532,2658451.3721241 7394820.2592118))","attributes":{"title":"The bibles of NWTOTHS to Lithuania","distance":"6849.176895","co2e":"0"}},{"from_stop_id":11,"to_stop_id":37,"geometry":"MULTILINESTRING((-8232076.3430167 4960853.0093532,2738814.4709894 7735556.7988111))","attributes":{"distance":"6789.235171","title":"The bibles of NWTOTHS to Latvia","co2e":"0"}},{"from_stop_id":11,"to_stop_id":33,"geometry":"MULTILINESTRING((-8232076.3430167 4960853.0093532,3158121.1516241 6009523.4670508))","attributes":{"title":"The bibles of NWTOTHS to Moldova","co2e":"0","distance":"7592.473660"}},{"from_stop_id":11,"to_stop_id":34,"geometry":"MULTILINESTRING((-8232076.3430167 4960853.0093532,3469336.4953941 6170212.7105816))","attributes":{"distance":"7691.462670","co2e":"0","title":"The bibles of NWTOTHS to Ukraine"}},{"from_stop_id":11,"to_stop_id":38,"geometry":"MULTILINESTRING((-8232076.3430167 4960853.0093532,2784501.9937555 8093419.1221292))","attributes":{"distance":"6712.752988","co2e":"0","title":"The bibles of NWTOTHS to Estonia"}},{"from_stop_id":11,"to_stop_id":40,"geometry":"MULTILINESTRING((-8232076.3430167 4960853.0093532,2866271.0577893 8841170.3929835))","attributes":{"title":"The bibles of NWTOTHS to Finland","distance":"6563.559222","co2e":"0"}},{"from_stop_id":11,"to_stop_id":39,"geometry":"MULTILINESTRING((-8232076.3430167 4960853.0093532,942758.7561445 8505587.0375049))","attributes":{"co2e":"0","title":"The bibles of NWTOTHS to Norway","distance":"5778.134436"}},{"from_stop_id":11,"to_stop_id":43,"geometry":"MULTILINESTRING((-8232076.3430167 4960853.0093532,4219698.1020842 -2622.5759571369))","attributes":{"distance":"11833.631197","co2e":"0","title":"The bibles of NWTOTHS to kenya"}},{"from_stop_id":11,"to_stop_id":44,"geometry":"MULTILINESTRING((-8232076.3430167 4960853.0093532,3594536.9700744 152893.3710229))","attributes":{"co2e":"0","distance":"11267.707359","title":"The bibles of NWTOTHS to uganda"}},{"from_stop_id":11,"to_stop_id":41,"geometry":"MULTILINESTRING((-8232076.3430167 4960853.0093532,3363811.8520282 1444062.6095178))","attributes":{"title":"The bibles of NWTOTHS to sudan","distance":"10237.069801","co2e":"0"}},{"from_stop_id":11,"to_stop_id":42,"geometry":"MULTILINESTRING((-8232076.3430167 4960853.0093532,4507289.7801187 1022366.8860381))","attributes":{"distance":"11331.887789","title":"The bibles of NWTOTHS to eithopia","co2e":"0"}},{"from_stop_id":11,"to_stop_id":46,"geometry":"MULTILINESTRING((-8232076.3430167 4960853.0093532,3330555.1541584 -375703.95730778))","attributes":{"distance":"11419.908769","title":"The bibles of NWTOTHS to burundi","co2e":"0"}},{"from_stop_id":11,"to_stop_id":47,"geometry":"MULTILINESTRING((-8232076.3430167 4960853.0093532,3883805.8988765 -710461.61946901))","attributes":{"title":"The bibles of NWTOTHS to tazania","co2e":"0","distance":"12054.164194"}},{"from_stop_id":11,"to_stop_id":45,"geometry":"MULTILINESTRING((-8232076.3430167 4960853.0093532,3325545.9997124 -216032.0533224))","attributes":{"distance":"11311.440292","title":"The bibles of NWTOTHS to rwanda","co2e":"0"}},{"from_stop_id":11,"to_stop_id":50,"geometry":"MULTILINESTRING((-8232076.3430167 4960853.0093532,3245503.8349389 -2156753.5734652))","attributes":{"co2e":"0","title":"The bibles of NWTOTHS to zimbabwe","distance":"12455.775540"}},{"from_stop_id":11,"to_stop_id":49,"geometry":"MULTILINESTRING((-8232076.3430167 4960853.0093532,3955132.7493975 -2115616.179804))","attributes":{"distance":"12968.378913","co2e":"0","title":"The bibles of NWTOTHS to mozambieque"}},{"from_stop_id":11,"to_stop_id":51,"geometry":"MULTILINESTRING((-8232076.3430167 4960853.0093532,5217445.1244492 -2127516.8215841))","attributes":{"title":"The bibles of NWTOTHS to madagascar","distance":"13930.870683","co2e":"0"}},{"from_stop_id":11,"to_stop_id":48,"geometry":"MULTILINESTRING((-8232076.3430167 4960853.0093532,3818428.2959012 -1488801.3549448))","attributes":{"co2e":"0","distance":"12495.379281","title":"The bibles of NWTOTHS to malwai"}},{"from_stop_id":11,"to_stop_id":52,"geometry":"MULTILINESTRING((-8232076.3430167 4960853.0093532,3100173.4567413 -1475033.8314531))","attributes":{"title":"The bibles of NWTOTHS to zambia","distance":"11942.791477","co2e":"0"}},{"from_stop_id":11,"to_stop_id":57,"geometry":"MULTILINESTRING((-8232076.3430167 4960853.0093532,2058343.0254723 -2626896.714962))","attributes":{"title":"The bibles of NWTOTHS to namibia","co2e":"0","distance":"11841.095427"}},{"from_stop_id":11,"to_stop_id":53,"geometry":"MULTILINESTRING((-8232076.3430167 4960853.0093532,2747906.7130377 -2551008.4204375))","attributes":{"title":"The bibles of NWTOTHS to Botswana","co2e":"0","distance":"12305.089436"}},{"from_stop_id":11,"to_stop_id":54,"geometry":"MULTILINESTRING((-8232076.3430167 4960853.0093532,3502764.1800018 -3063940.4257334))","attributes":{"co2e":"0","title":"The bibles of NWTOTHS to swaziland","distance":"13134.593676"}},{"from_stop_id":11,"to_stop_id":55,"geometry":"MULTILINESTRING((-8232076.3430167 4960853.0093532,3142950.8653794 -3453515.3049818))","attributes":{"title":"The bibles of NWTOTHS to lestho","distance":"13060.608210","co2e":"0"}},{"from_stop_id":11,"to_stop_id":56,"geometry":"MULTILINESTRING((-8232076.3430167 4960853.0093532,2553391.4876322 -3575670.6750294))","attributes":{"title":"The bibles of NWTOTHS to South Africa","distance":"12695.911285","co2e":"0"}},{"from_stop_id":11,"to_stop_id":59,"geometry":"MULTILINESTRING((-8232076.3430167 4960853.0093532,2422163.3964848 -449917.84010977))","attributes":{"distance":"10781.339944","title":"The bibles of NWTOTHS to dr congo","co2e":"0"}},{"from_stop_id":11,"to_stop_id":58,"geometry":"MULTILINESTRING((-8232076.3430167 4960853.0093532,1761926.9400843 -25383.248610674))","attributes":{"distance":"10005.303017","title":"The bibles of NWTOTHS to congo","co2e":"0"}},{"from_stop_id":11,"to_stop_id":60,"geometry":"MULTILINESTRING((-8232076.3430167 4960853.0093532,1989711.9990595 -1255100.6421219))","attributes":{"title":"The bibles of NWTOTHS to angola","co2e":"0","distance":"10968.417557"}},{"from_stop_id":11,"to_stop_id":61,"geometry":"MULTILINESTRING((-8232076.3430167 4960853.0093532,1292357.3942931 -89469.184223853))","attributes":{"co2e":"0","title":"The bibles of NWTOTHS to gabon","distance":"9691.417108"}},{"from_stop_id":11,"to_stop_id":62,"geometry":"MULTILINESTRING((-8232076.3430167 4960853.0093532,1143016.8427597 183791.75685048))","attributes":{"distance":"9400.291260","co2e":"0","title":"The bibles of NWTOTHS to equatorial guinea"}},{"from_stop_id":11,"to_stop_id":64,"geometry":"MULTILINESTRING((-8232076.3430167 4960853.0093532,3631316.6292648 38807.716746317))","attributes":{"distance":"11371.214456","co2e":"0","title":"The bibles of NWTOTHS to central africa republic"}},{"from_stop_id":11,"to_stop_id":63,"geometry":"MULTILINESTRING((-8232076.3430167 4960853.0093532,1375321.361741 822665.28661684))","attributes":{"title":"The bibles of NWTOTHS to cameroon","distance":"9163.754550","co2e":"0"}},{"from_stop_id":11,"to_stop_id":70,"geometry":"MULTILINESTRING((-8232076.3430167 4960853.0093532,-113901.43504688 887453.05758817))","attributes":{"co2e":"0","title":"The bibles of NWTOTHS to ghana","distance":"7994.948841"}},{"from_stop_id":11,"to_stop_id":66,"geometry":"MULTILINESTRING((-8232076.3430167 4960853.0093532,965727.41799617 1015263.9830431))","attributes":{"distance":"8731.241537","title":"The bibles of NWTOTHS to nigeria","co2e":"0"}},{"from_stop_id":11,"to_stop_id":68,"geometry":"MULTILINESTRING((-8232076.3430167 4960853.0093532,257797.46160586 1040714.8342954))","attributes":{"title":"The bibles of NWTOTHS to benin","distance":"8178.784180","co2e":"0"}},{"from_stop_id":11,"to_stop_id":67,"geometry":"MULTILINESTRING((-8232076.3430167 4960853.0093532,899646.94375608 1991691.5581079))","attributes":{"distance":"8084.320800","co2e":"0","title":"The bibles of NWTOTHS to niger"}},{"from_stop_id":11,"to_stop_id":65,"geometry":"MULTILINESTRING((-8232076.3430167 4960853.0093532,2085259.7443839 1741597.3569702))","attributes":{"co2e":"0","title":"The bibles of NWTOTHS to chad","distance":"9116.743768"}},{"from_stop_id":11,"to_stop_id":69,"geometry":"MULTILINESTRING((-8232076.3430167 4960853.0093532,91814.312242677 963163.0748596))","attributes":{"title":"The bibles of NWTOTHS to togo","co2e":"0","distance":"8102.192260"}},{"from_stop_id":11,"to_stop_id":71,"geometry":"MULTILINESTRING((-8232076.3430167 4960853.0093532,-173835.73756214 1372844.3135833))","attributes":{"title":"The bibles of NWTOTHS to burkina faso","co2e":"0","distance":"7644.711952"}},{"from_stop_id":11,"to_stop_id":72,"geometry":"MULTILINESTRING((-8232076.3430167 4960853.0093532,-444851.16418347 1987359.3993266))","attributes":{"co2e":"0","distance":"7072.319114","title":"The bibles of NWTOTHS to mali"}},{"from_stop_id":11,"to_stop_id":73,"geometry":"MULTILINESTRING((-8232076.3430167 4960853.0093532,-617498.1209036 841780.90629474))","attributes":{"distance":"7645.410555","title":"The bibles of NWTOTHS to cote divoire","co2e":"0"}},{"from_stop_id":11,"to_stop_id":75,"geometry":"MULTILINESTRING((-8232076.3430167 4960853.0093532,-1079425.5836529 1112739.8187527))","attributes":{"distance":"7125.244349","title":"The bibles of NWTOTHS to guinea","co2e":"0"}},{"from_stop_id":11,"to_stop_id":74,"geometry":"MULTILINESTRING((-8232076.3430167 4960853.0093532,-1049687.0269696 717073.6633816))","attributes":{"co2e":"0","title":"The bibles of NWTOTHS to liberia","distance":"7404.768653"}},{"from_stop_id":11,"to_stop_id":77,"geometry":"MULTILINESTRING((-8232076.3430167 4960853.0093532,-1689875.8449564 1323381.8644936))","attributes":{"title":"The bibles of NWTOTHS to guinea bissau","co2e":"0","distance":"6536.132917"}},{"from_stop_id":11,"to_stop_id":78,"geometry":"MULTILINESTRING((-8232076.3430167 4960853.0093532,-1704316.877217 1510410.5427138))","attributes":{"title":"The bibles of NWTOTHS to gambia","distance":"6407.524624","co2e":"0"}},{"from_stop_id":11,"to_stop_id":76,"geometry":"MULTILINESTRING((-8232076.3430167 4960853.0093532,-1311331.2448987 945266.17030497))","attributes":{"distance":"7060.938306","title":"The bibles of NWTOTHS to sierra leone","co2e":"0"}},{"from_stop_id":11,"to_stop_id":79,"geometry":"MULTILINESTRING((-8232076.3430167 4960853.0093532,-1608829.5783761 1631344.6304793))","attributes":{"title":"The bibles of NWTOTHS to senegal","co2e":"0","distance":"6404.169280"}},{"from_stop_id":11,"to_stop_id":81,"geometry":"MULTILINESTRING((-8232076.3430167 4960853.0093532,3992171.3043275 4009311.2470976))","attributes":{"title":"The bibles of NWTOTHS to lebanon","distance":"9052.439263","co2e":"0"}},{"from_stop_id":11,"to_stop_id":80,"geometry":"MULTILINESTRING((-8232076.3430167 4960853.0093532,3923268.6583573 4716479.6839723))","attributes":{"title":"The bibles of NWTOTHS to turkey","co2e":"0","distance":"8622.432004"}},{"from_stop_id":11,"to_stop_id":82,"geometry":"MULTILINESTRING((-8232076.3430167 4960853.0093532,3879663.7006247 3638731.1870765))","attributes":{"co2e":"0","title":"The bibles of NWTOTHS to israel","distance":"9199.662152"}},{"from_stop_id":11,"to_stop_id":83,"geometry":"MULTILINESTRING((-8232076.3430167 4960853.0093532,4826467.1391471 5208343.6022163))","attributes":{"distance":"8846.825232","title":"The bibles of NWTOTHS to georgia","co2e":"0"}},{"from_stop_id":11,"to_stop_id":29,"geometry":"MULTILINESTRING((-8232076.3430167 4960853.0093532,2338361.5272298 5467999.2014166))","attributes":{"co2e":"0","title":"The bibles of NWTOTHS to Serbia","distance":"7347.302955"}},{"from_stop_id":11,"to_stop_id":30,"geometry":"MULTILINESTRING((-8232076.3430167 4960853.0093532,2429471.2984153 4732306.8123197))","attributes":{"distance":"7720.220679","title":"The bibles of NWTOTHS to Greece","co2e":"0"}},{"from_stop_id":11,"to_stop_id":84,"geometry":"MULTILINESTRING((-8232076.3430167 4960853.0093532,5296239.2864115 4886759.7511277))","attributes":{"distance":"9262.291079","title":"The bibles of NWTOTHS to azerbaijan","co2e":"0"}},{"from_stop_id":11,"to_stop_id":86,"geometry":"MULTILINESTRING((-8232076.3430167 4960853.0093532,8322923.9568014 5042534.5664215))","attributes":{"distance":"10381.702761","title":"The bibles of NWTOTHS to kyrgyzstan","co2e":"0"}},{"from_stop_id":11,"to_stop_id":85,"geometry":"MULTILINESTRING((-8232076.3430167 4960853.0093532,7449910.4238529 6110111.7017501))","attributes":{"distance":"9429.662916","title":"The bibles of NWTOTHS to kazakhstan","co2e":"0"}},{"from_stop_id":11,"to_stop_id":91,"geometry":"MULTILINESTRING((-8232076.3430167 4960853.0093532,10058420.755468 2715069.9669033))","attributes":{"distance":"12679.507901","title":"The bibles of NWTOTHS to bangladesh","co2e":"0"}},{"from_stop_id":11,"to_stop_id":90,"geometry":"MULTILINESTRING((-8232076.3430167 4960853.0093532,9364641.7327457 3298848.051391))","attributes":{"co2e":"0","distance":"12011.350568","title":"The bibles of NWTOTHS to nepal"}},{"from_stop_id":11,"to_stop_id":87,"geometry":"MULTILINESTRING((-8232076.3430167 4960853.0093532,7719463.0010459 3551885.6644184))","attributes":{"title":"The bibles of NWTOTHS to pakistan","co2e":"0","distance":"11260.288535"}},{"from_stop_id":11,"to_stop_id":88,"geometry":"MULTILINESTRING((-8232076.3430167 4960853.0093532,8790107.5919468 2343495.1653783))","attributes":{"distance":"12651.473986","co2e":"0","title":"The bibles of NWTOTHS to india"}},{"from_stop_id":11,"to_stop_id":89,"geometry":"MULTILINESTRING((-8232076.3430167 4960853.0093532,8991475.311246 879195.5175163))","attributes":{"co2e":"0","title":"The bibles of NWTOTHS to sri lanka","distance":"14030.811980"}},{"from_stop_id":11,"to_stop_id":92,"geometry":"MULTILINESTRING((-8232076.3430167 4960853.0093532,10681797.881319 2501198.833862))","attributes":{"co2e":"0","title":"The bibles of NWTOTHS to myanmar","distance":"12980.331724"}},{"from_stop_id":11,"to_stop_id":93,"geometry":"MULTILINESTRING((-8232076.3430167 4960853.0093532,11242438.236474 1789676.6232449))","attributes":{"distance":"13708.668181","title":"The bibles of NWTOTHS to thailand","co2e":"0"}},{"from_stop_id":11,"to_stop_id":94,"geometry":"MULTILINESTRING((-8232076.3430167 4960853.0093532,11687540.537429 1410155.0120853))","attributes":{"co2e":"0","distance":"14096.767075","title":"The bibles of NWTOTHS to cambodia"}},{"from_stop_id":11,"to_stop_id":95,"geometry":"MULTILINESTRING((-8232076.3430167 4960853.0093532,11351890.342794 469131.36759243))","attributes":{"distance":"15009.581126","title":"The bibles of NWTOTHS to malaysia","co2e":"0"}},{"from_stop_id":11,"to_stop_id":99,"geometry":"MULTILINESTRING((-8232076.3430167 4960853.0093532,14891780.018248 -2909486.0545921))","attributes":{"title":"The bibles of NWTOTHS to australia","co2e":"0","distance":"16935.620975"}},{"from_stop_id":11,"to_stop_id":98,"geometry":"MULTILINESTRING((-8232076.3430167 4960853.0093532,16025058.520635 -704409.43255675))","attributes":{"title":"The bibles of NWTOTHS to papua new guinea","co2e":"0","distance":"14656.558933"}},{"from_stop_id":11,"to_stop_id":96,"geometry":"MULTILINESTRING((-8232076.3430167 4960853.0093532,13555821.562404 1445993.9972958))","attributes":{"co2e":"0","distance":"13846.256514","title":"The bibles of NWTOTHS to philippines"}},{"from_stop_id":11,"to_stop_id":97,"geometry":"MULTILINESTRING((-8232076.3430167 4960853.0093532,12681664.110369 -87864.47003112))","attributes":{"distance":"15512.192353","co2e":"0","title":"The bibles of NWTOTHS to indonesia"}},{"from_stop_id":11,"to_stop_id":100,"geometry":"MULTILINESTRING((-8232076.3430167 4960853.0093532,19468217.235897 -4997684.8898554))","attributes":{"title":"The bibles of NWTOTHS to new zealand","distance":"14379.058743","co2e":"0"}},{"from_stop_id":11,"to_stop_id":101,"geometry":"MULTILINESTRING((-8232076.3430167 4960853.0093532,-7412734.8346297 716591.40313719))","attributes":{"co2e":"0","title":"The bibles of NWTOTHS to venezuela","distance":"3875.591064"}},{"from_stop_id":11,"to_stop_id":102,"geometry":"MULTILINESTRING((-8232076.3430167 4960853.0093532,-6560077.6290428 541709.12975002))","attributes":{"distance":"4252.935599","co2e":"0","title":"The bibles of NWTOTHS to guyana"}},{"from_stop_id":11,"to_stop_id":110,"geometry":"MULTILINESTRING((-8232076.3430167 4960853.0093532,-8270741.275707 509367.28126829))","attributes":{"title":"The bibles of NWTOTHS to columbia","co2e":"0","distance":"4011.966772"}},{"from_stop_id":11,"to_stop_id":103,"geometry":"MULTILINESTRING((-8232076.3430167 4960853.0093532,-5913934.9994112 438262.99170163))","attributes":{"distance":"4583.672429","title":"The bibles of NWTOTHS to french guiana","co2e":"0"}},{"from_stop_id":11,"to_stop_id":104,"geometry":"MULTILINESTRING((-8232076.3430167 4960853.0093532,-6236984.2729678 436635.68830894))","attributes":{"co2e":"0","distance":"4460.853736","title":"The bibles of NWTOTHS to suriname"}},{"from_stop_id":11,"to_stop_id":105,"geometry":"MULTILINESTRING((-8232076.3430167 4960853.0093532,-7078656.4712048 -1838348.7892659))","attributes":{"co2e":"0","distance":"6421.320413","title":"The bibles of NWTOTHS to bolivia"}},{"from_stop_id":11,"to_stop_id":106,"geometry":"MULTILINESTRING((-8232076.3430167 4960853.0093532,-6505937.617342 -2685620.3316564))","attributes":{"distance":"7305.024320","title":"The bibles of NWTOTHS to paraguay","co2e":"0"}},{"from_stop_id":11,"to_stop_id":107,"geometry":"MULTILINESTRING((-8232076.3430167 4960853.0093532,-6207824.3549976 -3832130.8244604))","attributes":{"title":"The bibles of NWTOTHS to uruguay","distance":"8348.068618","co2e":"0"}},{"from_stop_id":11,"to_stop_id":108,"geometry":"MULTILINESTRING((-8232076.3430167 4960853.0093532,-7964126.8778103 -4256013.6745668))","attributes":{"distance":"8490.534446","title":"The bibles of NWTOTHS to chile","co2e":"0"}},{"from_stop_id":11,"to_stop_id":111,"geometry":"MULTILINESTRING((-8232076.3430167 4960853.0093532,-7810470.5809389 2123842.6258654))","attributes":{"distance":"2463.407266","title":"The bibles of NWTOTHS to dominican republic","co2e":"0"}},{"from_stop_id":11,"to_stop_id":113,"geometry":"MULTILINESTRING((-8232076.3430167 4960853.0093532,-8658559.9025413 2454202.3906074))","attributes":{"title":"The bibles of NWTOTHS to cuba","distance":"2157.420189","co2e":"0"}},{"from_stop_id":11,"to_stop_id":109,"geometry":"MULTILINESTRING((-8232076.3430167 4960853.0093532,-8703336.9431923 -203887.30825549))","attributes":{"title":"The bibles of NWTOTHS to ecuador","co2e":"0","distance":"4743.183798"}},{"from_stop_id":11,"to_stop_id":112,"geometry":"MULTILINESTRING((-8232076.3430167 4960853.0093532,-7992508.7838596 2474828.6827795))","attributes":{"title":"The bibles of NWTOTHS to turks and caicos islands","distance":"2117.538557","co2e":"0"}},{"from_stop_id":11,"to_stop_id":125,"geometry":"MULTILINESTRING((-8232076.3430167 4960853.0093532,-8604719.2289512 2050378.8023429))","attributes":{"distance":"2526.751220","co2e":"0","title":"The bibles of NWTOTHS to jamaica"}},{"from_stop_id":11,"to_stop_id":126,"geometry":"MULTILINESTRING((-8232076.3430167 4960853.0093532,-9045220.695352 2191856.8657813))","attributes":{"title":"The bibles of NWTOTHS to cayman islands","distance":"2472.287521","co2e":"0"}},{"from_stop_id":11,"to_stop_id":123,"geometry":"MULTILINESTRING((-8232076.3430167 4960853.0093532,-7412781.4774963 2063412.9210676))","attributes":{"distance":"2591.354825","title":"The bibles of NWTOTHS to puerto rico","co2e":"0"}},{"from_stop_id":11,"to_stop_id":124,"geometry":"MULTILINESTRING((-8232076.3430167 4960853.0093532,-8046753.3245622 2151543.9444501))","attributes":{"distance":"2415.791822","title":"The bibles of NWTOTHS to haiti","co2e":"0"}},{"from_stop_id":11,"to_stop_id":120,"geometry":"MULTILINESTRING((-8232076.3430167 4960853.0093532,-6831785.7968552 1737074.1776652))","attributes":{"distance":"3057.865913","co2e":"0","title":"The bibles of NWTOTHS to dominica"}},{"from_stop_id":11,"to_stop_id":121,"geometry":"MULTILINESTRING((-8232076.3430167 4960853.0093532,-6922665.9159313 1890870.7683421))","attributes":{"title":"The bibles of NWTOTHS to montserrat","co2e":"0","distance":"2888.888941"}},{"from_stop_id":11,"to_stop_id":122,"geometry":"MULTILINESTRING((-8232076.3430167 4960853.0093532,-6879146.8968456 1927905.5299867))","attributes":{"co2e":"0","title":"The bibles of NWTOTHS to antigua and barbuda","distance":"2870.835556"}},{"from_stop_id":11,"to_stop_id":119,"geometry":"MULTILINESTRING((-8232076.3430167 4960853.0093532,-6788139.3169526 1563829.3370691))","attributes":{"title":"The bibles of NWTOTHS to saint lucia","co2e":"0","distance":"3229.360138"}},{"from_stop_id":11,"to_stop_id":118,"geometry":"MULTILINESTRING((-8232076.3430167 4960853.0093532,-6628318.4806404 1481892.1055377))","attributes":{"title":"The bibles of NWTOTHS to barbados","co2e":"0","distance":"3359.849594"}},{"from_stop_id":11,"to_stop_id":117,"geometry":"MULTILINESTRING((-8232076.3430167 4960853.0093532,-6866074.8716826 1358969.7329036))","attributes":{"title":"The bibles of NWTOTHS to grenada","distance":"3391.933761","co2e":"0"}},{"from_stop_id":11,"to_stop_id":116,"geometry":"MULTILINESTRING((-8232076.3430167 4960853.0093532,-6815257.858101 1197174.420759))","attributes":{"distance":"3557.956728","co2e":"0","title":"The bibles of NWTOTHS to trinidad and tobago"}},{"from_stop_id":11,"to_stop_id":115,"geometry":"MULTILINESTRING((-8232076.3430167 4960853.0093532,-7679933.8951487 1365012.6660205))","attributes":{"distance":"3203.787473","title":"The bibles of NWTOTHS to curacao","co2e":"0"}},{"from_stop_id":11,"to_stop_id":114,"geometry":"MULTILINESTRING((-8232076.3430167 4960853.0093532,-7788839.7567274 1405072.298339))","attributes":{"distance":"3151.862927","title":"The bibles of NWTOTHS to aruba","co2e":"0"}},{"from_stop_id":11,"to_stop_id":130,"geometry":"MULTILINESTRING((-8232076.3430167 4960853.0093532,-9895916.4515114 1550614.4482931))","attributes":{"title":"The bibles of NWTOTHS to El Salvador","co2e":"0","distance":"3320.629617"}},{"from_stop_id":11,"to_stop_id":131,"geometry":"MULTILINESTRING((-8232076.3430167 4960853.0093532,-9600404.9483055 1712260.1402682))","attributes":{"co2e":"0","distance":"3069.354827","title":"The bibles of NWTOTHS to honduras"}},{"from_stop_id":11,"to_stop_id":132,"geometry":"MULTILINESTRING((-8232076.3430167 4960853.0093532,-10044442.144372 1779661.0115165))","attributes":{"co2e":"0","title":"The bibles of NWTOTHS to guatemala","distance":"3179.781339"}},{"from_stop_id":11,"to_stop_id":133,"geometry":"MULTILINESTRING((-8232076.3430167 4960853.0093532,-9851513.33303 1942939.083407))","attributes":{"co2e":"0","title":"The bibles of NWTOTHS to belize","distance":"2958.567701"}},{"from_stop_id":11,"to_stop_id":127,"geometry":"MULTILINESTRING((-8232076.3430167 4960853.0093532,-8992625.2415858 953980.90122213))","attributes":{"distance":"3634.047876","title":"The bibles of NWTOTHS to panama","co2e":"0"}},{"from_stop_id":11,"to_stop_id":128,"geometry":"MULTILINESTRING((-8232076.3430167 4960853.0093532,-9323388.9558533 1090519.2314395))","attributes":{"title":"The bibles of NWTOTHS to costa rica","co2e":"0","distance":"3569.183745"}},{"from_stop_id":11,"to_stop_id":129,"geometry":"MULTILINESTRING((-8232076.3430167 4960853.0093532,-9485225.3428655 1444360.5193557))","attributes":{"distance":"3278.694461","co2e":"0","title":"The bibles of NWTOTHS to nicaragua"}}]},"editable":false}