{"supplychain":{"category":null,"created":1348772066,"enable_comments":true,"flags":0,"id":4026,"modified":1348953856,"other_perms":1,"passcode":null,"user_featured":false,"usergroup_id":null,"usergroup_perms":0,"user_id":3006,"owner":{"id":3006,"name":"rkinna37","avatar":"http:\/\/free.sourcemap.com\/assets\/images\/default-user.png","banner_url":null,"display_name":null},"taxonomy":null,"attributes":{"description":"","tags":"","title":"Map"},"stops":[{"local_stop_id":102,"id":102,"geometry":"POINT(-11686845.336077 4827879.1955225)","attributes":{"supplychain_instance_id":"supplychain-1","stop_instance_id":"stop-34059","description":"","address":"Denver, CO, USA","title":"Adidas Outlet Store"}},{"local_stop_id":101,"id":101,"geometry":"POINT(-12820979.228563 4316407.9726479)","attributes":{"supplychain_instance_id":"supplychain-1","stop_instance_id":"stop-33882","description":"","address":"Las Vegas, NV, USA","title":"Adidas Outlet Store"}},{"local_stop_id":100,"id":100,"geometry":"POINT(-13568140.578004 4583378.665192)","attributes":{"supplychain_instance_id":"supplychain-1","stop_instance_id":"stop-33707","description":"","address":"Pittsburg, CA, USA","title":"Adidas Outlet Store"}},{"local_stop_id":99,"id":99,"geometry":"POINT(-10252579.11285 5907322.7459799)","attributes":{"supplychain_instance_id":"supplychain-1","stop_instance_id":"stop-32330","description":"","address":"Duluth, MN, USA","title":"Adidas Outlet Store"}},{"local_stop_id":98,"id":98,"geometry":"POINT(-8836895.6525945 5411933.9985733)","attributes":{"supplychain_instance_id":"supplychain-1","stop_instance_id":"stop-32159","description":"","address":"Toronto, ON, Canada","title":"Adidas Outlet Store"}},{"local_stop_id":97,"id":97,"geometry":"POINT(-10813296.334114 6428933.0818725)","attributes":{"supplychain_instance_id":"supplychain-1","stop_instance_id":"stop-31990","description":"","address":"Winnipeg, MB, Canada","title":"Adidas Outlet Store"}},{"local_stop_id":96,"id":96,"geometry":"POINT(-8238307.2400059 4970299.6279391)","attributes":{"supplychain_instance_id":"supplychain-1","stop_instance_id":"stop-31823","description":"","address":"New York, NY, USA","title":"Adidas Outlet Store"}},{"local_stop_id":95,"id":95,"geometry":"POINT(-9120633.8840043 4157029.6377266)","attributes":{"supplychain_instance_id":"supplychain-1","stop_instance_id":"stop-26057","description":"","address":"Spartanburg, SC, USA","title":"National Distribution"}},{"local_stop_id":94,"id":94,"geometry":"POINT(1163458.5521707 6650655.0402484)","attributes":{"supplychain_instance_id":"supplychain-1","stop_instance_id":"stop-25328","description":"","address":"Germany","title":"National Distribution"}},{"local_stop_id":93,"id":93,"geometry":"POINT(16138190.136875 -4552812.4182729)","attributes":{"supplychain_instance_id":"supplychain-1","stop_instance_id":"stop-22987","description":"","address":"Melbourne VIC, Australia","title":"National Distribution"}},{"local_stop_id":92,"id":92,"geometry":"POINT(-9074292.1699869 3206781.5362225)","attributes":{"supplychain_instance_id":"supplychain-1","stop_instance_id":"stop-20672","description":"","address":"Florida, USA","title":"Quality Control"}},{"local_stop_id":91,"id":91,"geometry":"POINT(-13656252.904921 5704308.1110154)","attributes":{"supplychain_instance_id":"supplychain-1","stop_instance_id":"stop-11457","description":"","address":"Portland, OR, USA","title":"Design"}},{"local_stop_id":90,"id":90,"geometry":"POINT(-8350648.5212576 -1027437.3556249)","attributes":{"supplychain_instance_id":"supplychain-1","stop_instance_id":"stop-8487","description":"","address":"Peru","title":"Factory"}},{"local_stop_id":89,"id":89,"geometry":"POINT(-6505937.617342 -2685620.3316564)","attributes":{"supplychain_instance_id":"supplychain-1","stop_instance_id":"stop-8308","description":"","address":"Paraguay","title":"Factory"}},{"local_stop_id":88,"id":88,"geometry":"POINT(-8270741.275707 509367.28126829)","attributes":{"supplychain_instance_id":"supplychain-1","stop_instance_id":"stop-8131","description":"","address":"Colombia","title":"Factory"}},{"local_stop_id":87,"id":87,"geometry":"POINT(-7964126.8778103 -4256013.6745668)","attributes":{"supplychain_instance_id":"supplychain-1","stop_instance_id":"stop-7956","description":"","address":"Chile","title":"Factory"}},{"local_stop_id":86,"id":86,"geometry":"POINT(-7081775.5320169 -4638374.2744388)","attributes":{"supplychain_instance_id":"supplychain-1","stop_instance_id":"stop-7783","description":"","address":"Argentina","title":"Factory"}},{"local_stop_id":85,"id":85,"geometry":"POINT(-5780295.7280935 -1601191.8132151)","attributes":{"supplychain_instance_id":"supplychain-1","stop_instance_id":"stop-7612","description":"","address":"Brazil","title":"Factory"}},{"local_stop_id":84,"id":84,"geometry":"POINT(-9485225.3428655 1444360.5193557)","attributes":{"supplychain_instance_id":"supplychain-1","stop_instance_id":"stop-7443","description":"","address":"Nicaragua","title":"Factory"}},{"local_stop_id":83,"id":83,"geometry":"POINT(-9600404.9483055 1712260.1402682)","attributes":{"supplychain_instance_id":"supplychain-1","stop_instance_id":"stop-7276","description":"","address":"Honduras","title":"Factory"}},{"local_stop_id":82,"id":82,"geometry":"POINT(-10044442.144372 1779661.0115165)","attributes":{"supplychain_instance_id":"supplychain-1","stop_instance_id":"stop-7111","description":"","address":"Guatemala","title":"Factory"}},{"local_stop_id":81,"id":81,"geometry":"POINT(-9895916.4515114 1550614.4482931)","attributes":{"supplychain_instance_id":"supplychain-1","stop_instance_id":"stop-6948","description":"","address":"El Salvador","title":"Factory"}},{"local_stop_id":80,"id":80,"geometry":"POINT(-7810470.5809389 2123842.6258654)","attributes":{"supplychain_instance_id":"supplychain-1","stop_instance_id":"stop-6787","description":"","address":"Dominican Republic","title":"Factory"}},{"local_stop_id":79,"id":79,"geometry":"POINT(-11416123.692723 2708933.2918558)","attributes":{"supplychain_instance_id":"supplychain-1","stop_instance_id":"stop-6628","description":"","address":"Mexico","title":"Factory"}},{"local_stop_id":78,"id":78,"geometry":"POINT(-11838468.393581 7584411.7316911)","attributes":{"supplychain_instance_id":"supplychain-1","stop_instance_id":"stop-6471","description":"","address":"Canada","title":"Factory"}},{"local_stop_id":77,"id":77,"geometry":"POINT(-10654710.286989 4451692.5541908)","attributes":{"supplychain_instance_id":"supplychain-1","stop_instance_id":"stop-6316","description":"","address":"United States","title":"Factory"}},{"local_stop_id":76,"id":76,"geometry":"POINT(915882.44620806 5912448.0540482)","attributes":{"supplychain_instance_id":"supplychain-1","stop_instance_id":"stop-6163","description":"","address":"Switzerland","title":"Factory"}},{"local_stop_id":75,"id":75,"geometry":"POINT(-915542.03120526 4779112.7409819)","attributes":{"supplychain_instance_id":"supplychain-1","stop_instance_id":"stop-6012","description":"","address":"Portugal","title":"Factory"}},{"local_stop_id":74,"id":74,"geometry":"POINT(2429471.2984153 4732306.8123197)","attributes":{"supplychain_instance_id":"supplychain-1","stop_instance_id":"stop-5863","description":"","address":"Greece","title":"Factory"}},{"local_stop_id":73,"id":73,"geometry":"POINT(246433.41138981 5816903.7126173)","attributes":{"supplychain_instance_id":"supplychain-1","stop_instance_id":"stop-5716","description":"","address":"France","title":"Factory"}},{"local_stop_id":72,"id":72,"geometry":"POINT(2420672.9398227 5102533.9557456)","attributes":{"supplychain_instance_id":"supplychain-1","stop_instance_id":"stop-5571","description":"","address":"Macedonia (FYROM)","title":"Factory"}},{"local_stop_id":71,"id":71,"geometry":"POINT(2779287.009571 5771245.4036282)","attributes":{"supplychain_instance_id":"supplychain-1","stop_instance_id":"stop-5428","description":"","address":"Romania","title":"Factory"}},{"local_stop_id":70,"id":70,"geometry":"POINT(2837069.617649 5271553.4466849)","attributes":{"supplychain_instance_id":"supplychain-1","stop_instance_id":"stop-5287","description":"","address":"Bulgaria","title":"Factory"}},{"local_stop_id":69,"id":69,"geometry":"POINT(-7874686.7431392 -3952084.9952641)","attributes":{"supplychain_instance_id":"supplychain-1","stop_instance_id":"stop-5148","description":"","address":"Herzegovina, Cerro Navia, Santiago Metropolitan Region, Chile","title":"Factory"}},{"local_stop_id":68,"id":68,"geometry":"POINT(-8138950.8652838 -4409833.3259447)","attributes":{"supplychain_instance_id":"supplychain-1","stop_instance_id":"stop-5011","description":"","address":"Bosnia, Hualp\u00e9n, Biob\u00edo Region, Chile","title":"Factory"}},{"local_stop_id":67,"id":67,"geometry":"POINT(3469336.4953941 6170212.7105816)","attributes":{"supplychain_instance_id":"supplychain-1","stop_instance_id":"stop-4876","description":"","address":"Ukraine","title":"Factory"}},{"local_stop_id":66,"id":66,"geometry":"POINT(1669287.305137 5804618.9089314)","attributes":{"supplychain_instance_id":"supplychain-1","stop_instance_id":"stop-4743","description":"","address":"Slovenia","title":"Factory"}},{"local_stop_id":65,"id":65,"geometry":"POINT(2192885.3204992 6218887.4930174)","attributes":{"supplychain_instance_id":"supplychain-1","stop_instance_id":"stop-4612","description":"","address":"Slovakia","title":"Factory"}},{"local_stop_id":64,"id":64,"geometry":"POINT(2131226.7903913 6785571.8978479)","attributes":{"supplychain_instance_id":"supplychain-1","stop_instance_id":"stop-4483","description":"","address":"Poland","title":"Factory"}},{"local_stop_id":63,"id":63,"geometry":"POINT(3158121.1516241 6009523.4670508)","attributes":{"supplychain_instance_id":"supplychain-1","stop_instance_id":"stop-4356","description":"","address":"Moldova","title":"Factory"}},{"local_stop_id":62,"id":62,"geometry":"POINT(2658451.3721241 7394820.2592118)","attributes":{"supplychain_instance_id":"supplychain-1","stop_instance_id":"stop-4231","description":"","address":"Lithuania","title":"Factory"}},{"local_stop_id":61,"id":61,"geometry":"POINT(2171097.8697642 5968637.6782985)","attributes":{"supplychain_instance_id":"supplychain-1","stop_instance_id":"stop-4108","description":"","address":"Hungary","title":"Factory"}},{"local_stop_id":59,"id":59,"geometry":"POINT(3111757.0289931 7115387.6574112)","attributes":{"supplychain_instance_id":"supplychain-1","stop_instance_id":"stop-3868","description":"","address":"Belarus","title":"Factory"}},{"local_stop_id":58,"id":58,"geometry":"POINT(2866271.0577893 8841170.3929835)","attributes":{"supplychain_instance_id":"supplychain-1","stop_instance_id":"stop-3751","description":"","address":"Finland","title":"Factory"}},{"local_stop_id":57,"id":57,"geometry":"POINT(1057733.8676799 7611135.0671694)","attributes":{"supplychain_instance_id":"supplychain-1","stop_instance_id":"stop-3636","description":"","address":"Denmark","title":"Factory"}},{"local_stop_id":56,"id":56,"geometry":"POINT(2075385.037635 8428326.964267)","attributes":{"supplychain_instance_id":"supplychain-1","stop_instance_id":"stop-3523","description":"","address":"Sweden","title":"Factory"}},{"local_stop_id":55,"id":55,"geometry":"POINT(-382490.76468619 7435586.5299477)","attributes":{"supplychain_instance_id":"supplychain-1","stop_instance_id":"stop-3412","description":"","address":"United Kingdom","title":"Factory"}},{"local_stop_id":54,"id":54,"geometry":"POINT(-417361.26121386 4933551.651775)","attributes":{"supplychain_instance_id":"supplychain-1","stop_instance_id":"stop-3303","description":"","address":"Spain","title":"Factory"}},{"local_stop_id":53,"id":53,"geometry":"POINT(1398994.3420108 5141815.9369254)","attributes":{"supplychain_instance_id":"supplychain-1","stop_instance_id":"stop-3196","description":"","address":"Italy","title":"Factory"}},{"local_stop_id":51,"id":51,"geometry":"POINT(19468217.235897 -4997684.8898554)","attributes":{"supplychain_instance_id":"supplychain-1","stop_instance_id":"stop-2988","description":"","address":"New Zealand","title":"Factory"}},{"local_stop_id":50,"id":50,"geometry":"POINT(14891780.018248 -2909486.0545921)","attributes":{"supplychain_instance_id":"supplychain-1","stop_instance_id":"stop-2887","description":"","address":"Australia","title":"Factory"}},{"local_stop_id":49,"id":49,"geometry":"POINT(4034041.7930743 3578991.1717096)","attributes":{"supplychain_instance_id":"supplychain-1","stop_instance_id":"stop-2788","description":"","address":"Jordan","title":"Factory"}},{"local_stop_id":48,"id":48,"geometry":"POINT(3879663.7006247 3638731.1870765)","attributes":{"supplychain_instance_id":"supplychain-1","stop_instance_id":"stop-2691","description":"","address":"Israel","title":"Factory"}},{"local_stop_id":47,"id":47,"geometry":"POINT(3923268.6583573 4716479.6839723)","attributes":{"supplychain_instance_id":"supplychain-1","stop_instance_id":"stop-2596","description":"","address":"Turkey","title":"Factory"}},{"local_stop_id":46,"id":46,"geometry":"POINT(11724030.287269 8747149.0475725)","attributes":{"supplychain_instance_id":"supplychain-1","stop_instance_id":"stop-2503","description":"","address":"Russia","title":"Factory"}},{"local_stop_id":45,"id":45,"geometry":"POINT(8991475.311246 879195.5175163)","attributes":{"supplychain_instance_id":"supplychain-1","stop_instance_id":"stop-2412","description":"","address":"Sri Lanka","title":"Factory"}},{"local_stop_id":44,"id":44,"geometry":"POINT(11557171.276152 150527.16261961)","attributes":{"supplychain_instance_id":"supplychain-1","stop_instance_id":"stop-2323","description":"","address":"Singapore","title":"Factory"}},{"local_stop_id":43,"id":43,"geometry":"POINT(11351890.342794 469131.36759243)","attributes":{"supplychain_instance_id":"supplychain-1","stop_instance_id":"stop-2236","description":"","address":"Malaysia","title":"Factory"}},{"local_stop_id":42,"id":42,"geometry":"POINT(12639646.123297 2535403.7287158)","attributes":{"supplychain_instance_id":"supplychain-1","stop_instance_id":"stop-2151","description":"","address":"Macau","title":"Factory"}},{"local_stop_id":41,"id":41,"geometry":"POINT(11409746.421736 2256011.8856052)","attributes":{"supplychain_instance_id":"supplychain-1","stop_instance_id":"stop-2068","description":"","address":"Laos","title":"Factory"}},{"local_stop_id":40,"id":40,"geometry":"POINT(12702611.098948 2559188.1798433)","attributes":{"supplychain_instance_id":"supplychain-1","stop_instance_id":"stop-1987","description":"","address":"Hong Kong","title":"Factory"}},{"local_stop_id":39,"id":39,"geometry":"POINT(10058420.755468 2715069.9669033)","attributes":{"supplychain_instance_id":"supplychain-1","stop_instance_id":"stop-1908","description":"","address":"Bangladesh","title":"Factory"}},{"local_stop_id":38,"id":38,"geometry":"POINT(13555821.562404 1445993.9972958)","attributes":{"supplychain_instance_id":"supplychain-1","stop_instance_id":"stop-1831","description":"","address":"Philippines","title":"Factory"}},{"local_stop_id":37,"id":37,"geometry":"POINT(7719463.0010459 3551885.6644184)","attributes":{"supplychain_instance_id":"supplychain-1","stop_instance_id":"stop-1756","description":"","address":"Pakistan","title":"Factory"}},{"local_stop_id":36,"id":36,"geometry":"POINT(11687540.537429 1410155.0120853)","attributes":{"supplychain_instance_id":"supplychain-1","stop_instance_id":"stop-1683","description":"","address":"Cambodia","title":"Factory"}},{"local_stop_id":35,"id":35,"geometry":"POINT(11242438.236474 1789676.6232449)","attributes":{"supplychain_instance_id":"supplychain-1","stop_instance_id":"stop-1612","description":"","address":"Thailand","title":"Factory"}},{"local_stop_id":34,"id":34,"geometry":"POINT(13465262.934018 2716627.9388584)","attributes":{"supplychain_instance_id":"supplychain-1","stop_instance_id":"stop-1543","description":"","address":"Taiwan","title":"Factory"}},{"local_stop_id":33,"id":33,"geometry":"POINT(14222948.695284 4287936.2888022)","attributes":{"supplychain_instance_id":"supplychain-1","stop_instance_id":"stop-1476","description":"","address":"South Korea","title":"Factory"}},{"local_stop_id":32,"id":32,"geometry":"POINT(13863950.517694 6559579.7949852)","attributes":{"supplychain_instance_id":"supplychain-1","stop_instance_id":"stop-1411","description":"","address":"Z068, Oroqen, Hulunber, Inner Mongolia, China","title":"Factory"}},{"local_stop_id":31,"id":31,"geometry":"POINT(12053362.655524 1580908.7583518)","attributes":{"supplychain_instance_id":"supplychain-1","stop_instance_id":"stop-1348","description":"","address":"Vietnam","title":"Factory"}},{"local_stop_id":30,"id":30,"geometry":"POINT(12681664.110369 -87864.47003112)","attributes":{"supplychain_instance_id":"supplychain-1","stop_instance_id":"stop-1287","description":"","address":"Indonesia","title":"Factory"}},{"local_stop_id":29,"id":29,"geometry":"POINT(8790107.5919468 2343495.1653783)","attributes":{"supplychain_instance_id":"supplychain-1","stop_instance_id":"stop-1228","description":"","address":"India","title":"Factory"}},{"local_stop_id":28,"id":28,"geometry":"POINT(11598978.535428 4281602.6590309)","attributes":{"supplychain_instance_id":"supplychain-1","stop_instance_id":"stop-1171","description":"","address":"China","title":"Factory"}},{"local_stop_id":24,"id":24,"geometry":"POINT(3502764.1800018 -3063940.4257334)","attributes":{"supplychain_instance_id":"supplychain-1","stop_instance_id":"stop-639","description":"","address":"Swaziland","title":"Factory"}},{"local_stop_id":22,"id":22,"geometry":"POINT(3502764.1800018 -3063940.4257334)","attributes":{"supplychain_instance_id":"supplychain-1","stop_instance_id":"stop-547","description":"","address":"Swaziland","title":"Factory"}},{"local_stop_id":21,"id":21,"geometry":"POINT(3142950.8653794 -3453515.3049818)","attributes":{"supplychain_instance_id":"supplychain-1","stop_instance_id":"stop-504","description":"","address":"Lesotho","title":"Factory"}},{"local_stop_id":20,"id":20,"geometry":"POINT(3142950.8653794 -3453515.3049818)","attributes":{"supplychain_instance_id":"supplychain-1","stop_instance_id":"stop-463","description":"","address":"Lesotho","title":"Factory"}},{"local_stop_id":19,"id":19,"geometry":"POINT(3142950.8653794 -3453515.3049818)","attributes":{"supplychain_instance_id":"supplychain-1","stop_instance_id":"stop-424","description":"","address":"Lesotho","title":"Factory"}},{"local_stop_id":18,"id":18,"geometry":"POINT(3142950.8653794 -3453515.3049818)","attributes":{"supplychain_instance_id":"supplychain-1","stop_instance_id":"stop-351","description":"","address":"Lesotho","title":"Factory"}},{"local_stop_id":12,"id":12,"geometry":"POINT(2553391.4876322 -3575670.6750294)","attributes":{"supplychain_instance_id":"supplychain-1","stop_instance_id":"stop-171","description":"","address":"South Africa","title":"Factory"}},{"local_stop_id":10,"id":10,"geometry":"POINT(2553391.4876322 -3575670.6750294)","attributes":{"supplychain_instance_id":"supplychain-1","stop_instance_id":"stop-127","description":"","address":"South Africa","title":"Factory"}},{"local_stop_id":9,"id":9,"geometry":"POINT(1211474.177371 6371845.747869)","attributes":{"youtube:link":"","water":"0","energy":"","co2e":"0","weight":"","title":"Design","address":"Herzogenaurach, Germany","description":"","stop_instance_id":"stop-3","supplychain_instance_id":"supplychain-1"}},{"local_stop_id":7,"id":7,"geometry":"POINT(-13063408.355418 3916307.0540157)","attributes":{"title":"Design","address":"Carlsbad, CA, USA","description":"","stop_instance_id":"stop-31","supplychain_instance_id":"supplychain-1"}},{"local_stop_id":6,"id":6,"geometry":"POINT(1061709.5319736 4013627.8298352)","attributes":{"title":"Factory","address":"Tunisia","description":"","stop_instance_id":"stop-38","supplychain_instance_id":"supplychain-1"}},{"local_stop_id":5,"id":5,"geometry":"POINT(3428918.3920435 3101070.0503622)","attributes":{"title":"Factory","address":"Egypt","description":"","stop_instance_id":"stop-123","supplychain_instance_id":"supplychain-1"}},{"local_stop_id":4,"id":4,"geometry":"POINT(3428918.3920435 3101070.0503622)","attributes":{"title":"Factory","address":"Egypt","description":"","stop_instance_id":"stop-134","supplychain_instance_id":"supplychain-1"}},{"local_stop_id":3,"id":3,"geometry":"POINT(5217445.1244492 -2127516.8215841)","attributes":{"title":"Factory","address":"Madagascar","description":"","stop_instance_id":"stop-201","supplychain_instance_id":"supplychain-1"}},{"local_stop_id":2,"id":2,"geometry":"POINT(5217445.1244492 -2127516.8215841)","attributes":{"title":"Factory","address":"Madagascar","description":"","stop_instance_id":"stop-216","supplychain_instance_id":"supplychain-1"}},{"local_stop_id":1,"id":1,"geometry":"POINT(6406676.2538053 -2314350.1593951)","attributes":{"title":"Factory","address":"Mauritius","description":""}}],"hops":[{"from_stop_id":7,"to_stop_id":6,"geometry":"MULTILINESTRING((-13063408.355418 3916307.0540157,1061709.5319736 4013627.8298352))","attributes":{"title":"Design to Factory","distance":"10723.871689","co2e":"0"}},{"from_stop_id":9,"to_stop_id":6,"geometry":"MULTILINESTRING((1211474.177371 6371845.747869,1061709.5319736 4013627.8298352))","attributes":{"title":"Design to Factory","co2e":"0","distance":"1747.184926"}},{"from_stop_id":9,"to_stop_id":5,"geometry":"MULTILINESTRING((1211474.177371 6371845.747869,3428918.3920435 3101070.0503622))","attributes":{"title":"Design to Factory","distance":"3049.874105","co2e":"0"}},{"from_stop_id":7,"to_stop_id":5,"geometry":"MULTILINESTRING((-13063408.355418 3916307.0540157,3428918.3920435 3101070.0503622))","attributes":{"co2e":"0","title":"Design to Factory","distance":"12545.127792"}},{"from_stop_id":9,"to_stop_id":4,"geometry":"MULTILINESTRING((1211474.177371 6371845.747869,3428918.3920435 3101070.0503622))","attributes":{"distance":"3049.874105","title":"Design to Factory","co2e":"0"}},{"from_stop_id":7,"to_stop_id":2,"geometry":"MULTILINESTRING((-13063408.355418 3916307.0540157,5217445.1244492 -2127516.8215841))","attributes":{"youtube:link":"","co2e_reference":"http:\/\/footprinted.org\/tanker-ship-oceanic-9827311","transport":"Tanker ship (Oceanic)","co2e":"0.000171928","title":"Design to Factory","unit":"kg","footprintmethodology":"\nCO2e factor referenced from: \n(2010) Okala Design Guide 2010","description":"","weight":"0","distance":"17773.650794"}},{"from_stop_id":7,"to_stop_id":1,"geometry":"MULTILINESTRING((-13063408.355418 3916307.0540157,6406676.2538053 -2314350.1593951))","attributes":{"title":"Design to Factory","co2e":"0","distance":"18504.103320"}},{"from_stop_id":9,"to_stop_id":3,"geometry":"MULTILINESTRING((1211474.177371 6371845.747869,5217445.1244492 -2127516.8215841))","attributes":{"distance":"8384.643421","title":"Design to Factory","co2e":"0"}},{"from_stop_id":9,"to_stop_id":1,"geometry":"MULTILINESTRING((1211474.177371 6371845.747869,6406676.2538053 -2314350.1593951))","attributes":{"co2e":"0","title":"Design to Factory","distance":"9031.651984"}},{"from_stop_id":7,"to_stop_id":10,"geometry":"MULTILINESTRING((-13063408.355418 3916307.0540157,2553391.4876322 -3575670.6750294))","attributes":{"co2e":"0","title":"Design to Factory","distance":"16275.699115"}},{"from_stop_id":7,"to_stop_id":22,"geometry":"MULTILINESTRING((-13063408.355418 3916307.0540157,3502764.1800018 -3063940.4257334))","attributes":{"distance":"16930.577930","co2e":"0","title":"Design to Factory"}},{"from_stop_id":9,"to_stop_id":24,"geometry":"MULTILINESTRING((1211474.177371 6371845.747869,3502764.1800018 -3063940.4257334))","attributes":{"title":"Design to Factory","co2e":"0","distance":"8702.963197"}},{"from_stop_id":9,"to_stop_id":12,"geometry":"MULTILINESTRING((1211474.177371 6371845.747869,2553391.4876322 -3575670.6750294))","attributes":{"title":"Design to Factory","co2e":"0","distance":"8989.354386"}},{"from_stop_id":7,"to_stop_id":86,"geometry":"MULTILINESTRING((-13063408.355418 3916307.0540157,-7081775.5320169 -4638374.2744388))","attributes":{"title":"Design to Factory","co2e":"0","distance":"9700.655679"}},{"from_stop_id":91,"to_stop_id":78,"geometry":"MULTILINESTRING((-13656252.904921 5704308.1110154,-11838468.393581 7584411.7316911))","attributes":{"co2e":"0","distance":"1637.206827","title":"Design to Factory"}},{"from_stop_id":91,"to_stop_id":77,"geometry":"MULTILINESTRING((-13656252.904921 5704308.1110154,-10654710.286989 4451692.5541908))","attributes":{"distance":"2424.898605","title":"Design to Factory","co2e":"0"}},{"from_stop_id":91,"to_stop_id":79,"geometry":"MULTILINESTRING((-13656252.904921 5704308.1110154,-11416123.692723 2708933.2918558))","attributes":{"title":"Design to Factory","co2e":"0","distance":"3034.116464"}},{"from_stop_id":91,"to_stop_id":81,"geometry":"MULTILINESTRING((-13656252.904921 5704308.1110154,-9895916.4515114 1550614.4482931))","attributes":{"distance":"4740.857625","co2e":"0","title":"Design to Factory"}},{"from_stop_id":91,"to_stop_id":80,"geometry":"MULTILINESTRING((-13656252.904921 5704308.1110154,-7810470.5809389 2123842.6258654))","attributes":{"title":"Design to Factory","co2e":"0","distance":"5640.931929"}},{"from_stop_id":91,"to_stop_id":88,"geometry":"MULTILINESTRING((-13656252.904921 5704308.1110154,-8270741.275707 509367.28126829))","attributes":{"co2e":"0","distance":"6518.075638","title":"Design to Factory"}},{"from_stop_id":91,"to_stop_id":90,"geometry":"MULTILINESTRING((-13656252.904921 5704308.1110154,-8350648.5212576 -1027437.3556249))","attributes":{"distance":"7716.792293","co2e":"0","title":"Design to Factory"}},{"from_stop_id":7,"to_stop_id":68,"geometry":"MULTILINESTRING((-13063408.355418 3916307.0540157,-8138950.8652838 -4409833.3259447))","attributes":{"distance":"9030.352890","co2e":"0","title":"Design to Factory"}},{"from_stop_id":7,"to_stop_id":89,"geometry":"MULTILINESTRING((-13063408.355418 3916307.0540157,-6505937.617342 -2685620.3316564))","attributes":{"title":"Design to Factory","distance":"8860.561891","co2e":"0"}},{"from_stop_id":7,"to_stop_id":85,"geometry":"MULTILINESTRING((-13063408.355418 3916307.0540157,-5780295.7280935 -1601191.8132151))","attributes":{"co2e":"0","title":"Design to Factory","distance":"8705.347805"}},{"from_stop_id":91,"to_stop_id":46,"geometry":"MULTILINESTRING((-13656252.904921 5704308.1110154,11724030.287269 8747149.0475725))","attributes":{"distance":"7360.249162","title":"Design to Factory","co2e":"0"}},{"from_stop_id":7,"to_stop_id":46,"geometry":"MULTILINESTRING((-13063408.355418 3916307.0540157,11724030.287269 8747149.0475725))","attributes":{"distance":"8807.218595","co2e":"0","title":"Design to Factory"}},{"from_stop_id":91,"to_stop_id":32,"geometry":"MULTILINESTRING((-13656252.904921 5704308.1110154,13863950.517694 6559579.7949851))","attributes":{"distance":"7849.159710","co2e":"0","title":"Design to Factory"}},{"from_stop_id":7,"to_stop_id":33,"geometry":"MULTILINESTRING((-13063408.355418 3916307.0540157,14222948.695284 4287936.2888022))","attributes":{"co2e":"0","distance":"9781.500508","title":"Design to Factory"}},{"from_stop_id":7,"to_stop_id":34,"geometry":"MULTILINESTRING((-13063408.355418 3916307.0540157,13465262.934018 2716627.9388584))","attributes":{"distance":"11179.132627","title":"Design to Factory","co2e":"0"}},{"from_stop_id":91,"to_stop_id":38,"geometry":"MULTILINESTRING((-13656252.904921 5704308.1110154,13555821.562404 1445993.9972958))","attributes":{"co2e":"0","title":"Design to Factory","distance":"10873.600082"}},{"from_stop_id":91,"to_stop_id":30,"geometry":"MULTILINESTRING((-13656252.904921 5704308.1110154,12681664.110369 -87864.47003112))","attributes":{"co2e":"0","title":"Design to Factory","distance":"12598.027062"}},{"from_stop_id":7,"to_stop_id":50,"geometry":"MULTILINESTRING((-13063408.355418 3916307.0540157,14891780.018248 -2909486.0545921))","attributes":{"co2e":"0","title":"Design to Factory","distance":"13185.709515"}},{"from_stop_id":91,"to_stop_id":55,"geometry":"MULTILINESTRING((-13656252.904921 5704308.1110154,-382490.76468619 7435586.5299477))","attributes":{"title":"Design to Factory","co2e":"0","distance":"7436.143865"}},{"from_stop_id":91,"to_stop_id":57,"geometry":"MULTILINESTRING((-13656252.904921 5704308.1110154,1057733.8676799 7611135.0671694))","attributes":{"distance":"7850.607655","co2e":"0","title":"Design to Factory"}},{"from_stop_id":91,"to_stop_id":56,"geometry":"MULTILINESTRING((-13656252.904921 5704308.1110154,2075385.037635 8428326.964267))","attributes":{"title":"Design to Factory","distance":"7754.391640","co2e":"0"}},{"from_stop_id":91,"to_stop_id":59,"geometry":"MULTILINESTRING((-13656252.904921 5704308.1110154,3111757.0289931 7115387.6574112))","attributes":{"title":"Design to Factory","co2e":"0","distance":"8635.127884"}},{"from_stop_id":91,"to_stop_id":54,"geometry":"MULTILINESTRING((-13656252.904921 5704308.1110154,-417361.26121386 4933551.651775))","attributes":{"title":"Design to Factory","co2e":"0","distance":"8690.655156"}},{"from_stop_id":7,"to_stop_id":73,"geometry":"MULTILINESTRING((-13063408.355418 3916307.0540157,246433.41138981 5816903.7126173))","attributes":{"title":"Design to Factory","distance":"9310.446678","co2e":"0"}},{"from_stop_id":7,"to_stop_id":53,"geometry":"MULTILINESTRING((-13063408.355418 3916307.0540157,1398994.3420108 5141815.9369254))","attributes":{"distance":"10230.241027","title":"Design to Factory","co2e":"0"}},{"from_stop_id":9,"to_stop_id":28,"geometry":"MULTILINESTRING((1211474.177371 6371845.747869,11598978.535428 4281602.6590309))","attributes":{"co2e":"0","distance":"7277.257375","title":"Design to Factory"}},{"from_stop_id":9,"to_stop_id":37,"geometry":"MULTILINESTRING((1211474.177371 6371845.747869,7719463.0010459 3551885.6644184))","attributes":{"co2e":"0","distance":"5264.710337","title":"Design to Factory"}},{"from_stop_id":9,"to_stop_id":39,"geometry":"MULTILINESTRING((1211474.177371 6371845.747869,10058420.755468 2715069.9669033))","attributes":{"title":"Design to Factory","co2e":"0","distance":"7286.200467"}},{"from_stop_id":9,"to_stop_id":29,"geometry":"MULTILINESTRING((1211474.177371 6371845.747869,8790107.5919468 2343495.1653783))","attributes":{"title":"Design to Factory","distance":"6713.015785","co2e":"0"}},{"from_stop_id":9,"to_stop_id":31,"geometry":"MULTILINESTRING((1211474.177371 6371845.747869,12053362.655524 1580908.7583518))","attributes":{"co2e":"0","distance":"9344.195379","title":"Design to Factory"}},{"from_stop_id":9,"to_stop_id":45,"geometry":"MULTILINESTRING((1211474.177371 6371845.747869,8991475.311246 879195.5175163))","attributes":{"title":"Design to Factory","distance":"7897.600145","co2e":"0"}},{"from_stop_id":9,"to_stop_id":43,"geometry":"MULTILINESTRING((1211474.177371 6371845.747869,11351890.342794 469131.36759243))","attributes":{"title":"Design to Factory","distance":"9730.000871","co2e":"0"}},{"from_stop_id":9,"to_stop_id":63,"geometry":"MULTILINESTRING((1211474.177371 6371845.747869,3158121.1516241 6009523.4670508))","attributes":{"co2e":"0","title":"Design to Factory","distance":"1307.693537"}},{"from_stop_id":9,"to_stop_id":65,"geometry":"MULTILINESTRING((1211474.177371 6371845.747869,2192885.3204992 6218887.4930174))","attributes":{"title":"Design to Factory","distance":"648.964461","co2e":"0"}},{"from_stop_id":9,"to_stop_id":47,"geometry":"MULTILINESTRING((1211474.177371 6371845.747869,3923268.6583573 4716479.6839723))","attributes":{"title":"Design to Factory","distance":"2254.759364","co2e":"0"}},{"from_stop_id":9,"to_stop_id":74,"geometry":"MULTILINESTRING((1211474.177371 6371845.747869,2429471.2984153 4732306.8123197))","attributes":{"distance":"1452.564960","co2e":"0","title":"Design to Factory"}},{"from_stop_id":10,"to_stop_id":92,"geometry":"MULTILINESTRING((2553391.4876322 -3575670.6750294,-9074292.1699869 3206781.5362225))","attributes":{"co2e":"0","title":"Factory to Quality Control","distance":"12814.144861"}},{"from_stop_id":86,"to_stop_id":92,"geometry":"MULTILINESTRING((-7081775.5320169 -4638374.2744388,-9074292.1699869 3206781.5362225))","attributes":{"co2e":"0","title":"Factory to Quality Control","distance":"7580.126893"}},{"from_stop_id":68,"to_stop_id":92,"geometry":"MULTILINESTRING((-8138950.8652838 -4409833.3259447,-9074292.1699869 3206781.5362225))","attributes":{"co2e":"0","distance":"7220.667309","title":"Factory to Quality Control"}},{"from_stop_id":12,"to_stop_id":92,"geometry":"MULTILINESTRING((2553391.4876322 -3575670.6750294,-9074292.1699869 3206781.5362225))","attributes":{"distance":"12814.144861","co2e":"0","title":"Factory to Quality Control"}},{"from_stop_id":63,"to_stop_id":92,"geometry":"MULTILINESTRING((3158121.1516241 6009523.4670508,-9074292.1699869 3206781.5362225))","attributes":{"co2e":"0","title":"Factory to Quality Control","distance":"9125.768011"}},{"from_stop_id":31,"to_stop_id":92,"geometry":"MULTILINESTRING((12053362.655524 1580908.7583518,-9074292.1699869 3206781.5362225))","attributes":{"distance":"15257.074972","co2e":"0","title":"Factory to Quality Control"}},{"from_stop_id":50,"to_stop_id":92,"geometry":"MULTILINESTRING((14891780.018248 -2909486.0545921,-9074292.1699869 3206781.5362225))","attributes":{"co2e":"0","title":"Factory to Quality Control","distance":"16504.025144"}},{"from_stop_id":1,"to_stop_id":92,"geometry":"MULTILINESTRING((6406676.2538053 -2314350.1593951,-9074292.1699869 3206781.5362225))","attributes":{"distance":"15797.977720","title":"Factory to Quality Control","co2e":"0"}},{"from_stop_id":32,"to_stop_id":92,"geometry":"MULTILINESTRING((13863950.517694 6559579.7949851,-9074292.1699869 3206781.5362225))","attributes":{"distance":"10937.533060","co2e":"0","title":"Factory to Quality Control"}},{"from_stop_id":56,"to_stop_id":92,"geometry":"MULTILINESTRING((2075385.037635 8428326.964267,-9074292.1699869 3206781.5362225))","attributes":{"distance":"7899.979991","title":"Factory to Quality Control","co2e":"0"}},{"from_stop_id":50,"to_stop_id":93,"geometry":"MULTILINESTRING((14891780.018248 -2909486.0545921,16138190.136875 -4552812.4182729))","attributes":{"distance":"1748.896980","co2e":"0","title":"Factory to National Distribution"}},{"from_stop_id":30,"to_stop_id":93,"geometry":"MULTILINESTRING((12681664.110369 -87864.47003112,16138190.136875 -4552812.4182729))","attributes":{"co2e":"0","title":"Factory to National Distribution","distance":"5198.103526"}},{"from_stop_id":38,"to_stop_id":93,"geometry":"MULTILINESTRING((13555821.562404 1445993.9972958,16138190.136875 -4552812.4182729))","attributes":{"title":"Factory to National Distribution","co2e":"0","distance":"6133.918139"}},{"from_stop_id":34,"to_stop_id":93,"geometry":"MULTILINESTRING((13465262.934018 2716627.9388584,16138190.136875 -4552812.4182729))","attributes":{"title":"Factory to National Distribution","distance":"7285.199741","co2e":"0"}},{"from_stop_id":33,"to_stop_id":93,"geometry":"MULTILINESTRING((14222948.695284 4287936.2888022,16138190.136875 -4552812.4182729))","attributes":{"distance":"8386.444271","title":"Factory to National Distribution","co2e":"0"}},{"from_stop_id":51,"to_stop_id":93,"geometry":"MULTILINESTRING((19468217.235897 -4997684.8898554,16138190.136875 -4552812.4182729))","attributes":{"title":"Factory to National Distribution","distance":"2582.047598","co2e":"0"}},{"from_stop_id":43,"to_stop_id":93,"geometry":"MULTILINESTRING((11351890.342794 469131.36759243,16138190.136875 -4552812.4182729))","attributes":{"distance":"6439.230039","co2e":"0","title":"Factory to National Distribution"}},{"from_stop_id":28,"to_stop_id":93,"geometry":"MULTILINESTRING((11598978.535428 4281602.6590309,16138190.136875 -4552812.4182729))","attributes":{"co2e":"0","distance":"9204.572734","title":"Factory to National Distribution"}},{"from_stop_id":39,"to_stop_id":93,"geometry":"MULTILINESTRING((10058420.755468 2715069.9669033,16138190.136875 -4552812.4182729))","attributes":{"title":"Factory to National Distribution","co2e":"0","distance":"8901.919276"}},{"from_stop_id":45,"to_stop_id":93,"geometry":"MULTILINESTRING((8991475.311246 879195.5175163,16138190.136875 -4552812.4182729))","attributes":{"co2e":"0","title":"Factory to National Distribution","distance":"8354.060547"}},{"from_stop_id":29,"to_stop_id":93,"geometry":"MULTILINESTRING((8790107.5919468 2343495.1653783,16138190.136875 -4552812.4182729))","attributes":{"distance":"9464.983216","co2e":"0","title":"Factory to National Distribution"}},{"from_stop_id":37,"to_stop_id":93,"geometry":"MULTILINESTRING((7719463.0010459 3551885.6644184,16138190.136875 -4552812.4182729))","attributes":{"title":"Factory to National Distribution","distance":"10907.617633","co2e":"0"}},{"from_stop_id":2,"to_stop_id":94,"geometry":"MULTILINESTRING((5217445.1244492 -2127516.8215841,1163458.5521707 6650655.0402484))","attributes":{"distance":"8547.459295","title":"Factory to National Distribution","co2e":"0"}},{"from_stop_id":46,"to_stop_id":93,"geometry":"MULTILINESTRING((11724030.287269 8747149.0475725,16138190.136875 -4552812.4182729))","attributes":{"distance":"11609.993009","title":"Factory to National Distribution","co2e":"0"}},{"from_stop_id":78,"to_stop_id":95,"geometry":"MULTILINESTRING((-11838468.393581 7584411.7316911,-9120633.8840043 4157029.6377266))","attributes":{"distance":"2993.968394","title":"Factory to National Distribution","co2e":"0"}},{"from_stop_id":77,"to_stop_id":95,"geometry":"MULTILINESTRING((-10654710.286989 4451692.5541908,-9120633.8840043 4157029.6377266))","attributes":{"distance":"1260.841341","title":"Factory to National Distribution","co2e":"0"}},{"from_stop_id":79,"to_stop_id":95,"geometry":"MULTILINESTRING((-11416123.692723 2708933.2918558,-9120633.8840043 4157029.6377266))","attributes":{"co2e":"0","title":"Factory to National Distribution","distance":"2355.033664"}},{"from_stop_id":80,"to_stop_id":95,"geometry":"MULTILINESTRING((-7810470.5809389 2123842.6258654,-9120633.8840043 4157029.6377266))","attributes":{"co2e":"0","distance":"2144.014073","title":"Factory to National Distribution"}},{"from_stop_id":81,"to_stop_id":95,"geometry":"MULTILINESTRING((-9895916.4515114 1550614.4482931,-9120633.8840043 4157029.6377266))","attributes":{"co2e":"0","distance":"2453.966382","title":"Factory to National Distribution"}},{"from_stop_id":88,"to_stop_id":95,"geometry":"MULTILINESTRING((-8270741.275707 509367.28126829,-9120633.8840043 4157029.6377266))","attributes":{"distance":"3468.119132","title":"Factory to National Distribution","co2e":"0"}},{"from_stop_id":90,"to_stop_id":95,"geometry":"MULTILINESTRING((-8350648.5212576 -1027437.3556249,-9120633.8840043 4157029.6377266))","attributes":{"distance":"4961.734886","co2e":"0","title":"Factory to National Distribution"}},{"from_stop_id":89,"to_stop_id":95,"geometry":"MULTILINESTRING((-6505937.617342 -2685620.3316564,-9120633.8840043 4157029.6377266))","attributes":{"title":"Factory to National Distribution","distance":"6949.353674","co2e":"0"}},{"from_stop_id":85,"to_stop_id":95,"geometry":"MULTILINESTRING((-5780295.7280935 -1601191.8132151,-9120633.8840043 4157029.6377266))","attributes":{"title":"Factory to National Distribution","co2e":"0","distance":"6319.123238"}},{"from_stop_id":55,"to_stop_id":94,"geometry":"MULTILINESTRING((-382490.76468619 7435586.5299477,1163458.5521707 6650655.0402484))","attributes":{"title":"Factory to National Distribution","distance":"1032.984767","co2e":"0"}},{"from_stop_id":57,"to_stop_id":94,"geometry":"MULTILINESTRING((1057733.8676799 7611135.0671694,1163458.5521707 6650655.0402484))","attributes":{"distance":"570.317011","title":"Factory to National Distribution","co2e":"0"}},{"from_stop_id":59,"to_stop_id":94,"geometry":"MULTILINESTRING((3111757.0289931 7115387.6574112,1163458.5521707 6650655.0402484))","attributes":{"title":"Factory to National Distribution","co2e":"0","distance":"1216.257068"}},{"from_stop_id":47,"to_stop_id":94,"geometry":"MULTILINESTRING((3923268.6583573 4716479.6839723,1163458.5521707 6650655.0402484))","attributes":{"distance":"2354.709267","co2e":"0","title":"Factory to National Distribution"}},{"from_stop_id":4,"to_stop_id":94,"geometry":"MULTILINESTRING((3428918.3920435 3101070.0503622,1163458.5521707 6650655.0402484))","attributes":{"title":"Factory to National Distribution","distance":"3204.515274","co2e":"0"}},{"from_stop_id":5,"to_stop_id":94,"geometry":"MULTILINESTRING((3428918.3920435 3101070.0503622,1163458.5521707 6650655.0402484))","attributes":{"distance":"3204.515274","title":"Factory to National Distribution","co2e":"0"}},{"from_stop_id":3,"to_stop_id":94,"geometry":"MULTILINESTRING((5217445.1244492 -2127516.8215841,1163458.5521707 6650655.0402484))","attributes":{"title":"Factory to National Distribution","co2e":"0","distance":"8547.459295"}},{"from_stop_id":22,"to_stop_id":94,"geometry":"MULTILINESTRING((3502764.1800018 -3063940.4257334,1163458.5521707 6650655.0402484))","attributes":{"co2e":"0","distance":"8880.927221","title":"Factory to National Distribution"}},{"from_stop_id":24,"to_stop_id":94,"geometry":"MULTILINESTRING((3502764.1800018 -3063940.4257334,1163458.5521707 6650655.0402484))","attributes":{"co2e":"0","distance":"8880.927221","title":"Factory to National Distribution"}},{"from_stop_id":91,"to_stop_id":51,"geometry":"MULTILINESTRING((-13656252.904921 5704308.1110154,19468217.235897 -4997684.8898554))","attributes":{"co2e":"0","title":"Design to Factory","distance":"11434.796219"}},{"from_stop_id":54,"to_stop_id":94,"geometry":"MULTILINESTRING((-417361.26121386 4933551.651775,1163458.5521707 6650655.0402484))","attributes":{"title":"Factory to National Distribution","distance":"1615.380329","co2e":"0"}},{"from_stop_id":73,"to_stop_id":94,"geometry":"MULTILINESTRING((246433.41138981 5816903.7126173,1163458.5521707 6650655.0402484))","attributes":{"title":"Factory to National Distribution","distance":"815.828970","co2e":"0"}},{"from_stop_id":65,"to_stop_id":94,"geometry":"MULTILINESTRING((2192885.3204992 6218887.4930174,1163458.5521707 6650655.0402484))","attributes":{"title":"Factory to National Distribution","co2e":"0","distance":"717.303259"}},{"from_stop_id":53,"to_stop_id":94,"geometry":"MULTILINESTRING((1398994.3420108 5141815.9369254,1163458.5521707 6650655.0402484))","attributes":{"co2e":"0","title":"Factory to National Distribution","distance":"1045.902189"}},{"from_stop_id":74,"to_stop_id":94,"geometry":"MULTILINESTRING((2429471.2984153 4732306.8123197,1163458.5521707 6650655.0402484))","attributes":{"co2e":"0","title":"Factory to National Distribution","distance":"1609.572672"}},{"from_stop_id":6,"to_stop_id":94,"geometry":"MULTILINESTRING((1061709.5319736 4013627.8298352,1163458.5521707 6650655.0402484))","attributes":{"title":"Factory to National Distribution","distance":"1922.732260","co2e":"0"}},{"from_stop_id":94,"to_stop_id":98,"geometry":"MULTILINESTRING((1163458.5521707 6650655.0402484,-8836895.6525945 5411933.9985733))","attributes":{"title":"National Distribution to Adidas Outlet Store","co2e":"0","distance":"6380.700069"}},{"from_stop_id":94,"to_stop_id":99,"geometry":"MULTILINESTRING((1163458.5521707 6650655.0402484,-10252579.11285 5907322.7459799))","attributes":{"distance":"6858.448587","co2e":"0","title":"National Distribution to Adidas Outlet Store"}},{"from_stop_id":93,"to_stop_id":97,"geometry":"MULTILINESTRING((16138190.136875 -4552812.4182729,-10813296.334114 6428933.0818725))","attributes":{"title":"National Distribution to Adidas Outlet Store","co2e":"0","distance":"15010.278333"}},{"from_stop_id":95,"to_stop_id":99,"geometry":"MULTILINESTRING((-9120633.8840043 4157029.6377266,-10252579.11285 5907322.7459799))","attributes":{"distance":"1566.606723","title":"National Distribution to Adidas Outlet Store","co2e":"0"}},{"from_stop_id":92,"to_stop_id":99,"geometry":"MULTILINESTRING((-9074292.1699869 3206781.5362225,-10252579.11285 5907322.7459799))","attributes":{"distance":"2318.598699","title":"Quality Control to Adidas Outlet Store","co2e":"0"}},{"from_stop_id":95,"to_stop_id":96,"geometry":"MULTILINESTRING((-9120633.8840043 4157029.6377266,-8238307.2400059 4970299.6279391))","attributes":{"distance":"945.518833","title":"National Distribution to Adidas Outlet Store","co2e":"0"}},{"from_stop_id":95,"to_stop_id":102,"geometry":"MULTILINESTRING((-9120633.8840043 4157029.6377266,-11686845.336077 4827879.1955225))","attributes":{"co2e":"0","title":"National Distribution to Adidas Outlet Store","distance":"2099.762531"}},{"from_stop_id":95,"to_stop_id":100,"geometry":"MULTILINESTRING((-9120633.8840043 4157029.6377266,-13568140.578004 4583378.665192))","attributes":{"co2e":"0","title":"National Distribution to Adidas Outlet Store","distance":"3560.665426"}},{"from_stop_id":95,"to_stop_id":101,"geometry":"MULTILINESTRING((-9120633.8840043 4157029.6377266,-12820979.228563 4316407.9726479))","attributes":{"distance":"2996.054598","co2e":"0","title":"National Distribution to Adidas Outlet Store"}}]},"editable":false}