{"type":"FeatureCollection","features":[{"type":"Feature","geometry":{"type":"Point","coordinates":[-104.98471788539,39.737566995357]},"properties":{"supplychain_instance_id":"supplychain-1","stop_instance_id":"stop-34059","description":"","address":"Denver, CO, USA","title":"Adidas Outlet Store"}},{"type":"Feature","geometry":{"type":"Point","coordinates":[-115.17281598397,36.114645995639]},"properties":{"supplychain_instance_id":"supplychain-1","stop_instance_id":"stop-33882","description":"","address":"Las Vegas, NV, USA","title":"Adidas Outlet Store"}},{"type":"Feature","geometry":{"type":"Point","coordinates":[-121.88468058303,38.027976195486]},"properties":{"supplychain_instance_id":"supplychain-1","stop_instance_id":"stop-33707","description":"","address":"Pittsburg, CA, USA","title":"Adidas Outlet Store"}},{"type":"Feature","geometry":{"type":"Point","coordinates":[-92.100485187177,46.786671894942]},"properties":{"supplychain_instance_id":"supplychain-1","stop_instance_id":"stop-32330","description":"","address":"Duluth, MN, USA","title":"Adidas Outlet Store"}},{"type":"Feature","geometry":{"type":"Point","coordinates":[-79.38318428895,43.653225995103]},"properties":{"supplychain_instance_id":"supplychain-1","stop_instance_id":"stop-32159","description":"","address":"Toronto, ON, Canada","title":"Adidas Outlet Store"}},{"type":"Feature","geometry":{"type":"Point","coordinates":[-97.137493686482,49.899754094822]},"properties":{"supplychain_instance_id":"supplychain-1","stop_instance_id":"stop-31990","description":"","address":"Winnipeg, MB, Canada","title":"Adidas Outlet Store"}},{"type":"Feature","geometry":{"type":"Point","coordinates":[-74.005973089698,40.714352795289]},"properties":{"supplychain_instance_id":"supplychain-1","stop_instance_id":"stop-31823","description":"","address":"New York, NY, USA","title":"Adidas Outlet Store"}},{"type":"Feature","geometry":{"type":"Point","coordinates":[-81.932048188595,34.949567195739]},"properties":{"supplychain_instance_id":"supplychain-1","stop_instance_id":"stop-26057","description":"","address":"Spartanburg, SC, USA","title":"National Distribution"}},{"type":"Feature","geometry":{"type":"Point","coordinates":[10.451525998545,51.165690994785]},"properties":{"supplychain_instance_id":"supplychain-1","stop_instance_id":"stop-25328","description":"","address":"Germany","title":"National Distribution"}},{"type":"Feature","geometry":{"type":"Point","coordinates":[144.97182857982,-37.811366695502]},"properties":{"supplychain_instance_id":"supplychain-1","stop_instance_id":"stop-22987","description":"","address":"Melbourne VIC, Australia","title":"National Distribution"}},{"type":"Feature","geometry":{"type":"Point","coordinates":[-81.515753488653,27.664827396449]},"properties":{"supplychain_instance_id":"supplychain-1","stop_instance_id":"stop-20672","description":"","address":"Florida, USA","title":"Quality Control"}},{"type":"Feature","geometry":{"type":"Point","coordinates":[-122.67620708292,45.523451495003]},"properties":{"supplychain_instance_id":"supplychain-1","stop_instance_id":"stop-11457","description":"","address":"Portland, OR, USA","title":"Design"}},{"type":"Feature","geometry":{"type":"Point","coordinates":[-75.015151989558,-9.1899669987314]},"properties":{"supplychain_instance_id":"supplychain-1","stop_instance_id":"stop-8487","description":"","address":"Peru","title":"Factory"}},{"type":"Feature","geometry":{"type":"Point","coordinates":[-58.443831991865,-23.442502996919]},"properties":{"supplychain_instance_id":"supplychain-1","stop_instance_id":"stop-8308","description":"","address":"Paraguay","title":"Factory"}},{"type":"Feature","geometry":{"type":"Point","coordinates":[-74.297332989658,4.5708679993651]},"properties":{"supplychain_instance_id":"supplychain-1","stop_instance_id":"stop-8131","description":"","address":"Colombia","title":"Factory"}},{"type":"Feature","geometry":{"type":"Point","coordinates":[-71.542968990041,-35.675146995677]},"properties":{"supplychain_instance_id":"supplychain-1","stop_instance_id":"stop-7956","description":"","address":"Chile","title":"Factory"}},{"type":"Feature","geometry":{"type":"Point","coordinates":[-63.616671991144,-38.416096995455]},"properties":{"supplychain_instance_id":"supplychain-1","stop_instance_id":"stop-7783","description":"","address":"Argentina","title":"Factory"}},{"type":"Feature","geometry":{"type":"Point","coordinates":[-51.925279992772,-14.235003998059]},"properties":{"supplychain_instance_id":"supplychain-1","stop_instance_id":"stop-7612","description":"","address":"Brazil","title":"Factory"}},{"type":"Feature","geometry":{"type":"Point","coordinates":[-85.207228988139,12.865415998239]},"properties":{"supplychain_instance_id":"supplychain-1","stop_instance_id":"stop-7443","description":"","address":"Nicaragua","title":"Factory"}},{"type":"Feature","geometry":{"type":"Point","coordinates":[-86.241904987995,15.199998997934]},"properties":{"supplychain_instance_id":"supplychain-1","stop_instance_id":"stop-7276","description":"","address":"Honduras","title":"Factory"}},{"type":"Feature","geometry":{"type":"Point","coordinates":[-90.230758987436,15.783470997858]},"properties":{"supplychain_instance_id":"supplychain-1","stop_instance_id":"stop-7111","description":"","address":"Guatemala","title":"Factory"}},{"type":"Feature","geometry":{"type":"Point","coordinates":[-88.896529987625,13.794184998117]},"properties":{"supplychain_instance_id":"supplychain-1","stop_instance_id":"stop-6948","description":"","address":"El Salvador","title":"Factory"}},{"type":"Feature","geometry":{"type":"Point","coordinates":[-70.162650990233,18.735692997485]},"properties":{"supplychain_instance_id":"supplychain-1","stop_instance_id":"stop-6787","description":"","address":"Dominican Republic","title":"Factory"}},{"type":"Feature","geometry":{"type":"Point","coordinates":[-102.55278398572,23.634500996897]},"properties":{"supplychain_instance_id":"supplychain-1","stop_instance_id":"stop-6628","description":"","address":"Mexico","title":"Factory"}},{"type":"Feature","geometry":{"type":"Point","coordinates":[-106.3467709852,56.130365994714]},"properties":{"supplychain_instance_id":"supplychain-1","stop_instance_id":"stop-6471","description":"","address":"Canada","title":"Factory"}},{"type":"Feature","geometry":{"type":"Point","coordinates":[-95.712890986677,37.090239995559]},"properties":{"supplychain_instance_id":"supplychain-1","stop_instance_id":"stop-6316","description":"","address":"United States","title":"Factory"}},{"type":"Feature","geometry":{"type":"Point","coordinates":[8.2275119988548,46.818187994941]},"properties":{"supplychain_instance_id":"supplychain-1","stop_instance_id":"stop-6163","description":"","address":"Switzerland","title":"Factory"}},{"type":"Feature","geometry":{"type":"Point","coordinates":[-8.2244539988552,39.399871995382]},"properties":{"supplychain_instance_id":"supplychain-1","stop_instance_id":"stop-6012","description":"","address":"Portugal","title":"Factory"}},{"type":"Feature","geometry":{"type":"Point","coordinates":[21.824311996962,39.074207995406]},"properties":{"supplychain_instance_id":"supplychain-1","stop_instance_id":"stop-5863","description":"","address":"Greece","title":"Factory"}},{"type":"Feature","geometry":{"type":"Point","coordinates":[2.2137489996918,46.227637994968]},"properties":{"supplychain_instance_id":"supplychain-1","stop_instance_id":"stop-5716","description":"","address":"France","title":"Factory"}},{"type":"Feature","geometry":{"type":"Point","coordinates":[21.745274996973,41.608634995229]},"properties":{"supplychain_instance_id":"supplychain-1","stop_instance_id":"stop-5571","description":"","address":"Macedonia (FYROM)","title":"Factory"}},{"type":"Feature","geometry":{"type":"Point","coordinates":[24.966759996525,45.943160994982]},"properties":{"supplychain_instance_id":"supplychain-1","stop_instance_id":"stop-5428","description":"","address":"Romania","title":"Factory"}},{"type":"Feature","geometry":{"type":"Point","coordinates":[25.485829996452,42.733882995158]},"properties":{"supplychain_instance_id":"supplychain-1","stop_instance_id":"stop-5287","description":"","address":"Bulgaria","title":"Factory"}},{"type":"Feature","geometry":{"type":"Point","coordinates":[-70.739514590153,-33.426743595876]},"properties":{"supplychain_instance_id":"supplychain-1","stop_instance_id":"stop-5148","description":"","address":"Herzegovina, Cerro Navia, Santiago Metropolitan Region, Chile","title":"Factory"}},{"type":"Feature","geometry":{"type":"Point","coordinates":[-73.113439589822,-36.789694595584]},"properties":{"supplychain_instance_id":"supplychain-1","stop_instance_id":"stop-5011","description":"","address":"Bosnia, Hualp\u00e9n, Biob\u00edo Region, Chile","title":"Factory"}},{"type":"Feature","geometry":{"type":"Point","coordinates":[31.165579995662,48.379432994875]},"properties":{"supplychain_instance_id":"supplychain-1","stop_instance_id":"stop-4876","description":"","address":"Ukraine","title":"Factory"}},{"type":"Feature","geometry":{"type":"Point","coordinates":[14.995462997913,46.151240994971]},"properties":{"supplychain_instance_id":"supplychain-1","stop_instance_id":"stop-4743","description":"","address":"Slovenia","title":"Factory"}},{"type":"Feature","geometry":{"type":"Point","coordinates":[19.699023997258,48.669025994865]},"properties":{"supplychain_instance_id":"supplychain-1","stop_instance_id":"stop-4612","description":"","address":"Slovakia","title":"Factory"}},{"type":"Feature","geometry":{"type":"Point","coordinates":[19.145135997335,51.919437994767]},"properties":{"supplychain_instance_id":"supplychain-1","stop_instance_id":"stop-4483","description":"","address":"Poland","title":"Factory"}},{"type":"Feature","geometry":{"type":"Point","coordinates":[28.369884996051,47.411630994914]},"properties":{"supplychain_instance_id":"supplychain-1","stop_instance_id":"stop-4356","description":"","address":"Moldova","title":"Factory"}},{"type":"Feature","geometry":{"type":"Point","coordinates":[23.881274996676,55.169437994719]},"properties":{"supplychain_instance_id":"supplychain-1","stop_instance_id":"stop-4231","description":"","address":"Lithuania","title":"Factory"}},{"type":"Feature","geometry":{"type":"Point","coordinates":[19.503303997285,47.162493994925]},"properties":{"supplychain_instance_id":"supplychain-1","stop_instance_id":"stop-4108","description":"","address":"Hungary","title":"Factory"}},{"type":"Feature","geometry":{"type":"Point","coordinates":[27.953388996109,53.709806994734]},"properties":{"supplychain_instance_id":"supplychain-1","stop_instance_id":"stop-3868","description":"","address":"Belarus","title":"Factory"}},{"type":"Feature","geometry":{"type":"Point","coordinates":[25.748150996416,61.924109994797]},"properties":{"supplychain_instance_id":"supplychain-1","stop_instance_id":"stop-3751","description":"","address":"Finland","title":"Factory"}},{"type":"Feature","geometry":{"type":"Point","coordinates":[9.5017849986771,56.263919994714]},"properties":{"supplychain_instance_id":"supplychain-1","stop_instance_id":"stop-3636","description":"","address":"Denmark","title":"Factory"}},{"type":"Feature","geometry":{"type":"Point","coordinates":[18.643500997405,60.128160994751]},"properties":{"supplychain_instance_id":"supplychain-1","stop_instance_id":"stop-3523","description":"","address":"Sweden","title":"Factory"}},{"type":"Feature","geometry":{"type":"Point","coordinates":[-3.4359729995217,55.378050994717]},"properties":{"supplychain_instance_id":"supplychain-1","stop_instance_id":"stop-3412","description":"","address":"United Kingdom","title":"Factory"}},{"type":"Feature","geometry":{"type":"Point","coordinates":[-3.7492199994781,40.463666995306]},"properties":{"supplychain_instance_id":"supplychain-1","stop_instance_id":"stop-3303","description":"","address":"Spain","title":"Factory"}},{"type":"Feature","geometry":{"type":"Point","coordinates":[12.56737999825,41.871939995212]},"properties":{"supplychain_instance_id":"supplychain-1","stop_instance_id":"stop-3196","description":"","address":"Italy","title":"Factory"}},{"type":"Feature","geometry":{"type":"Point","coordinates":[174.88597097565,-40.900556995276]},"properties":{"supplychain_instance_id":"supplychain-1","stop_instance_id":"stop-2988","description":"","address":"New Zealand","title":"Factory"}},{"type":"Feature","geometry":{"type":"Point","coordinates":[133.77513598138,-25.27439799671]},"properties":{"supplychain_instance_id":"supplychain-1","stop_instance_id":"stop-2887","description":"","address":"Australia","title":"Factory"}},{"type":"Feature","geometry":{"type":"Point","coordinates":[36.238413994956,30.585163996148]},"properties":{"supplychain_instance_id":"supplychain-1","stop_instance_id":"stop-2788","description":"","address":"Jordan","title":"Factory"}},{"type":"Feature","geometry":{"type":"Point","coordinates":[34.851611995149,31.046050996101]},"properties":{"supplychain_instance_id":"supplychain-1","stop_instance_id":"stop-2691","description":"","address":"Israel","title":"Factory"}},{"type":"Feature","geometry":{"type":"Point","coordinates":[35.243321995095,38.963744995414]},"properties":{"supplychain_instance_id":"supplychain-1","stop_instance_id":"stop-2596","description":"","address":"Turkey","title":"Factory"}},{"type":"Feature","geometry":{"type":"Point","coordinates":[105.31875598534,61.524009994785]},"properties":{"supplychain_instance_id":"supplychain-1","stop_instance_id":"stop-2503","description":"","address":"Russia","title":"Factory"}},{"type":"Feature","geometry":{"type":"Point","coordinates":[80.771796988756,7.873053998911]},"properties":{"supplychain_instance_id":"supplychain-1","stop_instance_id":"stop-2412","description":"","address":"Sri Lanka","title":"Factory"}},{"type":"Feature","geometry":{"type":"Point","coordinates":[103.81983598554,1.3520829998118]},"properties":{"supplychain_instance_id":"supplychain-1","stop_instance_id":"stop-2323","description":"","address":"Singapore","title":"Factory"}},{"type":"Feature","geometry":{"type":"Point","coordinates":[101.97576598581,4.2104839994149]},"properties":{"supplychain_instance_id":"supplychain-1","stop_instance_id":"stop-2236","description":"","address":"Malaysia","title":"Factory"}},{"type":"Feature","geometry":{"type":"Point","coordinates":[113.5438729842,22.198744997064]},"properties":{"supplychain_instance_id":"supplychain-1","stop_instance_id":"stop-2151","description":"","address":"Macau","title":"Factory"}},{"type":"Feature","geometry":{"type":"Point","coordinates":[102.49549598573,19.856269997346]},"properties":{"supplychain_instance_id":"supplychain-1","stop_instance_id":"stop-2068","description":"","address":"Laos","title":"Factory"}},{"type":"Feature","geometry":{"type":"Point","coordinates":[114.10949698411,22.396427997041]},"properties":{"supplychain_instance_id":"supplychain-1","stop_instance_id":"stop-1987","description":"","address":"Hong Kong","title":"Factory"}},{"type":"Feature","geometry":{"type":"Point","coordinates":[90.356330987419,23.684993996891]},"properties":{"supplychain_instance_id":"supplychain-1","stop_instance_id":"stop-1908","description":"","address":"Bangladesh","title":"Factory"}},{"type":"Feature","geometry":{"type":"Point","coordinates":[121.77401698304,12.879720998237]},"properties":{"supplychain_instance_id":"supplychain-1","stop_instance_id":"stop-1831","description":"","address":"Philippines","title":"Factory"}},{"type":"Feature","geometry":{"type":"Point","coordinates":[69.345115990347,30.375320996168]},"properties":{"supplychain_instance_id":"supplychain-1","stop_instance_id":"stop-1756","description":"","address":"Pakistan","title":"Factory"}},{"type":"Feature","geometry":{"type":"Point","coordinates":[104.99096298539,12.565678998279]},"properties":{"supplychain_instance_id":"supplychain-1","stop_instance_id":"stop-1683","description":"","address":"Cambodia","title":"Factory"}},{"type":"Feature","geometry":{"type":"Point","coordinates":[100.99254098594,15.870031997848]},"properties":{"supplychain_instance_id":"supplychain-1","stop_instance_id":"stop-1612","description":"","address":"Thailand","title":"Factory"}},{"type":"Feature","geometry":{"type":"Point","coordinates":[120.96051498316,23.697809996889]},"properties":{"supplychain_instance_id":"supplychain-1","stop_instance_id":"stop-1543","description":"","address":"Taiwan","title":"Factory"}},{"type":"Feature","geometry":{"type":"Point","coordinates":[127.76692198221,35.907756995657]},"properties":{"supplychain_instance_id":"supplychain-1","stop_instance_id":"stop-1476","description":"","address":"South Korea","title":"Factory"}},{"type":"Feature","geometry":{"type":"Point","coordinates":[124.54198648321,50.64980095728]},"properties":{"supplychain_instance_id":"supplychain-1","stop_instance_id":"stop-1411","description":"","address":"Z068, Oroqen, Hulunber, Inner Mongolia, China","title":"Factory"}},{"type":"Feature","geometry":{"type":"Point","coordinates":[108.27719898493,14.058323998082]},"properties":{"supplychain_instance_id":"supplychain-1","stop_instance_id":"stop-1348","description":"","address":"Vietnam","title":"Factory"}},{"type":"Feature","geometry":{"type":"Point","coordinates":[113.92132698414,-0.78927499989015]},"properties":{"supplychain_instance_id":"supplychain-1","stop_instance_id":"stop-1287","description":"","address":"Indonesia","title":"Factory"}},{"type":"Feature","geometry":{"type":"Point","coordinates":[78.962879989009,20.593683997257]},"properties":{"supplychain_instance_id":"supplychain-1","stop_instance_id":"stop-1228","description":"","address":"India","title":"Factory"}},{"type":"Feature","geometry":{"type":"Point","coordinates":[104.19539698549,35.861659995661]},"properties":{"supplychain_instance_id":"supplychain-1","stop_instance_id":"stop-1171","description":"","address":"China","title":"Factory"}},{"type":"Feature","geometry":{"type":"Point","coordinates":[31.46586599562,-26.522502996572]},"properties":{"supplychain_instance_id":"supplychain-1","stop_instance_id":"stop-639","description":"","address":"Swaziland","title":"Factory"}},{"type":"Feature","geometry":{"type":"Point","coordinates":[31.46586599562,-26.522502996572]},"properties":{"supplychain_instance_id":"supplychain-1","stop_instance_id":"stop-547","description":"","address":"Swaziland","title":"Factory"}},{"type":"Feature","geometry":{"type":"Point","coordinates":[28.23360799607,-29.609987996245]},"properties":{"supplychain_instance_id":"supplychain-1","stop_instance_id":"stop-504","description":"","address":"Lesotho","title":"Factory"}},{"type":"Feature","geometry":{"type":"Point","coordinates":[28.23360799607,-29.609987996245]},"properties":{"supplychain_instance_id":"supplychain-1","stop_instance_id":"stop-463","description":"","address":"Lesotho","title":"Factory"}},{"type":"Feature","geometry":{"type":"Point","coordinates":[28.23360799607,-29.609987996245]},"properties":{"supplychain_instance_id":"supplychain-1","stop_instance_id":"stop-424","description":"","address":"Lesotho","title":"Factory"}},{"type":"Feature","geometry":{"type":"Point","coordinates":[28.23360799607,-29.609987996245]},"properties":{"supplychain_instance_id":"supplychain-1","stop_instance_id":"stop-351","description":"","address":"Lesotho","title":"Factory"}},{"type":"Feature","geometry":{"type":"Point","coordinates":[22.937505996807,-30.55948199615]},"properties":{"supplychain_instance_id":"supplychain-1","stop_instance_id":"stop-171","description":"","address":"South Africa","title":"Factory"}},{"type":"Feature","geometry":{"type":"Point","coordinates":[22.937505996807,-30.55948199615]},"properties":{"supplychain_instance_id":"supplychain-1","stop_instance_id":"stop-127","description":"","address":"South Africa","title":"Factory"}},{"type":"Feature","geometry":{"type":"Point","coordinates":[10.882857698485,49.568298694832]},"properties":{"youtube:link":"","water":"0","energy":"","co2e":"0","weight":"","title":"Design","address":"Herzogenaurach, Germany","description":"","stop_instance_id":"stop-3","supplychain_instance_id":"supplychain-1"}},{"type":"Feature","geometry":{"type":"Point","coordinates":[-117.35059388367,33.1580932959]},"properties":{"title":"Design","address":"Carlsbad, CA, USA","description":"","stop_instance_id":"stop-31","supplychain_instance_id":"supplychain-1"}},{"type":"Feature","geometry":{"type":"Point","coordinates":[9.5374989986727,33.886916995834]},"properties":{"title":"Factory","address":"Tunisia","description":"","stop_instance_id":"stop-38","supplychain_instance_id":"supplychain-1"}},{"type":"Feature","geometry":{"type":"Point","coordinates":[30.802497995712,26.82055299654]},"properties":{"title":"Factory","address":"Egypt","description":"","stop_instance_id":"stop-123","supplychain_instance_id":"supplychain-1"}},{"type":"Feature","geometry":{"type":"Point","coordinates":[30.802497995712,26.82055299654]},"properties":{"title":"Factory","address":"Egypt","description":"","stop_instance_id":"stop-134","supplychain_instance_id":"supplychain-1"}},{"type":"Feature","geometry":{"type":"Point","coordinates":[46.869106993476,-18.766946997481]},"properties":{"title":"Factory","address":"Madagascar","description":"","stop_instance_id":"stop-201","supplychain_instance_id":"supplychain-1"}},{"type":"Feature","geometry":{"type":"Point","coordinates":[46.869106993476,-18.766946997481]},"properties":{"title":"Factory","address":"Madagascar","description":"","stop_instance_id":"stop-216","supplychain_instance_id":"supplychain-1"}},{"type":"Feature","geometry":{"type":"Point","coordinates":[57.552151991989,-20.348403997286]},"properties":{"title":"Factory","address":"Mauritius","description":""}},{"type":"Feature","geometry":{"type":"LineString","coordinates":[[-117.35059388367,33.1580932959],[9.5374989986727,33.886916995834]]},"properties":{"title":"Design to Factory","distance":"10723.871689","co2e":"0"}},{"type":"Feature","geometry":{"type":"LineString","coordinates":[[10.882857698485,49.568298694832],[9.5374989986727,33.886916995834]]},"properties":{"title":"Design to Factory","co2e":"0","distance":"1747.184926"}},{"type":"Feature","geometry":{"type":"LineString","coordinates":[[10.882857698485,49.568298694832],[30.802497995712,26.82055299654]]},"properties":{"title":"Design to Factory","distance":"3049.874105","co2e":"0"}},{"type":"Feature","geometry":{"type":"LineString","coordinates":[[-117.35059388367,33.1580932959],[30.802497995712,26.82055299654]]},"properties":{"co2e":"0","title":"Design to Factory","distance":"12545.127792"}},{"type":"Feature","geometry":{"type":"LineString","coordinates":[[10.882857698485,49.568298694832],[30.802497995712,26.82055299654]]},"properties":{"distance":"3049.874105","title":"Design to Factory","co2e":"0"}},{"type":"Feature","geometry":{"type":"LineString","coordinates":[[-117.35059388367,33.1580932959],[46.869106993476,-18.766946997481]]},"properties":{"youtube:link":"","co2e_reference":"http:\/\/footprinted.org\/tanker-ship-oceanic-9827311","transport":"Tanker ship (Oceanic)","co2e":"0.000171928","title":"Design to Factory","unit":"kg","footprintmethodology":"\nCO2e factor referenced from: \n(2010) Okala Design Guide 2010","description":"","weight":"0","distance":"17773.650794"}},{"type":"Feature","geometry":{"type":"LineString","coordinates":[[-117.35059388367,33.1580932959],[57.552151991989,-20.348403997286]]},"properties":{"title":"Design to Factory","co2e":"0","distance":"18504.103320"}},{"type":"Feature","geometry":{"type":"LineString","coordinates":[[10.882857698485,49.568298694832],[46.869106993476,-18.766946997481]]},"properties":{"distance":"8384.643421","title":"Design to Factory","co2e":"0"}},{"type":"Feature","geometry":{"type":"LineString","coordinates":[[10.882857698485,49.568298694832],[57.552151991989,-20.348403997286]]},"properties":{"co2e":"0","title":"Design to Factory","distance":"9031.651984"}},{"type":"Feature","geometry":{"type":"LineString","coordinates":[[-117.35059388367,33.1580932959],[22.937505996807,-30.55948199615]]},"properties":{"co2e":"0","title":"Design to Factory","distance":"16275.699115"}},{"type":"Feature","geometry":{"type":"LineString","coordinates":[[-117.35059388367,33.1580932959],[31.46586599562,-26.522502996572]]},"properties":{"distance":"16930.577930","co2e":"0","title":"Design to Factory"}},{"type":"Feature","geometry":{"type":"LineString","coordinates":[[10.882857698485,49.568298694832],[31.46586599562,-26.522502996572]]},"properties":{"title":"Design to Factory","co2e":"0","distance":"8702.963197"}},{"type":"Feature","geometry":{"type":"LineString","coordinates":[[10.882857698485,49.568298694832],[22.937505996807,-30.55948199615]]},"properties":{"title":"Design to Factory","co2e":"0","distance":"8989.354386"}},{"type":"Feature","geometry":{"type":"LineString","coordinates":[[-117.35059388367,33.1580932959],[-63.616671991144,-38.416096995455]]},"properties":{"title":"Design to Factory","co2e":"0","distance":"9700.655679"}},{"type":"Feature","geometry":{"type":"LineString","coordinates":[[-122.67620708292,45.523451495003],[-106.3467709852,56.130365994714]]},"properties":{"co2e":"0","distance":"1637.206827","title":"Design to Factory"}},{"type":"Feature","geometry":{"type":"LineString","coordinates":[[-122.67620708292,45.523451495003],[-95.712890986677,37.090239995559]]},"properties":{"distance":"2424.898605","title":"Design to Factory","co2e":"0"}},{"type":"Feature","geometry":{"type":"LineString","coordinates":[[-122.67620708292,45.523451495003],[-102.55278398572,23.634500996897]]},"properties":{"title":"Design to Factory","co2e":"0","distance":"3034.116464"}},{"type":"Feature","geometry":{"type":"LineString","coordinates":[[-122.67620708292,45.523451495003],[-88.896529987625,13.794184998117]]},"properties":{"distance":"4740.857625","co2e":"0","title":"Design to Factory"}},{"type":"Feature","geometry":{"type":"LineString","coordinates":[[-122.67620708292,45.523451495003],[-70.162650990233,18.735692997485]]},"properties":{"title":"Design to Factory","co2e":"0","distance":"5640.931929"}},{"type":"Feature","geometry":{"type":"LineString","coordinates":[[-122.67620708292,45.523451495003],[-74.297332989658,4.5708679993651]]},"properties":{"co2e":"0","distance":"6518.075638","title":"Design to Factory"}},{"type":"Feature","geometry":{"type":"LineString","coordinates":[[-122.67620708292,45.523451495003],[-75.015151989558,-9.1899669987314]]},"properties":{"distance":"7716.792293","co2e":"0","title":"Design to Factory"}},{"type":"Feature","geometry":{"type":"LineString","coordinates":[[-117.35059388367,33.1580932959],[-73.113439589822,-36.789694595584]]},"properties":{"distance":"9030.352890","co2e":"0","title":"Design to Factory"}},{"type":"Feature","geometry":{"type":"LineString","coordinates":[[-117.35059388367,33.1580932959],[-58.443831991865,-23.442502996919]]},"properties":{"title":"Design to Factory","distance":"8860.561891","co2e":"0"}},{"type":"Feature","geometry":{"type":"LineString","coordinates":[[-117.35059388367,33.1580932959],[-51.925279992772,-14.235003998059]]},"properties":{"co2e":"0","title":"Design to Factory","distance":"8705.347805"}},{"type":"Feature","geometry":{"type":"LineString","coordinates":[[-122.67620708292,45.523451495003],[105.31875598534,61.524009994785]]},"properties":{"distance":"7360.249162","title":"Design to Factory","co2e":"0"}},{"type":"Feature","geometry":{"type":"LineString","coordinates":[[-117.35059388367,33.1580932959],[105.31875598534,61.524009994785]]},"properties":{"distance":"8807.218595","co2e":"0","title":"Design to Factory"}},{"type":"Feature","geometry":{"type":"LineString","coordinates":[[-122.67620708292,45.523451495003],[124.54198648321,50.649800957279]]},"properties":{"distance":"7849.159710","co2e":"0","title":"Design to Factory"}},{"type":"Feature","geometry":{"type":"LineString","coordinates":[[-117.35059388367,33.1580932959],[127.76692198221,35.907756995657]]},"properties":{"co2e":"0","distance":"9781.500508","title":"Design to Factory"}},{"type":"Feature","geometry":{"type":"LineString","coordinates":[[-117.35059388367,33.1580932959],[120.96051498316,23.697809996889]]},"properties":{"distance":"11179.132627","title":"Design to Factory","co2e":"0"}},{"type":"Feature","geometry":{"type":"LineString","coordinates":[[-122.67620708292,45.523451495003],[121.77401698304,12.879720998237]]},"properties":{"co2e":"0","title":"Design to Factory","distance":"10873.600082"}},{"type":"Feature","geometry":{"type":"LineString","coordinates":[[-122.67620708292,45.523451495003],[113.92132698414,-0.78927499989015]]},"properties":{"co2e":"0","title":"Design to Factory","distance":"12598.027062"}},{"type":"Feature","geometry":{"type":"LineString","coordinates":[[-117.35059388367,33.1580932959],[133.77513598138,-25.27439799671]]},"properties":{"co2e":"0","title":"Design to Factory","distance":"13185.709515"}},{"type":"Feature","geometry":{"type":"LineString","coordinates":[[-122.67620708292,45.523451495003],[-3.4359729995217,55.378050994717]]},"properties":{"title":"Design to Factory","co2e":"0","distance":"7436.143865"}},{"type":"Feature","geometry":{"type":"LineString","coordinates":[[-122.67620708292,45.523451495003],[9.5017849986771,56.263919994714]]},"properties":{"distance":"7850.607655","co2e":"0","title":"Design to Factory"}},{"type":"Feature","geometry":{"type":"LineString","coordinates":[[-122.67620708292,45.523451495003],[18.643500997405,60.128160994751]]},"properties":{"title":"Design to Factory","distance":"7754.391640","co2e":"0"}},{"type":"Feature","geometry":{"type":"LineString","coordinates":[[-122.67620708292,45.523451495003],[27.953388996109,53.709806994734]]},"properties":{"title":"Design to Factory","co2e":"0","distance":"8635.127884"}},{"type":"Feature","geometry":{"type":"LineString","coordinates":[[-122.67620708292,45.523451495003],[-3.7492199994781,40.463666995306]]},"properties":{"title":"Design to Factory","co2e":"0","distance":"8690.655156"}},{"type":"Feature","geometry":{"type":"LineString","coordinates":[[-117.35059388367,33.1580932959],[2.2137489996918,46.227637994968]]},"properties":{"title":"Design to Factory","distance":"9310.446678","co2e":"0"}},{"type":"Feature","geometry":{"type":"LineString","coordinates":[[-117.35059388367,33.1580932959],[12.56737999825,41.871939995212]]},"properties":{"distance":"10230.241027","title":"Design to Factory","co2e":"0"}},{"type":"Feature","geometry":{"type":"LineString","coordinates":[[10.882857698485,49.568298694832],[104.19539698549,35.861659995661]]},"properties":{"co2e":"0","distance":"7277.257375","title":"Design to Factory"}},{"type":"Feature","geometry":{"type":"LineString","coordinates":[[10.882857698485,49.568298694832],[69.345115990347,30.375320996168]]},"properties":{"co2e":"0","distance":"5264.710337","title":"Design to Factory"}},{"type":"Feature","geometry":{"type":"LineString","coordinates":[[10.882857698485,49.568298694832],[90.356330987419,23.684993996891]]},"properties":{"title":"Design to Factory","co2e":"0","distance":"7286.200467"}},{"type":"Feature","geometry":{"type":"LineString","coordinates":[[10.882857698485,49.568298694832],[78.962879989009,20.593683997257]]},"properties":{"title":"Design to Factory","distance":"6713.015785","co2e":"0"}},{"type":"Feature","geometry":{"type":"LineString","coordinates":[[10.882857698485,49.568298694832],[108.27719898493,14.058323998082]]},"properties":{"co2e":"0","distance":"9344.195379","title":"Design to Factory"}},{"type":"Feature","geometry":{"type":"LineString","coordinates":[[10.882857698485,49.568298694832],[80.771796988756,7.873053998911]]},"properties":{"title":"Design to Factory","distance":"7897.600145","co2e":"0"}},{"type":"Feature","geometry":{"type":"LineString","coordinates":[[10.882857698485,49.568298694832],[101.97576598581,4.2104839994149]]},"properties":{"title":"Design to Factory","distance":"9730.000871","co2e":"0"}},{"type":"Feature","geometry":{"type":"LineString","coordinates":[[10.882857698485,49.568298694832],[28.369884996051,47.411630994914]]},"properties":{"co2e":"0","title":"Design to Factory","distance":"1307.693537"}},{"type":"Feature","geometry":{"type":"LineString","coordinates":[[10.882857698485,49.568298694832],[19.699023997258,48.669025994865]]},"properties":{"title":"Design to Factory","distance":"648.964461","co2e":"0"}},{"type":"Feature","geometry":{"type":"LineString","coordinates":[[10.882857698485,49.568298694832],[35.243321995095,38.963744995414]]},"properties":{"title":"Design to Factory","distance":"2254.759364","co2e":"0"}},{"type":"Feature","geometry":{"type":"LineString","coordinates":[[10.882857698485,49.568298694832],[21.824311996962,39.074207995406]]},"properties":{"distance":"1452.564960","co2e":"0","title":"Design to Factory"}},{"type":"Feature","geometry":{"type":"LineString","coordinates":[[22.937505996807,-30.55948199615],[-81.515753488653,27.664827396449]]},"properties":{"co2e":"0","title":"Factory to Quality Control","distance":"12814.144861"}},{"type":"Feature","geometry":{"type":"LineString","coordinates":[[-63.616671991144,-38.416096995455],[-81.515753488653,27.664827396449]]},"properties":{"co2e":"0","title":"Factory to Quality Control","distance":"7580.126893"}},{"type":"Feature","geometry":{"type":"LineString","coordinates":[[-73.113439589822,-36.789694595584],[-81.515753488653,27.664827396449]]},"properties":{"co2e":"0","distance":"7220.667309","title":"Factory to Quality Control"}},{"type":"Feature","geometry":{"type":"LineString","coordinates":[[22.937505996807,-30.55948199615],[-81.515753488653,27.664827396449]]},"properties":{"distance":"12814.144861","co2e":"0","title":"Factory to Quality Control"}},{"type":"Feature","geometry":{"type":"LineString","coordinates":[[28.369884996051,47.411630994914],[-81.515753488653,27.664827396449]]},"properties":{"co2e":"0","title":"Factory to Quality Control","distance":"9125.768011"}},{"type":"Feature","geometry":{"type":"LineString","coordinates":[[108.27719898493,14.058323998082],[-81.515753488653,27.664827396449]]},"properties":{"distance":"15257.074972","co2e":"0","title":"Factory to Quality Control"}},{"type":"Feature","geometry":{"type":"LineString","coordinates":[[133.77513598138,-25.27439799671],[-81.515753488653,27.664827396449]]},"properties":{"co2e":"0","title":"Factory to Quality Control","distance":"16504.025144"}},{"type":"Feature","geometry":{"type":"LineString","coordinates":[[57.552151991989,-20.348403997286],[-81.515753488653,27.664827396449]]},"properties":{"distance":"15797.977720","title":"Factory to Quality Control","co2e":"0"}},{"type":"Feature","geometry":{"type":"LineString","coordinates":[[124.54198648321,50.649800957279],[-81.515753488653,27.664827396449]]},"properties":{"distance":"10937.533060","co2e":"0","title":"Factory to Quality Control"}},{"type":"Feature","geometry":{"type":"LineString","coordinates":[[18.643500997405,60.128160994751],[-81.515753488653,27.664827396449]]},"properties":{"distance":"7899.979991","title":"Factory to Quality Control","co2e":"0"}},{"type":"Feature","geometry":{"type":"LineString","coordinates":[[133.77513598138,-25.27439799671],[144.97182857982,-37.811366695502]]},"properties":{"distance":"1748.896980","co2e":"0","title":"Factory to National Distribution"}},{"type":"Feature","geometry":{"type":"LineString","coordinates":[[113.92132698414,-0.78927499989015],[144.97182857982,-37.811366695502]]},"properties":{"co2e":"0","title":"Factory to National Distribution","distance":"5198.103526"}},{"type":"Feature","geometry":{"type":"LineString","coordinates":[[121.77401698304,12.879720998237],[144.97182857982,-37.811366695502]]},"properties":{"title":"Factory to National Distribution","co2e":"0","distance":"6133.918139"}},{"type":"Feature","geometry":{"type":"LineString","coordinates":[[120.96051498316,23.697809996889],[144.97182857982,-37.811366695502]]},"properties":{"title":"Factory to National Distribution","distance":"7285.199741","co2e":"0"}},{"type":"Feature","geometry":{"type":"LineString","coordinates":[[127.76692198221,35.907756995657],[144.97182857982,-37.811366695502]]},"properties":{"distance":"8386.444271","title":"Factory to National Distribution","co2e":"0"}},{"type":"Feature","geometry":{"type":"LineString","coordinates":[[174.88597097565,-40.900556995276],[144.97182857982,-37.811366695502]]},"properties":{"title":"Factory to National Distribution","distance":"2582.047598","co2e":"0"}},{"type":"Feature","geometry":{"type":"LineString","coordinates":[[101.97576598581,4.2104839994149],[144.97182857982,-37.811366695502]]},"properties":{"distance":"6439.230039","co2e":"0","title":"Factory to National Distribution"}},{"type":"Feature","geometry":{"type":"LineString","coordinates":[[104.19539698549,35.861659995661],[144.97182857982,-37.811366695502]]},"properties":{"co2e":"0","distance":"9204.572734","title":"Factory to National Distribution"}},{"type":"Feature","geometry":{"type":"LineString","coordinates":[[90.356330987419,23.684993996891],[144.97182857982,-37.811366695502]]},"properties":{"title":"Factory to National Distribution","co2e":"0","distance":"8901.919276"}},{"type":"Feature","geometry":{"type":"LineString","coordinates":[[80.771796988756,7.873053998911],[144.97182857982,-37.811366695502]]},"properties":{"co2e":"0","title":"Factory to National Distribution","distance":"8354.060547"}},{"type":"Feature","geometry":{"type":"LineString","coordinates":[[78.962879989009,20.593683997257],[144.97182857982,-37.811366695502]]},"properties":{"distance":"9464.983216","co2e":"0","title":"Factory to National Distribution"}},{"type":"Feature","geometry":{"type":"LineString","coordinates":[[69.345115990347,30.375320996168],[144.97182857982,-37.811366695502]]},"properties":{"title":"Factory to National Distribution","distance":"10907.617633","co2e":"0"}},{"type":"Feature","geometry":{"type":"LineString","coordinates":[[46.869106993476,-18.766946997481],[10.451525998545,51.165690994785]]},"properties":{"distance":"8547.459295","title":"Factory to National Distribution","co2e":"0"}},{"type":"Feature","geometry":{"type":"LineString","coordinates":[[105.31875598534,61.524009994785],[144.97182857982,-37.811366695502]]},"properties":{"distance":"11609.993009","title":"Factory to National Distribution","co2e":"0"}},{"type":"Feature","geometry":{"type":"LineString","coordinates":[[-106.3467709852,56.130365994714],[-81.932048188595,34.949567195739]]},"properties":{"distance":"2993.968394","title":"Factory to National Distribution","co2e":"0"}},{"type":"Feature","geometry":{"type":"LineString","coordinates":[[-95.712890986677,37.090239995559],[-81.932048188595,34.949567195739]]},"properties":{"distance":"1260.841341","title":"Factory to National Distribution","co2e":"0"}},{"type":"Feature","geometry":{"type":"LineString","coordinates":[[-102.55278398572,23.634500996897],[-81.932048188595,34.949567195739]]},"properties":{"co2e":"0","title":"Factory to National Distribution","distance":"2355.033664"}},{"type":"Feature","geometry":{"type":"LineString","coordinates":[[-70.162650990233,18.735692997485],[-81.932048188595,34.949567195739]]},"properties":{"co2e":"0","distance":"2144.014073","title":"Factory to National Distribution"}},{"type":"Feature","geometry":{"type":"LineString","coordinates":[[-88.896529987625,13.794184998117],[-81.932048188595,34.949567195739]]},"properties":{"co2e":"0","distance":"2453.966382","title":"Factory to National Distribution"}},{"type":"Feature","geometry":{"type":"LineString","coordinates":[[-74.297332989658,4.5708679993651],[-81.932048188595,34.949567195739]]},"properties":{"distance":"3468.119132","title":"Factory to National Distribution","co2e":"0"}},{"type":"Feature","geometry":{"type":"LineString","coordinates":[[-75.015151989558,-9.1899669987314],[-81.932048188595,34.949567195739]]},"properties":{"distance":"4961.734886","co2e":"0","title":"Factory to National Distribution"}},{"type":"Feature","geometry":{"type":"LineString","coordinates":[[-58.443831991865,-23.442502996919],[-81.932048188595,34.949567195739]]},"properties":{"title":"Factory to National Distribution","distance":"6949.353674","co2e":"0"}},{"type":"Feature","geometry":{"type":"LineString","coordinates":[[-51.925279992772,-14.235003998059],[-81.932048188595,34.949567195739]]},"properties":{"title":"Factory to National Distribution","co2e":"0","distance":"6319.123238"}},{"type":"Feature","geometry":{"type":"LineString","coordinates":[[-3.4359729995217,55.378050994717],[10.451525998545,51.165690994785]]},"properties":{"title":"Factory to National Distribution","distance":"1032.984767","co2e":"0"}},{"type":"Feature","geometry":{"type":"LineString","coordinates":[[9.5017849986771,56.263919994714],[10.451525998545,51.165690994785]]},"properties":{"distance":"570.317011","title":"Factory to National Distribution","co2e":"0"}},{"type":"Feature","geometry":{"type":"LineString","coordinates":[[27.953388996109,53.709806994734],[10.451525998545,51.165690994785]]},"properties":{"title":"Factory to National Distribution","co2e":"0","distance":"1216.257068"}},{"type":"Feature","geometry":{"type":"LineString","coordinates":[[35.243321995095,38.963744995414],[10.451525998545,51.165690994785]]},"properties":{"distance":"2354.709267","co2e":"0","title":"Factory to National Distribution"}},{"type":"Feature","geometry":{"type":"LineString","coordinates":[[30.802497995712,26.82055299654],[10.451525998545,51.165690994785]]},"properties":{"title":"Factory to National Distribution","distance":"3204.515274","co2e":"0"}},{"type":"Feature","geometry":{"type":"LineString","coordinates":[[30.802497995712,26.82055299654],[10.451525998545,51.165690994785]]},"properties":{"distance":"3204.515274","title":"Factory to National Distribution","co2e":"0"}},{"type":"Feature","geometry":{"type":"LineString","coordinates":[[46.869106993476,-18.766946997481],[10.451525998545,51.165690994785]]},"properties":{"title":"Factory to National Distribution","co2e":"0","distance":"8547.459295"}},{"type":"Feature","geometry":{"type":"LineString","coordinates":[[31.46586599562,-26.522502996572],[10.451525998545,51.165690994785]]},"properties":{"co2e":"0","distance":"8880.927221","title":"Factory to National Distribution"}},{"type":"Feature","geometry":{"type":"LineString","coordinates":[[31.46586599562,-26.522502996572],[10.451525998545,51.165690994785]]},"properties":{"co2e":"0","distance":"8880.927221","title":"Factory to National Distribution"}},{"type":"Feature","geometry":{"type":"LineString","coordinates":[[-122.67620708292,45.523451495003],[174.88597097565,-40.900556995276]]},"properties":{"co2e":"0","title":"Design to Factory","distance":"11434.796219"}},{"type":"Feature","geometry":{"type":"LineString","coordinates":[[-3.7492199994781,40.463666995306],[10.451525998545,51.165690994785]]},"properties":{"title":"Factory to National Distribution","distance":"1615.380329","co2e":"0"}},{"type":"Feature","geometry":{"type":"LineString","coordinates":[[2.2137489996918,46.227637994968],[10.451525998545,51.165690994785]]},"properties":{"title":"Factory to National Distribution","distance":"815.828970","co2e":"0"}},{"type":"Feature","geometry":{"type":"LineString","coordinates":[[19.699023997258,48.669025994865],[10.451525998545,51.165690994785]]},"properties":{"title":"Factory to National Distribution","co2e":"0","distance":"717.303259"}},{"type":"Feature","geometry":{"type":"LineString","coordinates":[[12.56737999825,41.871939995212],[10.451525998545,51.165690994785]]},"properties":{"co2e":"0","title":"Factory to National Distribution","distance":"1045.902189"}},{"type":"Feature","geometry":{"type":"LineString","coordinates":[[21.824311996962,39.074207995406],[10.451525998545,51.165690994785]]},"properties":{"co2e":"0","title":"Factory to National Distribution","distance":"1609.572672"}},{"type":"Feature","geometry":{"type":"LineString","coordinates":[[9.5374989986727,33.886916995834],[10.451525998545,51.165690994785]]},"properties":{"title":"Factory to National Distribution","distance":"1922.732260","co2e":"0"}},{"type":"Feature","geometry":{"type":"LineString","coordinates":[[10.451525998545,51.165690994785],[-79.38318428895,43.653225995103]]},"properties":{"title":"National Distribution to Adidas Outlet Store","co2e":"0","distance":"6380.700069"}},{"type":"Feature","geometry":{"type":"LineString","coordinates":[[10.451525998545,51.165690994785],[-92.100485187177,46.786671894942]]},"properties":{"distance":"6858.448587","co2e":"0","title":"National Distribution to Adidas Outlet Store"}},{"type":"Feature","geometry":{"type":"LineString","coordinates":[[144.97182857982,-37.811366695502],[-97.137493686482,49.899754094822]]},"properties":{"title":"National Distribution to Adidas Outlet Store","co2e":"0","distance":"15010.278333"}},{"type":"Feature","geometry":{"type":"LineString","coordinates":[[-81.932048188595,34.949567195739],[-92.100485187177,46.786671894942]]},"properties":{"distance":"1566.606723","title":"National Distribution to Adidas Outlet Store","co2e":"0"}},{"type":"Feature","geometry":{"type":"LineString","coordinates":[[-81.515753488653,27.664827396449],[-92.100485187177,46.786671894942]]},"properties":{"distance":"2318.598699","title":"Quality Control to Adidas Outlet Store","co2e":"0"}},{"type":"Feature","geometry":{"type":"LineString","coordinates":[[-81.932048188595,34.949567195739],[-74.005973089698,40.714352795289]]},"properties":{"distance":"945.518833","title":"National Distribution to Adidas Outlet Store","co2e":"0"}},{"type":"Feature","geometry":{"type":"LineString","coordinates":[[-81.932048188595,34.949567195739],[-104.98471788539,39.737566995357]]},"properties":{"co2e":"0","title":"National Distribution to Adidas Outlet Store","distance":"2099.762531"}},{"type":"Feature","geometry":{"type":"LineString","coordinates":[[-81.932048188595,34.949567195739],[-121.88468058303,38.027976195486]]},"properties":{"co2e":"0","title":"National Distribution to Adidas Outlet Store","distance":"3560.665426"}},{"type":"Feature","geometry":{"type":"LineString","coordinates":[[-81.932048188595,34.949567195739],[-115.17281598397,36.114645995639]]},"properties":{"distance":"2996.054598","co2e":"0","title":"National Distribution to Adidas Outlet Store"}}],"properties":{"description":"","tags":"","title":"Map"}}