{"type":"FeatureCollection","features":[{"type":"Feature","geometry":{"type":"Point","coordinates":[-55.727279000003,-25.314009999998]},"properties":{"address":"Tres de Febrero","placename":"Tres de Febrero, Paraguay","title":"Hacemos Comentarios","description":""}},{"type":"Feature","geometry":{"type":"Point","coordinates":[-58.5286102,-34.470829]},"properties":{"address":"San Isidro","placename":"San Isidro, Buenos Aires Province, Argentina","title":"Canal 4 Boulogne","description":""}},{"type":"Feature","geometry":{"type":"Point","coordinates":[-60.314941399999,-36.892089800002]},"properties":{"address":"Olavarr\u00eda","placename":"Olavarr\u00eda, Buenos Aires Province, Argentina","title":"Canal 10 de Olavarr\u00eda","description":""}},{"type":"Feature","geometry":{"type":"Point","coordinates":[-58.5286102,-34.470829]},"properties":{"address":"San Isidro","placename":"San Isidro, Buenos Aires Province, Argentina","title":"Tv Canal 8 Gaspar Campos","description":""}},{"type":"Feature","geometry":{"type":"Point","coordinates":[-58.579658500001,-34.425086999997]},"properties":{"address":"Tigre","placename":"Tigre, Buenos Aires Province, Argentina","title":"Canal 5 Tigre","description":""}},{"type":"Feature","geometry":{"type":"Point","coordinates":[-58.908329000003,-34.455905899999]},"properties":{"address":"Pilar","placename":"Pilar, Buenos Aires Province, Argentina","title":"Pilar TV 42","description":""}},{"type":"Feature","geometry":{"type":"Point","coordinates":[-63.052251000003,18.082550000001]},"properties":{"address":"San Mart\u00edn","placename":"St Martin","title":"Sin Antifaz Programa de TV","description":""}},{"type":"Feature","geometry":{"type":"Point","coordinates":[-70.595112600002,-33.579450600002]},"properties":{"address":"Trenquelauquen","placename":"Perquilauqu\u00e9n, Puente Alto, Santiago Metropolitan Region, Chile","title":"F5 Contenidos","description":""}},{"type":"Feature","geometry":{"type":"Point","coordinates":[-62.732597299996,-35.973278899998]},"properties":{"address":"Trenque Lauquen","placename":"Trenque Lauquen, Buenos Aires Province, Argentina","title":"Digital Video service","description":""}},{"type":"Feature","geometry":{"type":"Point","coordinates":[-62.732597299996,-35.973278899998]},"properties":{"address":"Trenque Lauquen","placename":"Trenque Lauquen, Buenos Aires Province, Argentina","title":"Nep cooperativo","description":""}},{"type":"Feature","geometry":{"type":"Point","coordinates":[-58.449398099997,-34.826972999997]},"properties":{"address":"Gral. Alvear","placename":"Gral. Alvear, Monte Grande, Buenos Aires Province, Argentina","title":"TV Canal 10 Alvear Ya","description":""}},{"type":"Feature","geometry":{"type":"Point","coordinates":[-60.018836999996,-34.897239700001]},"properties":{"address":"Chivilcoy","placename":"Chivilcoy, Buenos Aires Province, Argentina","title":"Integra Tv Video","description":""}},{"type":"Feature","geometry":{"type":"Point","coordinates":[-59.854038199999,-36.7749672]},"properties":{"address":"Azul","placename":"Azul, Buenos Aires Province, Argentina","title":"TV Canal 4 Canal Vida","description":""}},{"type":"Feature","geometry":{"type":"Point","coordinates":[-59.854038199999,-36.7749672]},"properties":{"address":"Azul","placename":"Azul, Buenos Aires Province, Argentina","title":"Canal 3 Tv Azul","description":""}},{"type":"Feature","geometry":{"type":"Point","coordinates":[-59.150390599998,-37.317810099997]},"properties":{"address":"Tandil","placename":"Tandil, Buenos Aires Province, Argentina","title":"Nueva Visi\u00f3n","description":""}},{"type":"Feature","geometry":{"type":"Point","coordinates":[-59.150390599998,-37.317810099997]},"properties":{"address":"Tandil","placename":"Tandil, Buenos Aires Province, Argentina","title":"Canal 21 Video","description":""}},{"type":"Feature","geometry":{"type":"Point","coordinates":[-59.150390599998,-37.317810099997]},"properties":{"address":"Tandil","placename":"Tandil, Buenos Aires Province, Argentina","title":"Canal 3 Bah\u00eda Blanca","description":""}},{"type":"Feature","geometry":{"type":"Point","coordinates":[-59.150390599998,-37.317810099997]},"properties":{"address":"Tandil","placename":"Tandil, Buenos Aires Province, Argentina","title":"Nueva Visi\u00f3n Video","description":""}},{"type":"Feature","geometry":{"type":"Point","coordinates":[-60.782662599997,-32.853318800001]},"properties":{"address":"25 de Mayo","placename":"25 de Mayo, Ibarlucea, Santa Fe Province, Argentina","title":"FORTIN MULITAS CANAL  CIRCUITO CERRADO 3TV S.A.","description":""}},{"type":"Feature","geometry":{"type":"Point","coordinates":[-73.399999999997,-38.783055599997]},"properties":{"address":"Saavedra","placename":"Saavedra, Araucan\u00eda Region, Chile","title":"SAAVEDRA TELEVISORA COLOR","description":""}},{"type":"Feature","geometry":{"type":"Point","coordinates":[-60.021339399998,-34.884971599997]},"properties":{"address":"MOQUEHUA","placename":"Moquehua, Chivilcoy, Buenos Aires Province, Argentina","title":"RED SATELITAL MOQUEHUA S.R.L","description":""}},{"type":"Feature","geometry":{"type":"Point","coordinates":[-59.032291399999,-34.098808299997]},"properties":{"address":"Zarate","placename":"Z\u00e1rate, Buenos Aires Province, Argentina","title":"LIMA VIDEO CABLE S.A CABLETEL","description":""}},{"type":"Feature","geometry":{"type":"Point","coordinates":[0,0]},"properties":{"address":"Norberto de la Riestra","title":"RIESTRA CABLE VISION S.A","description":""}},{"type":"Feature","geometry":{"type":"Point","coordinates":[16.738226599996,53.1509671]},"properties":{"address":"Pila","placename":"Pi\u0142a, Poland","title":"TELECABLE ROSIBLOCK  S.R.L","description":""}},{"type":"Feature","geometry":{"type":"Point","coordinates":[-62.960094499997,-36.7507172]},"properties":{"address":"Salliquelo","placename":"Salliquel\u00f3, Buenos Aires Province, Argentina","title":"CABLE VISION  SALLIQUELO S.R.L","description":""}},{"type":"Feature","geometry":{"type":"Point","coordinates":[-56.681926700003,-36.731178299999]},"properties":{"address":"Mar de Aj\u00f3","placename":"Mar de Aj\u00f3, Buenos Aires Province, Argentina","title":"TVC5 S. A.","description":""}},{"type":"Feature","geometry":{"type":"Point","coordinates":[-95.712890999999,37.090240000003]},"properties":{"address":"Am\u00e9rica","placename":"United States","title":"AMERICA TV S.A.","description":""}},{"type":"Feature","geometry":{"type":"Point","coordinates":[-75.713079999997,4.8133599999977]},"properties":{"address":"30 de Agosto","placename":"30 De Agosto, Pereira, Risaralda, Colombia","title":"TREINTA DE AGOSTO TELEVISORA COLOR SRL","description":""}},{"type":"Feature","geometry":{"type":"Point","coordinates":[-58.837779500001,-34.782335800002]},"properties":{"address":"Marcos Paz","placename":"Marcos Paz, Buenos Aires Province, Argentina","title":"HIDALGO, MAURICIO H\u00c9CTOR","description":""}},{"type":"Feature","geometry":{"type":"Point","coordinates":[-117.6119925,33.426972800003]},"properties":{"address":"San Clemente","placename":"San Clemente, CA, USA","title":"ATLANTIDA CABLE COLO S.R.L. (ATCCO SRL)","description":""}},{"type":"Feature","geometry":{"type":"Point","coordinates":[-60.569335900002,-33.888141600002]},"properties":{"address":"Pergamino","placename":"Pergamino, Buenos Aires Province, Argentina","title":"NEXO DIGITAL S.A.","description":""}},{"type":"Feature","geometry":{"type":"Point","coordinates":[-56.702013000004,-36.543754399999]},"properties":{"address":"Santa Teresita","placename":"Santa Teresita, Buenos Aires Province, Argentina","title":"ATLANTICA VIDEO CABLE S.A.","description":""}},{"type":"Feature","geometry":{"type":"Point","coordinates":[-58.563262900004,-34.687408400003]},"properties":{"address":"san Justo","placename":"San Justo, Buenos Aires Province, Argentina","title":"TV Canal 29","description":""}},{"type":"Feature","geometry":{"type":"Point","coordinates":[-58.563463100003,-34.609482700004]},"properties":{"address":"Caseros","placename":"Caseros, Buenos Aires Province, Argentina","title":"Cuestiones y Contrapuntos","description":""}},{"type":"Feature","geometry":{"type":"Point","coordinates":[-58.392631499998,-34.699417100001]},"properties":{"address":"Lan\u00fas","placename":"Lan\u00fas, Buenos Aires Province, Argentina","title":"Canal 31 TV Clip","description":""}},{"type":"Feature","geometry":{"type":"Point","coordinates":[-62.268077800001,-38.711677599999]},"properties":{"address":"Bah\u00eda Blanca","placename":"Bah\u00eda Blanca, Buenos Aires Province, Argentina","title":"Mas TV Canal 13 de Aire","description":""}},{"type":"Feature","geometry":{"type":"Point","coordinates":[-62.268077800001,-38.711677599999]},"properties":{"address":"Bah\u00eda Blanca","placename":"Bah\u00eda Blanca, Buenos Aires Province, Argentina","title":"Productora Jirafa TV","description":""}},{"type":"Feature","geometry":{"type":"Point","coordinates":[2.6499659999956,39.5695059]},"properties":{"address":"Ciudad Aut\u00f3noma","placename":"Palma, Balearic Islands, Spain","title":"Notitrons","description":""}},{"type":"Feature","geometry":{"type":"Point","coordinates":[-58.837779500001,-34.782335800002]},"properties":{"address":"Marcos Paz","placename":"Marcos Paz, Buenos Aires Province, Argentina","title":"Tva 4 Marcos Paz","description":""}},{"type":"Feature","geometry":{"type":"Point","coordinates":[-60.569335900002,-33.888141600002]},"properties":{"address":"Pergamino","placename":"Pergamino, Buenos Aires Province, Argentina","title":"TV Canal 11 Pergamino","description":""}},{"type":"Feature","geometry":{"type":"Point","coordinates":[-58.952640500001,-34.167480500002]},"properties":{"address":"Campana","placename":"Campana, Buenos Aires Province, Argentina","title":"Canal 5 Campana","description":""}},{"type":"Feature","geometry":{"type":"Point","coordinates":[-58.494781500002,-34.538806900001]},"properties":{"address":"Gral. Las Heras","placename":"Gral. Las Heras, Buenos Aires Province, Argentina","title":"TV 3","description":""}},{"type":"Feature","geometry":{"type":"Point","coordinates":[-58.393444099996,-34.774375899996]},"properties":{"address":"Almirante Brown","placename":"Almirante Brown, Temperley, Buenos Aires Province, Argentina","title":"Vanguard TV","description":""}},{"type":"Feature","geometry":{"type":"Point","coordinates":[0,0]},"properties":{"address":"Coronel Charlone","title":"Cablecoop","description":""}},{"type":"Feature","geometry":{"type":"Point","coordinates":[-57.954333300003,-34.921249999999]},"properties":{"address":"La Plata","placename":"La Plata, Buenos Aires Province, Argentina","title":"Registros de Cultura","description":""}},{"type":"Feature","geometry":{"type":"Point","coordinates":[-58.791382000002,-34.6340099]},"properties":{"address":"Moreno","placename":"Moreno, Buenos Aires Province, Argentina","title":"Canal 3 La Posta TV","description":""}},{"type":"Feature","geometry":{"type":"Point","coordinates":[-57.954333300003,-34.921249999999]},"properties":{"address":"La Plata","placename":"La Plata, Buenos Aires Province, Argentina","title":"Canal 27 TV A","description":""}},{"type":"Feature","geometry":{"type":"Point","coordinates":[-58.474915600003,-34.872986200002]},"properties":{"address":"Esteban Echeverria","placename":"Esteban Echeverr\u00eda, Buenos Aires Province, Argentina","title":"Canal 29 Petrus Tv","description":""}},{"type":"Feature","geometry":{"type":"Point","coordinates":[-105.319504,35.396499999999]},"properties":{"address":"Bernal","placename":"Bernal, NM 87701, USA","title":"Tv Canal 6 video","description":""}},{"type":"Feature","geometry":{"type":"Point","coordinates":[-105.319504,35.396499999999]},"properties":{"address":"Bernal","placename":"Bernal, NM 87701, USA","title":"Canal 8 Televisi\u00f3n Popular","description":""}},{"type":"Feature","geometry":{"type":"Point","coordinates":[-58.381593099999,-34.603723200003]},"properties":{"address":"CABA","placename":"Buenos Aires, Argentina","title":"TV Proy.Comunidad","description":""}},{"type":"Feature","geometry":{"type":"Point","coordinates":[-59.117431599998,-34.565731000002]},"properties":{"address":"Luj\u00e1n","placename":"Luj\u00e1n, Buenos Aires Province, Argentina","title":"Canal 3 Pares tv","description":""}},{"type":"Feature","geometry":{"type":"Point","coordinates":[-62.268077800001,-38.711677599999]},"properties":{"address":"Bah\u00eda Blanca","placename":"Bah\u00eda Blanca, Buenos Aires Province, Argentina","title":"Ambito TV","description":""}},{"type":"Feature","geometry":{"type":"Point","coordinates":[-58.392631499998,-34.699417100001]},"properties":{"address":"Lan\u00fas","placename":"Lan\u00fas, Buenos Aires Province, Argentina","title":"Tva 12 Lanus teve","description":""}},{"type":"Feature","geometry":{"type":"Point","coordinates":[-56.681926700003,-36.731178299999]},"properties":{"address":"Mar de Ajo","placename":"Mar de Aj\u00f3, Buenos Aires Province, Argentina","title":"Producciones Cacho Roman","description":""}},{"type":"Feature","geometry":{"type":"Point","coordinates":[-56.683773000004,-36.696609499998]},"properties":{"address":"San Bernardo","placename":"San Bernardo, Buenos Aires Province, Argentina","title":"Canal 9 La Costa","description":""}},{"type":"Feature","geometry":{"type":"Point","coordinates":[-56.681926700003,-36.731178299999]},"properties":{"address":"Mar de Ajo","placename":"Mar de Aj\u00f3, Buenos Aires Province, Argentina","title":"Canal 4 Mar de Ajo","description":""}},{"type":"Feature","geometry":{"type":"Point","coordinates":[4.1333333000011,51.149999999997]},"properties":{"address":"San Nicolas","placename":"Sint-Niklaas, Belgium","title":"Canal 7  Nicole\u00f1o","description":""}},{"type":"Feature","geometry":{"type":"Point","coordinates":[4.1333333000011,51.149999999997]},"properties":{"address":"San Nicolas","placename":"Sint-Niklaas, Belgium","title":"Productora de medios audiovisuales Individual","description":""}},{"type":"Feature","geometry":{"type":"Point","coordinates":[-58.573404799997,-34.529388999998]},"properties":{"address":"Jos\u00e9 Le\u00f3n Suarez","placename":"Jos\u00e9 Le\u00f3n Su\u00e1rez, Buenos Aires Province, Argentina","title":"Salem Chanel TV 64","description":""}},{"type":"Feature","geometry":{"type":"Point","coordinates":[1.6133339999957,50.725231000001]},"properties":{"address":"Boulogne","placename":"Boulogne-sur-Mer, France","title":"Agencia IP","description":""}},{"type":"Feature","geometry":{"type":"Point","coordinates":[-56.683773000004,-36.696609499998]},"properties":{"address":"San Bernardo","placename":"San Bernardo, Buenos Aires Province, Argentina","title":"OPINION DE LA COSTA","description":""}},{"type":"Feature","geometry":{"type":"Point","coordinates":[-57.589794199996,-37.979858400003]},"properties":{"address":"Mar del Plata","placename":"Mar del Plata, Buenos Aires Province, Argentina","title":"CANAL 4 MAR DEL PLATA","description":""}},{"type":"Feature","geometry":{"type":"Point","coordinates":[-57.589794199996,-37.979858400003]},"properties":{"address":"Mar del Plata","placename":"Mar del Plata, Buenos Aires Province, Argentina","title":"TV Urbana","description":""}},{"type":"Feature","geometry":{"type":"Point","coordinates":[-58.363334699996,-34.699905400004]},"properties":{"address":"Gral Madariaga","placename":"Gral. Madariaga, Buenos Aires Province, Argentina","title":"CANAL 4 MADARIAGA TV","description":""}},{"type":"Feature","geometry":{"type":"Point","coordinates":[-56.865364099999,-37.1026802]},"properties":{"address":"Pinamar","placename":"Pinamar, Buenos Aires Province, Argentina","title":"RED 6 TV","description":""}},{"type":"Feature","geometry":{"type":"Point","coordinates":[-57.954333300003,-34.921249999999]},"properties":{"address":"La Plata","placename":"La Plata, Buenos Aires Province, Argentina","title":"CANAL 6 ZONA FRANCA","description":""}},{"type":"Feature","geometry":{"type":"Point","coordinates":[-57.589794199996,-37.979858400003]},"properties":{"address":"Mar del Plata","placename":"Mar del Plata, Buenos Aires Province, Argentina","title":"ESTACION VINILO TV","description":""}},{"type":"Feature","geometry":{"type":"Point","coordinates":[-56.681926700003,-36.731178299999]},"properties":{"address":"Mar de Aj\u00f3","placename":"Mar de Aj\u00f3, Buenos Aires Province, Argentina","title":"TVC5","description":""}},{"type":"Feature","geometry":{"type":"Point","coordinates":[-58.739608799999,-38.554496800001]},"properties":{"address":"Necochea","placename":"Necochea, Buenos Aires Province, Argentina","title":"CANAL 13 AITVCOOP","description":""}},{"type":"Feature","geometry":{"type":"Point","coordinates":[-57.954333300003,-34.921249999999]},"properties":{"address":"La Plata","placename":"La Plata, Buenos Aires Province, Argentina","title":"TV QM Noticias","description":""}},{"type":"Feature","geometry":{"type":"Point","coordinates":[-58.908329000003,-34.455905899999]},"properties":{"address":"Pilar","placename":"Pilar, Buenos Aires Province, Argentina","title":"Tele Red","description":""}},{"type":"Feature","geometry":{"type":"Point","coordinates":[-58.908329000003,-34.455905899999]},"properties":{"address":"Pilar","placename":"Pilar, Buenos Aires Province, Argentina","title":"Pilar Producciones Televisivas","description":""}},{"type":"Feature","geometry":{"type":"Point","coordinates":[-58.734017199997,-34.382888400003]},"properties":{"address":"Maschwitz","placename":"Ingeniero Maschwitz, Buenos Aires Province, Argentina","title":"Telered Escobar Video","description":""}},{"type":"Feature","geometry":{"type":"Point","coordinates":[-58.908329000003,-34.455905899999]},"properties":{"address":"Pilar","placename":"Pilar, Buenos Aires Province, Argentina","title":"Tele 4 Txt","description":""}},{"type":"Feature","geometry":{"type":"Point","coordinates":[-58.908329000003,-34.455905899999]},"properties":{"address":"Pilar","placename":"Pilar, Buenos Aires Province, Argentina","title":"Tele 4 Video","description":""}},{"type":"Feature","geometry":{"type":"Point","coordinates":[16.738226599996,53.1509671]},"properties":{"address":"Pila","placename":"Pi\u0142a, Poland","title":"Informativo Semanal TV 6 Video","description":""}},{"type":"Feature","geometry":{"type":"Point","coordinates":[-60.569335900002,-33.888141600002]},"properties":{"address":"Pergamino","placename":"Pergamino, Buenos Aires Province, Argentina","title":"Canal 11 Libertad e Igualdad","description":""}},{"type":"Feature","geometry":{"type":"Point","coordinates":[0,0]},"properties":{"address":"Necochea","title":"Cablevisi\u00f3n Necochea TSN Noticias","description":""}},{"type":"Feature","geometry":{"type":"Point","coordinates":[-57.589794199996,-37.979858400003]},"properties":{"address":"Mar del Plata","placename":"Mar del Plata, Buenos Aires Province, Argentina","title":"Tv Canal 31 MDQ","description":""}},{"type":"Feature","geometry":{"type":"Point","coordinates":[-57.589794199996,-37.979858400003]},"properties":{"address":"Mar del Plata","placename":"Mar del Plata, Buenos Aires Province, Argentina","title":"television Chroma","description":""}},{"type":"Feature","geometry":{"type":"Point","coordinates":[-57.589794199996,-37.979858400003]},"properties":{"address":"Mar del Plata","placename":"Mar del Plata, Buenos Aires Province, Argentina","title":"Canal 5 Mar del Plata Video","description":""}},{"type":"Feature","geometry":{"type":"Point","coordinates":[-57.589794199996,-37.979858400003]},"properties":{"address":"Mar del Plata","placename":"Mar del Plata, Buenos Aires Province, Argentina","title":"Visi\u00f3n Sur TV Canal 2 Video","description":""}},{"type":"Feature","geometry":{"type":"Point","coordinates":[-57.589794199996,-37.979858400003]},"properties":{"address":"Mar del Plata","placename":"Mar del Plata, Buenos Aires Province, Argentina","title":"Canal 35 MDP","description":""}},{"type":"Feature","geometry":{"type":"Point","coordinates":[-57.589794199996,-37.979858400003]},"properties":{"address":"Mar del Plata","placename":"Mar del Plata, Buenos Aires Province, Argentina","title":"Televisi\u00f3n Comunitaria del Sudeste Video","description":""}},{"type":"Feature","geometry":{"type":"Point","coordinates":[-57.589794199996,-37.979858400003]},"properties":{"address":"Mar del Plata","placename":"Mar del Plata, Buenos Aires Province, Argentina","title":"Canfra Producciones","description":""}},{"type":"Feature","geometry":{"type":"Point","coordinates":[-59.097527799997,-35.185361100001]},"properties":{"address":"Lobos","placename":"Lobos, Buenos Aires Province, Argentina","title":"FEV Producciones Video","description":""}},{"type":"Feature","geometry":{"type":"Point","coordinates":[-59.097527799997,-35.185361100001]},"properties":{"address":"Lobos","placename":"Lobos, Buenos Aires Province, Argentina","title":"Canal 4 Lobos Video","description":""}},{"type":"Feature","geometry":{"type":"Point","coordinates":[-1.6760690999969,42.695390899999]},"properties":{"address":"Navarro","placename":"Navarre, Spain","title":"Canal 4 Navarro Video","description":""}},{"type":"Feature","geometry":{"type":"Point","coordinates":[-59.820125600003,-37.677768699998]},"properties":{"address":"Ameghino","placename":"Ameghino, Benito Ju\u00e1rez, Buenos Aires Province, Argentina","title":"TV Regional","description":""}},{"type":"Feature","geometry":{"type":"Point","coordinates":[-96.681679000002,40.806861999999]},"properties":{"address":"Lincoln","placename":"Lincoln, NE, USA","title":"TV Telered Lincoln","description":""}},{"type":"Feature","geometry":{"type":"Point","coordinates":[1.4442089999994,43.604651999997]},"properties":{"address":"Tolosa","placename":"Toulouse, France","title":"Canal V","description":""}},{"type":"Feature","geometry":{"type":"Point","coordinates":[-60.949553999999,-34.5885499]},"properties":{"address":"Junin","placename":"Jun\u00edn, Buenos Aires Province, Argentina","title":"TV 8 Canal Fe","description":""}},{"type":"Feature","geometry":{"type":"Point","coordinates":[-60.949553999999,-34.5885499]},"properties":{"address":"Jun\u00edn","placename":"Jun\u00edn, Buenos Aires Province, Argentina","title":"Tele Jun\u00edn video","description":""}},{"type":"Feature","geometry":{"type":"Point","coordinates":[-58.309036291884,-34.777248395755]},"properties":{"address":"San Francisco Solano, Buenos Aires Province, Argentina","placename":"Solano, Philippines","title":"Solano TV Canal 3","description":"hggjhgf hgfhgjhgj fhgghj f","weight":"0","co2e":"0","energy":"0","water":"0","youtube:link":""}},{"type":"Feature","geometry":{"type":"Point","coordinates":[-58.276012000003,-34.796580599998]},"properties":{"address":"Florencio Varela","placename":"Florencio Varela, Buenos Aires Province, Argentina","title":"Comunal TV","description":""}},{"type":"Feature","geometry":{"type":"Point","coordinates":[-58.393444099996,-34.774375899996]},"properties":{"address":"Almirante Brown","placename":"Almirante Brown, Temperley, Buenos Aires Province, Argentina","title":"Canal 29 Quilmes Visi\u00f3n Productora Independiente","description":""}},{"type":"Feature","geometry":{"type":"Point","coordinates":[-58.276012000003,-34.796580599998]},"properties":{"address":"Florencio Varela","placename":"Florencio Varela, Buenos Aires Province, Argentina","title":"Canal 5 Florencio Varela","description":""}},{"type":"Feature","geometry":{"type":"Point","coordinates":[-57.589794199996,-37.979858400003]},"properties":{"address":"Mar del Plata","placename":"Mar del Plata, Buenos Aires Province, Argentina","title":"LU 82 Canal 10","description":""}},{"type":"Feature","geometry":{"type":"Point","coordinates":[-62.732597299996,-35.973278899998]},"properties":{"address":"Trenque Lauquen","placename":"Trenque Lauquen, Buenos Aires Province, Argentina","title":"LU 91 TV Canal 12","description":""}},{"type":"Feature","geometry":{"type":"Point","coordinates":[-141.761202,-18.7513796]},"properties":{"address":"San Miguel","placename":"Nengonengo","title":"Canal 11 Provincial","description":"","weight":"0","co2e":"0","energy":"0","water":"0","flickr:setid":"http:\/\/www.flickr.com\/photos\/sheephead\/8073604661\/"}},{"type":"Feature","geometry":{"type":"Point","coordinates":[-63.052251000003,18.082550000001]},"properties":{"address":"San Mart\u00edn","placename":"St Martin","title":"canal 4 Teleaire","description":""}},{"type":"Feature","geometry":{"type":"Point","coordinates":[-58.486816500003,-34.760184299996]},"properties":{"address":"9 de Abril","placename":"9 de Abril, Buenos Aires Province, Argentina","title":"TV Canal 53","description":""}},{"type":"Feature","geometry":{"type":"Point","coordinates":[-58.486816500003,-34.760184299996]},"properties":{"address":"9 de Abril","placename":"9 de Abril, Buenos Aires Province, Argentina","title":"TV Canal 43","description":""}},{"type":"Feature","geometry":{"type":"Point","coordinates":[-58.430247600001,-34.761182300002]},"properties":{"address":"Lomas de Zamora","placename":"Lomas de Zamora, Buenos Aires Province, Argentina","title":"TV Im\u00e1genes Regionales","description":""}},{"type":"Feature","geometry":{"type":"Point","coordinates":[-58.728248300001,-34.668500400004]},"properties":{"address":"Merlo","placename":"Merlo, Buenos Aires Province, Argentina","title":"TV Canal 5 Comunitario Merlo","description":""}},{"type":"Feature","geometry":{"type":"Point","coordinates":[-80.286750100002,25.975670399996]},"properties":{"address":"Miramar","placename":"Miramar, FL, USA","title":"TV Canal 6 Nuevos Aires","description":""}},{"type":"Feature","geometry":{"type":"Point","coordinates":[-58.366973899997,-34.661075600003]},"properties":{"address":"Avellaneda","placename":"Avellaneda, Buenos Aires Province, Argentina","title":"TV Canal 10","description":""}},{"type":"Feature","geometry":{"type":"Point","coordinates":[-58.645243699996,-34.6554584]},"properties":{"address":"Castelar","placename":"Castelar, Buenos Aires Province, Argentina","title":"TV Canal 5","description":""}},{"type":"Feature","geometry":{"type":"Point","coordinates":[-58.563262900004,-34.687408400003]},"properties":{"address":"San Justo","placename":"San Justo, Buenos Aires Province, Argentina","title":"Visi\u00f3n Gospel Chanel","description":""}},{"type":"Feature","geometry":{"type":"Point","coordinates":[-58.579658500001,-34.425086999997]},"properties":{"address":"Tigre","placename":"Tigre, Buenos Aires Province, Argentina","title":"TV Visi\u00f3n Gospel canal 35","description":""}},{"type":"Feature","geometry":{"type":"Point","coordinates":[-58.392631499998,-34.699417100001]},"properties":{"address":"Lanus","placename":"Lan\u00fas, Buenos Aires Province, Argentina","title":"TV Lanus Televisi\u00f3n","description":""}},{"type":"Feature","geometry":{"type":"Point","coordinates":[0,0]},"properties":{"address":"9 de Abril","title":"TV Canal 29","description":""}},{"type":"Feature","geometry":{"type":"Point","coordinates":[-58.728248300001,-34.668500400004]},"properties":{"address":"Merlo","placename":"Merlo, Buenos Aires Province, Argentina","title":"Canal 10 Una Nueva Vision","description":""}},{"type":"Feature","geometry":{"type":"Point","coordinates":[-58.791382000002,-34.6340099]},"properties":{"address":"Moreno","placename":"Moreno, Buenos Aires Province, Argentina","title":"Canal 6 de moreno","description":""}},{"type":"Feature","geometry":{"type":"Point","coordinates":[-59.117431599998,-34.565731000002]},"properties":{"address":"Lujan","placename":"Luj\u00e1n, Buenos Aires Province, Argentina","title":"Canal 4 Lujan","description":""}},{"type":"Feature","geometry":{"type":"Point","coordinates":[-58.791382000002,-34.6340099]},"properties":{"address":"Moreno","placename":"Moreno, Buenos Aires Province, Argentina","title":"La Posta TV","description":""}},{"type":"Feature","geometry":{"type":"Point","coordinates":[-81.5157535,27.664827400001]},"properties":{"address":"Florida","placename":"Florida, USA","title":"Canal 5 Vicente Lopez","description":""}},{"type":"Feature","geometry":{"type":"Point","coordinates":[-58.255458400002,-37.846406699999]},"properties":{"address":"Balcarce","placename":"Balcarce, Buenos Aires Province, Argentina","title":"Canal 13Genesis","description":""}},{"type":"Feature","geometry":{"type":"Point","coordinates":[-57.726944000002,-37.445629099998]},"properties":{"address":"Coronel Vidal","placename":"Coronel Vidal, Buenos Aires Province, Argentina","title":"Kvnk Producciones","description":""}},{"type":"Feature","geometry":{"type":"Point","coordinates":[-57.726944000002,-37.445629099998]},"properties":{"address":"Coronel Vidal","placename":"Coronel Vidal, Buenos Aires Province, Argentina","title":"Canal C5M","description":""}},{"type":"Feature","geometry":{"type":"Point","coordinates":[-121.9552356,37.354107899997]},"properties":{"address":"Santa Clara","placename":"Santa Clara, CA, USA","title":"Marea TVC","description":""}},{"type":"Feature","geometry":{"type":"Point","coordinates":[-56.717571299998,-36.369570200003]},"properties":{"address":"San Clemente del tuyu","placename":"San Clemente del Tuy\u00fa, Buenos Aires Province, Argentina","title":"Canal 5 San Clemente","description":""}},{"type":"Feature","geometry":{"type":"Point","coordinates":[-121.9552356,37.354107899997]},"properties":{"address":"Santa Clara","placename":"Santa Clara, CA, USA","title":"Cadena Premium","description":""}},{"type":"Feature","geometry":{"type":"Point","coordinates":[-95.712890999999,37.090240000003]},"properties":{"address":"America","placename":"United States","title":"TOP VISION SRL","description":""}},{"type":"Feature","geometry":{"type":"Point","coordinates":[-62.074088999997,-38.876060500003]},"properties":{"address":"Punta Alta","placename":"Punta Alta, Buenos Aires Province, Argentina","title":"Canal 4 Punta Alta Vision","description":""}},{"type":"Feature","geometry":{"type":"Point","coordinates":[-95.712890999999,37.090240000003]},"properties":{"address":"Am\u00e9rica","placename":"United States","title":"TOP VISION SRL","description":""}},{"type":"Feature","geometry":{"type":"Point","coordinates":[-58.645243699996,-34.6554584]},"properties":{"address":"Castelar","placename":"Castelar, Buenos Aires Province, Argentina","title":"Asociaci\u00f3n Argentina de Histiocitos","description":""}},{"type":"Feature","geometry":{"type":"Point","coordinates":[-58.532002999997,-34.685519900001]},"properties":{"address":"Tablada","placename":"Tablada, Buenos Aires Province, Argentina","title":"Asociaci\u00f3n Civil Con El Alma","description":""}},{"type":"Feature","geometry":{"type":"Point","coordinates":[-2.832166700003,43.272166699998]},"properties":{"address":"Lezama","placename":"48196 Lezama, Basque Country, Spain","title":"Canal 6 Television lezama","description":""}},{"type":"Feature","geometry":{"type":"Point","coordinates":[-58.013687499999,-35.579179500002]},"properties":{"address":"Chascomus","placename":"Chascom\u00fas, Buenos Aires Province, Argentina","title":"Critica De Radio","description":""}},{"type":"Feature","geometry":{"type":"Point","coordinates":[-117.9414477,33.773905299998]},"properties":{"address":"City Bell","placename":"Garden Grove, CA, USA","title":"Medios y comunicaciones  SRL","description":""}},{"type":"Feature","geometry":{"type":"Point","coordinates":[-58.013687499999,-35.579179500002]},"properties":{"address":"Chascomus","placename":"Chascom\u00fas, Buenos Aires Province, Argentina","title":"Sport 2000","description":""}},{"type":"Feature","geometry":{"type":"Point","coordinates":[-58.013687499999,-35.579179500002]},"properties":{"address":"Chascomus","placename":"Chascom\u00fas, Buenos Aires Province, Argentina","title":"Productora De la Laguna","description":""}},{"type":"Feature","geometry":{"type":"Point","coordinates":[-58.013687499999,-35.579179500002]},"properties":{"address":"Chascomus","placename":"Chascom\u00fas, Buenos Aires Province, Argentina","title":"Chascomus Deportes","description":""}},{"type":"Feature","geometry":{"type":"Point","coordinates":[-58.013687499999,-35.579179500002]},"properties":{"address":"Chascomus","placename":"Chascom\u00fas, Buenos Aires Province, Argentina","title":"Canal 5 Chascomus Noticias","description":""}},{"type":"Feature","geometry":{"type":"Point","coordinates":[-58.013687499999,-35.579179500002]},"properties":{"address":"Chascomus","placename":"Chascom\u00fas, Buenos Aires Province, Argentina","title":"Bis","description":""}},{"type":"Feature","geometry":{"type":"Point","coordinates":[-58.013687499999,-35.579179500002]},"properties":{"address":"Chascomus","placename":"Chascom\u00fas, Buenos Aires Province, Argentina","title":"Canal 3 Chascomus","description":""}},{"type":"Feature","geometry":{"type":"Point","coordinates":[-57.954333300003,-34.921249999999]},"properties":{"address":"La Plata","placename":"La Plata, Buenos Aires Province, Argentina","title":"Producciones integrales  de radio y tv","description":""}},{"type":"Feature","geometry":{"type":"Point","coordinates":[-60.4814262,-35.119911200001]},"properties":{"address":"Bragado","placename":"Bragado, Buenos Aires Province, Argentina","title":"Bragado Tv","description":""}},{"type":"Feature","geometry":{"type":"Point","coordinates":[-60.465122199999,-34.635932900004]},"properties":{"address":"Chacabuco","placename":"Chacabuco, Buenos Aires Province, Argentina","title":"La Matera Producciones","description":""}},{"type":"Feature","geometry":{"type":"Point","coordinates":[-60.4814262,-35.119911200001]},"properties":{"address":"Bragado","placename":"Bragado, Buenos Aires Province, Argentina","title":"Canal 5","description":""}},{"type":"Feature","geometry":{"type":"Point","coordinates":[-62.268077800001,-38.711677599999]},"properties":{"address":"Bahia Blanca","placename":"Bah\u00eda Blanca, Buenos Aires Province, Argentina","title":"Canal 13 Mas TV","description":""}},{"type":"Feature","geometry":{"type":"Point","coordinates":[-62.268077800001,-38.711677599999]},"properties":{"address":"Bahia Blanca","placename":"Bah\u00eda Blanca, Buenos Aires Province, Argentina","title":"Canal 21 Bahia Blanca","description":""}},{"type":"Feature","geometry":{"type":"Point","coordinates":[-62.268077800001,-38.711677599999]},"properties":{"address":"Bahia Blanca","placename":"Bah\u00eda Blanca, Buenos Aires Province, Argentina","title":"Canal 4 Bahiavision Color","description":""}},{"type":"Feature","geometry":{"type":"Point","coordinates":[-62.268077800001,-38.711677599999]},"properties":{"address":"Bahia Blanca","placename":"Bah\u00eda Blanca, Buenos Aires Province, Argentina","title":"Canal 39 El Buen Sembrador","description":""}},{"type":"Feature","geometry":{"type":"Point","coordinates":[-62.074088999997,-38.876060500003]},"properties":{"address":"Punta Alta","placename":"Punta Alta, Buenos Aires Province, Argentina","title":"Canal 6 Airevision","description":""}},{"type":"Feature","geometry":{"type":"Point","coordinates":[-62.268077800001,-38.711677599999]},"properties":{"address":"Bahia Blanca","placename":"Bah\u00eda Blanca, Buenos Aires Province, Argentina","title":"Murrax Producciones","description":""}},{"type":"Feature","geometry":{"type":"Point","coordinates":[-141.761202,-18.7513796]},"properties":{"address":"San Miguel","placename":"Nengonengo","title":"CSM Televisi\u00f3n","description":""}},{"type":"Feature","geometry":{"type":"LineString","coordinates":[[-58.309036291884,-34.777248395755],[-58.5286102,-34.470829]]},"properties":{"distance":"18019.283755","title":"Solano TV Canal 3 to Canal 4 Boulogne","co2e":"0"}}],"properties":{"tags":"","description":"dsf dsf dsf ds","title":"asa","sm:ui:tileset":"cloudmade"}}