{"supplychain":{"category":27,"created":1349974970,"enable_comments":true,"flags":0,"id":4296,"modified":1349979760,"other_perms":1,"passcode":null,"user_featured":false,"usergroup_id":null,"usergroup_perms":0,"user_id":3691,"owner":{"id":3691,"name":"marceloferman","avatar":"http:\/\/free.sourcemap.com\/assets\/images\/default-user.png","banner_url":null,"display_name":null},"taxonomy":[{"description":"Automotive & Industrial","id":13,"left":21,"name":"industrial","right":24,"title":"Automotive & Industrial"},{"description":"Tools","id":27,"left":22,"name":"tools","right":23,"title":"Tools"}],"attributes":{"tags":"","description":"dsf dsf dsf ds","title":"asa","sm:ui:tileset":"cloudmade"},"stops":[{"local_stop_id":149,"id":149,"geometry":"POINT(-6203532.321575 -2914363.239026)","attributes":{"address":"Tres de Febrero","placename":"Tres de Febrero, Paraguay","title":"Hacemos Comentarios","description":""}},{"local_stop_id":148,"id":148,"geometry":"POINT(-6515375.084302 -4092199.433815)","attributes":{"address":"San Isidro","placename":"San Isidro, Buenos Aires Province, Argentina","title":"Canal 4 Boulogne","description":""}},{"local_stop_id":147,"id":147,"geometry":"POINT(-6714228.563874 -4424076.151592)","attributes":{"address":"Olavarr\u00eda","placename":"Olavarr\u00eda, Buenos Aires Province, Argentina","title":"Canal 10 de Olavarr\u00eda","description":""}},{"local_stop_id":146,"id":146,"geometry":"POINT(-6515375.084302 -4092199.433815)","attributes":{"address":"San Isidro","placename":"San Isidro, Buenos Aires Province, Argentina","title":"Tv Canal 8 Gaspar Campos","description":""}},{"local_stop_id":145,"id":145,"geometry":"POINT(-6521057.755064 -4086024.649123)","attributes":{"address":"Tigre","placename":"Tigre, Buenos Aires Province, Argentina","title":"Canal 5 Tigre","description":""}},{"local_stop_id":144,"id":144,"geometry":"POINT(-6557645.187763 -4090184.569334)","attributes":{"address":"Pilar","placename":"Pilar, Buenos Aires Province, Argentina","title":"Pilar TV 42","description":""}},{"local_stop_id":143,"id":143,"geometry":"POINT(-7018944.47469 2047213.142598)","attributes":{"address":"San Mart\u00edn","placename":"St Martin","title":"Sin Antifaz Programa de TV","description":""}},{"local_stop_id":142,"id":142,"geometry":"POINT(-7858611.987126 -3972471.339745)","attributes":{"address":"Trenquelauquen","placename":"Perquilauqu\u00e9n, Puente Alto, Santiago Metropolitan Region, Chile","title":"F5 Contenidos","description":""}},{"local_stop_id":141,"id":141,"geometry":"POINT(-6983360.787575 -4296945.212536)","attributes":{"address":"Trenque Lauquen","placename":"Trenque Lauquen, Buenos Aires Province, Argentina","title":"Digital Video service","description":""}},{"local_stop_id":140,"id":140,"geometry":"POINT(-6983360.787575 -4296945.212536)","attributes":{"address":"Trenque Lauquen","placename":"Trenque Lauquen, Buenos Aires Province, Argentina","title":"Nep cooperativo","description":""}},{"local_stop_id":139,"id":139,"geometry":"POINT(-6506557.233665 -4140392.255696)","attributes":{"address":"Gral. Alvear","placename":"Gral. Alvear, Monte Grande, Buenos Aires Province, Argentina","title":"TV Canal 10 Alvear Ya","description":""}},{"local_stop_id":138,"id":138,"geometry":"POINT(-6681266.372844 -4149925.183578)","attributes":{"address":"Chivilcoy","placename":"Chivilcoy, Buenos Aires Province, Argentina","title":"Integra Tv Video","description":""}},{"local_stop_id":137,"id":137,"geometry":"POINT(-6662921.054345 -4407786.362144)","attributes":{"address":"Azul","placename":"Azul, Buenos Aires Province, Argentina","title":"TV Canal 4 Canal Vida","description":""}},{"local_stop_id":136,"id":136,"geometry":"POINT(-6662921.054345 -4407786.362144)","attributes":{"address":"Azul","placename":"Azul, Buenos Aires Province, Argentina","title":"Canal 3 Tv Azul","description":""}},{"local_stop_id":135,"id":135,"geometry":"POINT(-6584591.361815 -4483498.484367)","attributes":{"address":"Tandil","placename":"Tandil, Buenos Aires Province, Argentina","title":"Nueva Visi\u00f3n","description":""}},{"local_stop_id":134,"id":134,"geometry":"POINT(-6584591.361815 -4483498.484367)","attributes":{"address":"Tandil","placename":"Tandil, Buenos Aires Province, Argentina","title":"Canal 21 Video","description":""}},{"local_stop_id":133,"id":133,"geometry":"POINT(-6584591.361815 -4483498.484367)","attributes":{"address":"Tandil","placename":"Tandil, Buenos Aires Province, Argentina","title":"Canal 3 Bah\u00eda Blanca","description":""}},{"local_stop_id":132,"id":132,"geometry":"POINT(-6584591.361815 -4483498.484367)","attributes":{"address":"Tandil","placename":"Tandil, Buenos Aires Province, Argentina","title":"Nueva Visi\u00f3n Video","description":""}},{"local_stop_id":131,"id":131,"geometry":"POINT(-6766295.049691 -3875850.63254)","attributes":{"address":"25 de Mayo","placename":"25 de Mayo, Ibarlucea, Santa Fe Province, Argentina","title":"FORTIN MULITAS CANAL  CIRCUITO CERRADO 3TV S.A.","description":""}},{"local_stop_id":130,"id":130,"geometry":"POINT(-8170850.624226 -4690643.618742)","attributes":{"address":"Saavedra","placename":"Saavedra, Araucan\u00eda Region, Chile","title":"SAAVEDRA TELEVISORA COLOR","description":""}},{"local_stop_id":129,"id":129,"geometry":"POINT(-6681544.938738 -4148260.210506)","attributes":{"address":"MOQUEHUA","placename":"Moquehua, Chivilcoy, Buenos Aires Province, Argentina","title":"RED SATELITAL MOQUEHUA S.R.L","description":""}},{"local_stop_id":128,"id":128,"geometry":"POINT(-6571444.619008 -4042077.295766)","attributes":{"address":"Zarate","placename":"Z\u00e1rate, Buenos Aires Province, Argentina","title":"LIMA VIDEO CABLE S.A CABLETEL","description":""}},{"local_stop_id":127,"id":127,"geometry":"POINT(0 -0)","attributes":{"address":"Norberto de la Riestra","title":"RIESTRA CABLE VISION S.A","description":""}},{"local_stop_id":126,"id":126,"geometry":"POINT(1863290.861894 7010971.71533)","attributes":{"address":"Pila","placename":"Pi\u0142a, Poland","title":"TELECABLE ROSIBLOCK  S.R.L","description":""}},{"local_stop_id":125,"id":125,"geometry":"POINT(-7008685.660036 -4404416.706217)","attributes":{"address":"Salliquelo","placename":"Salliquel\u00f3, Buenos Aires Province, Argentina","title":"CABLE VISION  SALLIQUELO S.R.L","description":""}},{"local_stop_id":124,"id":124,"geometry":"POINT(-6309803.217426 -4401702.455333)","attributes":{"address":"Mar de Aj\u00f3","placename":"Mar de Aj\u00f3, Buenos Aires Province, Argentina","title":"TVC5 S. A.","description":""}},{"local_stop_id":123,"id":123,"geometry":"POINT(-10654710.288472 4451692.554811)","attributes":{"address":"Am\u00e9rica","placename":"United States","title":"AMERICA TV S.A.","description":""}},{"local_stop_id":122,"id":122,"geometry":"POINT(-8428341.51199 536452.158483)","attributes":{"address":"30 de Agosto","placename":"30 De Agosto, Pereira, Risaralda, Colombia","title":"TREINTA DE AGOSTO TELEVISORA COLOR SRL","description":""}},{"local_stop_id":121,"id":121,"geometry":"POINT(-6549791.653347 -4134340.650038)","attributes":{"address":"Marcos Paz","placename":"Marcos Paz, Buenos Aires Province, Argentina","title":"HIDALGO, MAURICIO H\u00c9CTOR","description":""}},{"local_stop_id":120,"id":120,"geometry":"POINT(-13092507.116282 3952115.567036)","attributes":{"address":"San Clemente","placename":"San Clemente, CA, USA","title":"ATLANTIDA CABLE COLO S.R.L. (ATCCO SRL)","description":""}},{"local_stop_id":119,"id":119,"geometry":"POINT(-6742547.630075 -4013792.04714)","attributes":{"address":"Pergamino","placename":"Pergamino, Buenos Aires Province, Argentina","title":"NEXO DIGITAL S.A.","description":""}},{"local_stop_id":118,"id":118,"geometry":"POINT(-6312039.214114 -4375701.408958)","attributes":{"address":"Santa Teresita","placename":"Santa Teresita, Buenos Aires Province, Argentina","title":"ATLANTICA VIDEO CABLE S.A.","description":""}},{"local_stop_id":117,"id":117,"geometry":"POINT(-6519232.605221 -4121481.918534)","attributes":{"address":"san Justo","placename":"San Justo, Buenos Aires Province, Argentina","title":"TV Canal 29","description":""}},{"local_stop_id":116,"id":116,"geometry":"POINT(-6519254.891383 -4110937.230168)","attributes":{"address":"Caseros","placename":"Caseros, Buenos Aires Province, Argentina","title":"Cuestiones y Contrapuntos","description":""}},{"local_stop_id":115,"id":115,"geometry":"POINT(-6500238.004659 -4123107.784445)","attributes":{"address":"Lan\u00fas","placename":"Lan\u00fas, Buenos Aires Province, Argentina","title":"Canal 31 TV Clip","description":""}},{"local_stop_id":114,"id":114,"geometry":"POINT(-6931650.713372 -4680455.609008)","attributes":{"address":"Bah\u00eda Blanca","placename":"Bah\u00eda Blanca, Buenos Aires Province, Argentina","title":"Mas TV Canal 13 de Aire","description":""}},{"local_stop_id":113,"id":113,"geometry":"POINT(-6931650.713372 -4680455.609008)","attributes":{"address":"Bah\u00eda Blanca","placename":"Bah\u00eda Blanca, Buenos Aires Province, Argentina","title":"Productora Jirafa TV","description":""}},{"local_stop_id":112,"id":112,"geometry":"POINT(294992.865739 4803579.843706)","attributes":{"address":"Ciudad Aut\u00f3noma","placename":"Palma, Balearic Islands, Spain","title":"Notitrons","description":""}},{"local_stop_id":111,"id":111,"geometry":"POINT(-6549791.653347 -4134340.650038)","attributes":{"address":"Marcos Paz","placename":"Marcos Paz, Buenos Aires Province, Argentina","title":"Tva 4 Marcos Paz","description":""}},{"local_stop_id":110,"id":110,"geometry":"POINT(-6742547.630075 -4013792.04714)","attributes":{"address":"Pergamino","placename":"Pergamino, Buenos Aires Province, Argentina","title":"TV Canal 11 Pergamino","description":""}},{"local_stop_id":109,"id":109,"geometry":"POINT(-6562577.921379 -4051312.796383)","attributes":{"address":"Campana","placename":"Campana, Buenos Aires Province, Argentina","title":"Canal 5 Campana","description":""}},{"local_stop_id":108,"id":108,"geometry":"POINT(-6511609.290644 -4101382.133706)","attributes":{"address":"Gral. Las Heras","placename":"Gral. Las Heras, Buenos Aires Province, Argentina","title":"TV 3","description":""}},{"local_stop_id":107,"id":107,"geometry":"POINT(-6500328.462877 -4133261.845496)","attributes":{"address":"Almirante Brown","placename":"Almirante Brown, Temperley, Buenos Aires Province, Argentina","title":"Vanguard TV","description":""}},{"local_stop_id":106,"id":106,"geometry":"POINT(0 -0)","attributes":{"address":"Coronel Charlone","title":"Cablecoop","description":""}},{"local_stop_id":105,"id":105,"geometry":"POINT(-6451446.87222 -4153184.476657)","attributes":{"address":"La Plata","placename":"La Plata, Buenos Aires Province, Argentina","title":"Registros de Cultura","description":""}},{"local_stop_id":104,"id":104,"geometry":"POINT(-6544626.707273 -4114255.113854)","attributes":{"address":"Moreno","placename":"Moreno, Buenos Aires Province, Argentina","title":"Canal 3 La Posta TV","description":""}},{"local_stop_id":103,"id":103,"geometry":"POINT(-6451446.87222 -4153184.476657)","attributes":{"address":"La Plata","placename":"La Plata, Buenos Aires Province, Argentina","title":"Canal 27 TV A","description":""}},{"local_stop_id":102,"id":102,"geometry":"POINT(-6509397.828772 -4146633.844265)","attributes":{"address":"Esteban Echeverria","placename":"Esteban Echeverr\u00eda, Buenos Aires Province, Argentina","title":"Canal 29 Petrus Tv","description":""}},{"local_stop_id":101,"id":101,"geometry":"POINT(-11724113.55588 4217895.313335)","attributes":{"address":"Bernal","placename":"Bernal, NM 87701, USA","title":"Tv Canal 6 video","description":""}},{"local_stop_id":100,"id":100,"geometry":"POINT(-11724113.55588 4217895.313335)","attributes":{"address":"Bernal","placename":"Bernal, NM 87701, USA","title":"Canal 8 Televisi\u00f3n Popular","description":""}},{"local_stop_id":99,"id":99,"geometry":"POINT(-6499009.215592 -4110158.263751)","attributes":{"address":"CABA","placename":"Buenos Aires, Argentina","title":"TV Proy.Comunidad","description":""}},{"local_stop_id":98,"id":98,"geometry":"POINT(-6580922.382718 -4105021.210831)","attributes":{"address":"Luj\u00e1n","placename":"Luj\u00e1n, Buenos Aires Province, Argentina","title":"Canal 3 Pares tv","description":""}},{"local_stop_id":97,"id":97,"geometry":"POINT(-6931650.713372 -4680455.609008)","attributes":{"address":"Bah\u00eda Blanca","placename":"Bah\u00eda Blanca, Buenos Aires Province, Argentina","title":"Ambito TV","description":""}},{"local_stop_id":96,"id":96,"geometry":"POINT(-6500238.004659 -4123107.784445)","attributes":{"address":"Lan\u00fas","placename":"Lan\u00fas, Buenos Aires Province, Argentina","title":"Tva 12 Lanus teve","description":""}},{"local_stop_id":95,"id":95,"geometry":"POINT(-6309803.217426 -4401702.455333)","attributes":{"address":"Mar de Ajo","placename":"Mar de Aj\u00f3, Buenos Aires Province, Argentina","title":"Producciones Cacho Roman","description":""}},{"local_stop_id":94,"id":94,"geometry":"POINT(-6310008.746602 -4396902.013762)","attributes":{"address":"San Bernardo","placename":"San Bernardo, Buenos Aires Province, Argentina","title":"Canal 9 La Costa","description":""}},{"local_stop_id":93,"id":93,"geometry":"POINT(-6309803.217426 -4401702.455333)","attributes":{"address":"Mar de Ajo","placename":"Mar de Aj\u00f3, Buenos Aires Province, Argentina","title":"Canal 4 Mar de Ajo","description":""}},{"local_stop_id":92,"id":92,"geometry":"POINT(460120.558235 6647869.999511)","attributes":{"address":"San Nicolas","placename":"Sint-Niklaas, Belgium","title":"Canal 7  Nicole\u00f1o","description":""}},{"local_stop_id":91,"id":91,"geometry":"POINT(460120.558235 6647869.999511)","attributes":{"address":"San Nicolas","placename":"Sint-Niklaas, Belgium","title":"Productora de medios audiovisuales Individual","description":""}},{"local_stop_id":90,"id":90,"geometry":"POINT(-6520361.596364 -4100109.48272)","attributes":{"address":"Jos\u00e9 Le\u00f3n Suarez","placename":"Jos\u00e9 Le\u00f3n Su\u00e1rez, Buenos Aires Province, Argentina","title":"Salem Chanel TV 64","description":""}},{"local_stop_id":89,"id":89,"geometry":"POINT(179595.519359 6572833.434664)","attributes":{"address":"Boulogne","placename":"Boulogne-sur-Mer, France","title":"Agencia IP","description":""}},{"local_stop_id":88,"id":88,"geometry":"POINT(-6310008.746602 -4396902.013762)","attributes":{"address":"San Bernardo","placename":"San Bernardo, Buenos Aires Province, Argentina","title":"OPINION DE LA COSTA","description":""}},{"local_stop_id":87,"id":87,"geometry":"POINT(-6410866.565233 -4576580.870916)","attributes":{"address":"Mar del Plata","placename":"Mar del Plata, Buenos Aires Province, Argentina","title":"CANAL 4 MAR DEL PLATA","description":""}},{"local_stop_id":86,"id":86,"geometry":"POINT(-6410866.565233 -4576580.870916)","attributes":{"address":"Mar del Plata","placename":"Mar del Plata, Buenos Aires Province, Argentina","title":"TV Urbana","description":""}},{"local_stop_id":85,"id":85,"geometry":"POINT(-6496976.699801 -4123173.9007)","attributes":{"address":"Gral Madariaga","placename":"Gral. Madariaga, Buenos Aires Province, Argentina","title":"CANAL 4 MADARIAGA TV","description":""}},{"local_stop_id":84,"id":84,"geometry":"POINT(-6330223.375386 -4453428.763356)","attributes":{"address":"Pinamar","placename":"Pinamar, Buenos Aires Province, Argentina","title":"RED 6 TV","description":""}},{"local_stop_id":83,"id":83,"geometry":"POINT(-6451446.87222 -4153184.476657)","attributes":{"address":"La Plata","placename":"La Plata, Buenos Aires Province, Argentina","title":"CANAL 6 ZONA FRANCA","description":""}},{"local_stop_id":82,"id":82,"geometry":"POINT(-6410866.565233 -4576580.870916)","attributes":{"address":"Mar del Plata","placename":"Mar del Plata, Buenos Aires Province, Argentina","title":"ESTACION VINILO TV","description":""}},{"local_stop_id":81,"id":81,"geometry":"POINT(-6309803.217426 -4401702.455333)","attributes":{"address":"Mar de Aj\u00f3","placename":"Mar de Aj\u00f3, Buenos Aires Province, Argentina","title":"TVC5","description":""}},{"local_stop_id":80,"id":80,"geometry":"POINT(-6538863.341012 -4658056.487591)","attributes":{"address":"Necochea","placename":"Necochea, Buenos Aires Province, Argentina","title":"CANAL 13 AITVCOOP","description":""}},{"local_stop_id":79,"id":79,"geometry":"POINT(-6451446.87222 -4153184.476657)","attributes":{"address":"La Plata","placename":"La Plata, Buenos Aires Province, Argentina","title":"TV QM Noticias","description":""}},{"local_stop_id":78,"id":78,"geometry":"POINT(-6557645.187763 -4090184.569334)","attributes":{"address":"Pilar","placename":"Pilar, Buenos Aires Province, Argentina","title":"Tele Red","description":""}},{"local_stop_id":77,"id":77,"geometry":"POINT(-6557645.187763 -4090184.569334)","attributes":{"address":"Pilar","placename":"Pilar, Buenos Aires Province, Argentina","title":"Pilar Producciones Televisivas","description":""}},{"local_stop_id":76,"id":76,"geometry":"POINT(-6538240.886947 -4080331.189057)","attributes":{"address":"Maschwitz","placename":"Ingeniero Maschwitz, Buenos Aires Province, Argentina","title":"Telered Escobar Video","description":""}},{"local_stop_id":75,"id":75,"geometry":"POINT(-6557645.187763 -4090184.569334)","attributes":{"address":"Pilar","placename":"Pilar, Buenos Aires Province, Argentina","title":"Tele 4 Txt","description":""}},{"local_stop_id":74,"id":74,"geometry":"POINT(-6557645.187763 -4090184.569334)","attributes":{"address":"Pilar","placename":"Pilar, Buenos Aires Province, Argentina","title":"Tele 4 Video","description":""}},{"local_stop_id":73,"id":73,"geometry":"POINT(1863290.861894 7010971.71533)","attributes":{"address":"Pila","placename":"Pi\u0142a, Poland","title":"Informativo Semanal TV 6 Video","description":""}},{"local_stop_id":72,"id":72,"geometry":"POINT(-6742547.630075 -4013792.04714)","attributes":{"address":"Pergamino","placename":"Pergamino, Buenos Aires Province, Argentina","title":"Canal 11 Libertad e Igualdad","description":""}},{"local_stop_id":71,"id":71,"geometry":"POINT(0 -0)","attributes":{"address":"Necochea","title":"Cablevisi\u00f3n Necochea TSN Noticias","description":""}},{"local_stop_id":70,"id":70,"geometry":"POINT(-6410866.565233 -4576580.870916)","attributes":{"address":"Mar del Plata","placename":"Mar del Plata, Buenos Aires Province, Argentina","title":"Tv Canal 31 MDQ","description":""}},{"local_stop_id":69,"id":69,"geometry":"POINT(-6410866.565233 -4576580.870916)","attributes":{"address":"Mar del Plata","placename":"Mar del Plata, Buenos Aires Province, Argentina","title":"television Chroma","description":""}},{"local_stop_id":68,"id":68,"geometry":"POINT(-6410866.565233 -4576580.870916)","attributes":{"address":"Mar del Plata","placename":"Mar del Plata, Buenos Aires Province, Argentina","title":"Canal 5 Mar del Plata Video","description":""}},{"local_stop_id":67,"id":67,"geometry":"POINT(-6410866.565233 -4576580.870916)","attributes":{"address":"Mar del Plata","placename":"Mar del Plata, Buenos Aires Province, Argentina","title":"Visi\u00f3n Sur TV Canal 2 Video","description":""}},{"local_stop_id":66,"id":66,"geometry":"POINT(-6410866.565233 -4576580.870916)","attributes":{"address":"Mar del Plata","placename":"Mar del Plata, Buenos Aires Province, Argentina","title":"Canal 35 MDP","description":""}},{"local_stop_id":65,"id":65,"geometry":"POINT(-6410866.565233 -4576580.870916)","attributes":{"address":"Mar del Plata","placename":"Mar del Plata, Buenos Aires Province, Argentina","title":"Televisi\u00f3n Comunitaria del Sudeste Video","description":""}},{"local_stop_id":64,"id":64,"geometry":"POINT(-6410866.565233 -4576580.870916)","attributes":{"address":"Mar del Plata","placename":"Mar del Plata, Buenos Aires Province, Argentina","title":"Canfra Producciones","description":""}},{"local_stop_id":63,"id":63,"geometry":"POINT(-6578706.701837 -4189099.595442)","attributes":{"address":"Lobos","placename":"Lobos, Buenos Aires Province, Argentina","title":"FEV Producciones Video","description":""}},{"local_stop_id":62,"id":62,"geometry":"POINT(-6578706.701837 -4189099.595442)","attributes":{"address":"Lobos","placename":"Lobos, Buenos Aires Province, Argentina","title":"Canal 4 Lobos Video","description":""}},{"local_stop_id":61,"id":61,"geometry":"POINT(-186579.158746 5265721.570219)","attributes":{"address":"Navarro","placename":"Navarre, Spain","title":"Canal 4 Navarro Video","description":""}},{"local_stop_id":60,"id":60,"geometry":"POINT(-6659145.920982 -4534004.813992)","attributes":{"address":"Ameghino","placename":"Ameghino, Benito Ju\u00e1rez, Buenos Aires Province, Argentina","title":"TV Regional","description":""}},{"local_stop_id":59,"id":59,"geometry":"POINT(-10762555.275319 4983895.456364)","attributes":{"address":"Lincoln","placename":"Lincoln, NE, USA","title":"TV Telered Lincoln","description":""}},{"local_stop_id":58,"id":58,"geometry":"POINT(160768.610479 5404463.623282)","attributes":{"address":"Tolosa","placename":"Toulouse, France","title":"Canal V","description":""}},{"local_stop_id":57,"id":57,"geometry":"POINT(-6784873.315357 -4108106.349219)","attributes":{"address":"Junin","placename":"Jun\u00edn, Buenos Aires Province, Argentina","title":"TV 8 Canal Fe","description":""}},{"local_stop_id":56,"id":56,"geometry":"POINT(-6784873.315357 -4108106.349219)","attributes":{"address":"Jun\u00edn","placename":"Jun\u00edn, Buenos Aires Province, Argentina","title":"Tele Jun\u00edn video","description":""}},{"local_stop_id":55,"id":55,"geometry":"POINT(-6490932.228659 -4133651.1425888)","attributes":{"address":"San Francisco Solano, Buenos Aires Province, Argentina","placename":"Solano, Philippines","title":"Solano TV Canal 3","description":"hggjhgf hgfhgjhgj fhgghj f","weight":"0","co2e":"0","energy":"0","water":"0","youtube:link":""}},{"local_stop_id":54,"id":54,"geometry":"POINT(-6487255.981303 -4136271.506391)","attributes":{"address":"Florencio Varela","placename":"Florencio Varela, Buenos Aires Province, Argentina","title":"Comunal TV","description":""}},{"local_stop_id":53,"id":53,"geometry":"POINT(-6500328.462877 -4133261.845496)","attributes":{"address":"Almirante Brown","placename":"Almirante Brown, Temperley, Buenos Aires Province, Argentina","title":"Canal 29 Quilmes Visi\u00f3n Productora Independiente","description":""}},{"local_stop_id":52,"id":52,"geometry":"POINT(-6487255.981303 -4136271.506391)","attributes":{"address":"Florencio Varela","placename":"Florencio Varela, Buenos Aires Province, Argentina","title":"Canal 5 Florencio Varela","description":""}},{"local_stop_id":51,"id":51,"geometry":"POINT(-6410866.565233 -4576580.870916)","attributes":{"address":"Mar del Plata","placename":"Mar del Plata, Buenos Aires Province, Argentina","title":"LU 82 Canal 10","description":""}},{"local_stop_id":50,"id":50,"geometry":"POINT(-6983360.787575 -4296945.212536)","attributes":{"address":"Trenque Lauquen","placename":"Trenque Lauquen, Buenos Aires Province, Argentina","title":"LU 91 TV Canal 12","description":""}},{"local_stop_id":49,"id":49,"geometry":"POINT(-15780784.820882 -2125686.645502)","attributes":{"address":"San Miguel","placename":"Nengonengo","title":"Canal 11 Provincial","description":"","weight":"0","co2e":"0","energy":"0","water":"0","flickr:setid":"http:\/\/www.flickr.com\/photos\/sheephead\/8073604661\/"}},{"local_stop_id":48,"id":48,"geometry":"POINT(-7018944.47469 2047213.142598)","attributes":{"address":"San Mart\u00edn","placename":"St Martin","title":"canal 4 Teleaire","description":""}},{"local_stop_id":47,"id":47,"geometry":"POINT(-6510722.6309 -4131338.717333)","attributes":{"address":"9 de Abril","placename":"9 de Abril, Buenos Aires Province, Argentina","title":"TV Canal 53","description":""}},{"local_stop_id":46,"id":46,"geometry":"POINT(-6510722.6309 -4131338.717333)","attributes":{"address":"9 de Abril","placename":"9 de Abril, Buenos Aires Province, Argentina","title":"TV Canal 43","description":""}},{"local_stop_id":45,"id":45,"geometry":"POINT(-6504425.409757 -4131473.947225)","attributes":{"address":"Lomas de Zamora","placename":"Lomas de Zamora, Buenos Aires Province, Argentina","title":"TV Im\u00e1genes Regionales","description":""}},{"local_stop_id":44,"id":44,"geometry":"POINT(-6537598.695937 -4118922.429723)","attributes":{"address":"Merlo","placename":"Merlo, Buenos Aires Province, Argentina","title":"TV Canal 5 Comunitario Merlo","description":""}},{"local_stop_id":43,"id":43,"geometry":"POINT(-8937480.138579 2996067.93025)","attributes":{"address":"Miramar","placename":"Miramar, FL, USA","title":"TV Canal 6 Nuevos Aires","description":""}},{"local_stop_id":42,"id":42,"geometry":"POINT(-6497381.813692 -4117917.528517)","attributes":{"address":"Avellaneda","placename":"Avellaneda, Buenos Aires Province, Argentina","title":"TV Canal 10","description":""}},{"local_stop_id":41,"id":41,"geometry":"POINT(-6528358.666131 -4117157.334726)","attributes":{"address":"Castelar","placename":"Castelar, Buenos Aires Province, Argentina","title":"TV Canal 5","description":""}},{"local_stop_id":40,"id":40,"geometry":"POINT(-6519232.605221 -4121481.918534)","attributes":{"address":"San Justo","placename":"San Justo, Buenos Aires Province, Argentina","title":"Visi\u00f3n Gospel Chanel","description":""}},{"local_stop_id":39,"id":39,"geometry":"POINT(-6521057.755064 -4086024.649123)","attributes":{"address":"Tigre","placename":"Tigre, Buenos Aires Province, Argentina","title":"TV Visi\u00f3n Gospel canal 35","description":""}},{"local_stop_id":38,"id":38,"geometry":"POINT(-6500238.004659 -4123107.784445)","attributes":{"address":"Lanus","placename":"Lan\u00fas, Buenos Aires Province, Argentina","title":"TV Lanus Televisi\u00f3n","description":""}},{"local_stop_id":37,"id":37,"geometry":"POINT(0 -0)","attributes":{"address":"9 de Abril","title":"TV Canal 29","description":""}},{"local_stop_id":36,"id":36,"geometry":"POINT(-6537598.695937 -4118922.429723)","attributes":{"address":"Merlo","placename":"Merlo, Buenos Aires Province, Argentina","title":"Canal 10 Una Nueva Vision","description":""}},{"local_stop_id":35,"id":35,"geometry":"POINT(-6544626.707273 -4114255.113854)","attributes":{"address":"Moreno","placename":"Moreno, Buenos Aires Province, Argentina","title":"Canal 6 de moreno","description":""}},{"local_stop_id":34,"id":34,"geometry":"POINT(-6580922.382718 -4105021.210831)","attributes":{"address":"Lujan","placename":"Luj\u00e1n, Buenos Aires Province, Argentina","title":"Canal 4 Lujan","description":""}},{"local_stop_id":33,"id":33,"geometry":"POINT(-6544626.707273 -4114255.113854)","attributes":{"address":"Moreno","placename":"Moreno, Buenos Aires Province, Argentina","title":"La Posta TV","description":""}},{"local_stop_id":32,"id":32,"geometry":"POINT(-9074292.17125 3206781.536669)","attributes":{"address":"Florida","placename":"Florida, USA","title":"Canal 5 Vicente Lopez","description":""}},{"local_stop_id":31,"id":31,"geometry":"POINT(-6484967.965017 -4557750.894972)","attributes":{"address":"Balcarce","placename":"Balcarce, Buenos Aires Province, Argentina","title":"Canal 13Genesis","description":""}},{"local_stop_id":30,"id":30,"geometry":"POINT(-6426134.011132 -4501405.107316)","attributes":{"address":"Coronel Vidal","placename":"Coronel Vidal, Buenos Aires Province, Argentina","title":"Kvnk Producciones","description":""}},{"local_stop_id":29,"id":29,"geometry":"POINT(-6426134.011132 -4501405.107316)","attributes":{"address":"Coronel Vidal","placename":"Coronel Vidal, Buenos Aires Province, Argentina","title":"Canal C5M","description":""}},{"local_stop_id":28,"id":28,"geometry":"POINT(-13575994.726566 4488580.471931)","attributes":{"address":"Santa Clara","placename":"Santa Clara, CA, USA","title":"Marea TVC","description":""}},{"local_stop_id":27,"id":27,"geometry":"POINT(-6313771.156147 -4351593.545902)","attributes":{"address":"San Clemente del tuyu","placename":"San Clemente del Tuy\u00fa, Buenos Aires Province, Argentina","title":"Canal 5 San Clemente","description":""}},{"local_stop_id":26,"id":26,"geometry":"POINT(-13575994.726566 4488580.471931)","attributes":{"address":"Santa Clara","placename":"Santa Clara, CA, USA","title":"Cadena Premium","description":""}},{"local_stop_id":25,"id":25,"geometry":"POINT(-10654710.288472 4451692.554811)","attributes":{"address":"America","placename":"United States","title":"TOP VISION SRL","description":""}},{"local_stop_id":24,"id":24,"geometry":"POINT(-6910055.978936 -4703933.81978)","attributes":{"address":"Punta Alta","placename":"Punta Alta, Buenos Aires Province, Argentina","title":"Canal 4 Punta Alta Vision","description":""}},{"local_stop_id":23,"id":23,"geometry":"POINT(-10654710.288472 4451692.554811)","attributes":{"address":"Am\u00e9rica","placename":"United States","title":"TOP VISION SRL","description":""}},{"local_stop_id":22,"id":22,"geometry":"POINT(-6528358.666131 -4117157.334726)","attributes":{"address":"Castelar","placename":"Castelar, Buenos Aires Province, Argentina","title":"Asociaci\u00f3n Argentina de Histiocitos","description":""}},{"local_stop_id":21,"id":21,"geometry":"POINT(-6515752.76907 -4121226.254721)","attributes":{"address":"Tablada","placename":"Tablada, Buenos Aires Province, Argentina","title":"Asociaci\u00f3n Civil Con El Alma","description":""}},{"local_stop_id":20,"id":20,"geometry":"POINT(-315275.354886 5353490.574711)","attributes":{"address":"Lezama","placename":"48196 Lezama, Basque Country, Spain","title":"Canal 6 Television lezama","description":""}},{"local_stop_id":19,"id":19,"geometry":"POINT(-6458054.15154 -4242870.551103)","attributes":{"address":"Chascomus","placename":"Chascom\u00fas, Buenos Aires Province, Argentina","title":"Critica De Radio","description":""}},{"local_stop_id":18,"id":18,"geometry":"POINT(-13129181.901386 3998483.284736)","attributes":{"address":"City Bell","placename":"Garden Grove, CA, USA","title":"Medios y comunicaciones  SRL","description":""}},{"local_stop_id":17,"id":17,"geometry":"POINT(-6458054.15154 -4242870.551103)","attributes":{"address":"Chascomus","placename":"Chascom\u00fas, Buenos Aires Province, Argentina","title":"Sport 2000","description":""}},{"local_stop_id":16,"id":16,"geometry":"POINT(-6458054.15154 -4242870.551103)","attributes":{"address":"Chascomus","placename":"Chascom\u00fas, Buenos Aires Province, Argentina","title":"Productora De la Laguna","description":""}},{"local_stop_id":15,"id":15,"geometry":"POINT(-6458054.15154 -4242870.551103)","attributes":{"address":"Chascomus","placename":"Chascom\u00fas, Buenos Aires Province, Argentina","title":"Chascomus Deportes","description":""}},{"local_stop_id":14,"id":14,"geometry":"POINT(-6458054.15154 -4242870.551103)","attributes":{"address":"Chascomus","placename":"Chascom\u00fas, Buenos Aires Province, Argentina","title":"Canal 5 Chascomus Noticias","description":""}},{"local_stop_id":13,"id":13,"geometry":"POINT(-6458054.15154 -4242870.551103)","attributes":{"address":"Chascomus","placename":"Chascom\u00fas, Buenos Aires Province, Argentina","title":"Bis","description":""}},{"local_stop_id":12,"id":12,"geometry":"POINT(-6458054.15154 -4242870.551103)","attributes":{"address":"Chascomus","placename":"Chascom\u00fas, Buenos Aires Province, Argentina","title":"Canal 3 Chascomus","description":""}},{"local_stop_id":11,"id":11,"geometry":"POINT(-6451446.87222 -4153184.476657)","attributes":{"address":"La Plata","placename":"La Plata, Buenos Aires Province, Argentina","title":"Producciones integrales  de radio y tv","description":""}},{"local_stop_id":10,"id":10,"geometry":"POINT(-6732761.567035 -4180188.560656)","attributes":{"address":"Bragado","placename":"Bragado, Buenos Aires Province, Argentina","title":"Bragado Tv","description":""}},{"local_stop_id":9,"id":9,"geometry":"POINT(-6730946.614057 -4114515.286534)","attributes":{"address":"Chacabuco","placename":"Chacabuco, Buenos Aires Province, Argentina","title":"La Matera Producciones","description":""}},{"local_stop_id":8,"id":8,"geometry":"POINT(-6732761.567035 -4180188.560656)","attributes":{"address":"Bragado","placename":"Bragado, Buenos Aires Province, Argentina","title":"Canal 5","description":""}},{"local_stop_id":7,"id":7,"geometry":"POINT(-6931650.713372 -4680455.609008)","attributes":{"address":"Bahia Blanca","placename":"Bah\u00eda Blanca, Buenos Aires Province, Argentina","title":"Canal 13 Mas TV","description":""}},{"local_stop_id":6,"id":6,"geometry":"POINT(-6931650.713372 -4680455.609008)","attributes":{"address":"Bahia Blanca","placename":"Bah\u00eda Blanca, Buenos Aires Province, Argentina","title":"Canal 21 Bahia Blanca","description":""}},{"local_stop_id":5,"id":5,"geometry":"POINT(-6931650.713372 -4680455.609008)","attributes":{"address":"Bahia Blanca","placename":"Bah\u00eda Blanca, Buenos Aires Province, Argentina","title":"Canal 4 Bahiavision Color","description":""}},{"local_stop_id":4,"id":4,"geometry":"POINT(-6931650.713372 -4680455.609008)","attributes":{"address":"Bahia Blanca","placename":"Bah\u00eda Blanca, Buenos Aires Province, Argentina","title":"Canal 39 El Buen Sembrador","description":""}},{"local_stop_id":3,"id":3,"geometry":"POINT(-6910055.978936 -4703933.81978)","attributes":{"address":"Punta Alta","placename":"Punta Alta, Buenos Aires Province, Argentina","title":"Canal 6 Airevision","description":""}},{"local_stop_id":2,"id":2,"geometry":"POINT(-6931650.713372 -4680455.609008)","attributes":{"address":"Bahia Blanca","placename":"Bah\u00eda Blanca, Buenos Aires Province, Argentina","title":"Murrax Producciones","description":""}},{"local_stop_id":1,"id":1,"geometry":"POINT(-15780784.820882 -2125686.645502)","attributes":{"address":"San Miguel","placename":"Nengonengo","title":"CSM Televisi\u00f3n","description":""}}],"hops":[{"from_stop_id":55,"to_stop_id":148,"geometry":"MULTILINESTRING((-6490932.228659 -4133651.1425888,-6515375.084302 -4092199.433815))","attributes":{"distance":"18019.283755","title":"Solano TV Canal 3 to Canal 4 Boulogne","co2e":"0"}}]},"editable":false}