{"type":"FeatureCollection","features":[{"type":"Feature","geometry":{"type":"Point","coordinates":[2.3574429999985,48.936181000001]},"properties":{"description":"Stade","address":"SAINT-DENIS,FRANCE","placename":"Saint-Denis, France","title":"STADE DE FRANCE"}},{"type":"Feature","geometry":{"type":"Point","coordinates":[2.3522219000019,48.856613999999]},"properties":{"description":"Piscine","address":"PARIS,FRANCE","placename":"Paris, France","title":"BASSIN ECOLE JEAN DAME (PARIS 2EME)"}},{"type":"Feature","geometry":{"type":"Point","coordinates":[2.259289999997,48.900552000001]},"properties":{"description":"Piscine","address":"COURBEVOIE,FRANCE","placename":"Courbevoie, France","title":"PISCINE OLYMPIQUE DE COURBEVOIE"}},{"type":"Feature","geometry":{"type":"Point","coordinates":[2.3522219000019,48.856613999999]},"properties":{"description":"Piscine","address":"PARIS,FRANCE","placename":"Paris, France","title":"PISCINE DES HALLES"}},{"type":"Feature","geometry":{"type":"Point","coordinates":[2.1639769999968,48.696893000001]},"properties":{"description":"Escalade","address":"BURES SUR YVETTE,FRANCE","placename":"Bures-sur-Yvette, France","title":"VIADUC ESCALADE (BURES SUR YVETTE)"}},{"type":"Feature","geometry":{"type":"Point","coordinates":[2.3522219000019,48.856613999999]},"properties":{"description":"Escalade","address":"PARIS,FRANCE","placename":"Paris, France","title":"MUR D'ESCALADE DES POISSONNIERS"}},{"type":"Feature","geometry":{"type":"Point","coordinates":[2.0346999999993,42.498300000002]},"properties":{"description":"Centre Sportif","address":"FONT-ROMEU,FRANCE","placename":"Font-Romeu-Odeillo-Via, France","title":"CENTRE NATIONAL D'ENTRAINEMENT EN ALTITUDE"}},{"type":"Feature","geometry":{"type":"Point","coordinates":[4.3954009999978,44.407452000003]},"properties":{"description":"Pr\u00e9histoire","address":"VALLON-PONT-D'ARC,FRANCE","placename":"Vallon-Pont-d'Arc, France","title":"GROTTE DE CHAUVET (-30 000 AV JC)"}},{"type":"Feature","geometry":{"type":"Point","coordinates":[1.0060739999968,44.943275000001]},"properties":{"description":"Pr\u00e9histoire","address":"EYZIES-DE-TAYAC,FRANCE","placename":"Tayac, 24620 Les Eyzies-de-Tayac-Sireuil, France","title":"SITE DE L'HOMME DE CRO-MAGNON (-40 000 ANS AV JC)"}},{"type":"Feature","geometry":{"type":"Point","coordinates":[2.7457160000005,42.813661999998]},"properties":{"description":"Pr\u00e9histoire","address":"TAUTAVEL,FRANCE","placename":"Tautavel, France","title":"SITE DE L'HOMME DE TAUTAVEL (-400 000 ANS AV JC)"}},{"type":"Feature","geometry":{"type":"Point","coordinates":[3.0778009999997,44.100574999999]},"properties":{"description":"Viaduc","address":"MILLAU,FRANCE","placename":"Millau, France","title":"VIADUC DE MILLAU"}},{"type":"Feature","geometry":{"type":"Point","coordinates":[21.824312000004,39.074207999997]},"properties":{"description":"Pont Suspendu","address":"GRECE","placename":"Greece","title":"PONT RION-ANTIRION (GRECE)"}},{"type":"Feature","geometry":{"type":"Point","coordinates":[2.2137489999989,46.227638]},"properties":{"description":"Pont Suspendu","address":"FRANCE","placename":"France","title":"PONT DE NORMANDIE"}},{"type":"Feature","geometry":{"type":"Point","coordinates":[-122.4194155,37.774929500003]},"properties":{"description":"Pont Suspendu","address":"SAN FRANCISCO,ETATS-UNIS","placename":"San Francisco, CA, USA","title":"GOLDEN GATE"}},{"type":"Feature","geometry":{"type":"Point","coordinates":[4.8055280000016,43.949316999998]},"properties":{"description":"Pont en Pierre","address":"AVIGNON,FRANCE","placename":"Avignon, France","title":"PONT D'AVIGNON (SAINT-BENEZET)"}},{"type":"Feature","geometry":{"type":"Point","coordinates":[2.2137489999989,46.227638]},"properties":{"description":"Pont en Pierre","address":"FRANCE","placename":"France","title":"PONT DU GARD"}},{"type":"Feature","geometry":{"type":"Point","coordinates":[2.3522219000019,48.856613999999]},"properties":{"description":"Pont en Pierre","address":"PARIS,FRANCE","placename":"Paris, France","title":"PONT-MARIE (PARIS)"}},{"type":"Feature","geometry":{"type":"Point","coordinates":[-0.57918000000316,44.837789000003]},"properties":{"description":"Pont \u00e0 Poutres","address":"BORDEAUX,FRANCE","placename":"Bordeaux, France","title":"PASSERELLE EIFFEL A BORDEAUX"}},{"type":"Feature","geometry":{"type":"Point","coordinates":[2.3522219000019,48.856613999999]},"properties":{"description":"Canal","address":"PARIS,FRANCE","placename":"Paris, France","title":"CANAL SAINT-MARTIN"}},{"type":"Feature","geometry":{"type":"Point","coordinates":[-7.0926199999983,31.791702]},"properties":{"description":"Barrage","address":"MAROC","placename":"Morocco","title":"BARRAGE DE BEN LOUIDAN"}},{"type":"Feature","geometry":{"type":"Point","coordinates":[53.688046000001,32.427908000001]},"properties":{"description":"Ziggourat","address":"IRAN","placename":"Iran","title":"ZIGGOURAT DE CHOGHA ZANBIL EN IRAN (-2000 AV JC)"}},{"type":"Feature","geometry":{"type":"Point","coordinates":[44.433333300002,32.483333299998]},"properties":{"description":"Ziggourat","address":"HILLA,IRAK","placename":"Hillah, Iraq","title":"ZIGGOURAT ETEMENANKI - TOUR DE BABEL (-2600 AV JC)"}},{"type":"Feature","geometry":{"type":"Point","coordinates":[43.679290999998,33.223191000003]},"properties":{"description":"Ziggourat","address":"IRAK","placename":"Iraq","title":"ZIGGOURAT DANS LA VILLE D'UR (-2100 AV JC)"}},{"type":"Feature","geometry":{"type":"Point","coordinates":[5.0751979999996,44.240967999999]},"properties":{"description":"Ville Antique","address":"VAISON LA ROMAINE,FRANCE","placename":"84110 Vaison-la-Romaine, France","title":"SITE ARCHEOLOGIQUE DE VAISON LA ROMAINE"}},{"type":"Feature","geometry":{"type":"Point","coordinates":[1.0999709999967,49.443231999999]},"properties":{"description":"Tour","address":"ROUEN,FRANCE","placename":"Rouen, France","title":"LE GROS HORLOGE"}},{"type":"Feature","geometry":{"type":"Point","coordinates":[104.195397,35.861660000001]},"properties":{"description":"Tour","address":"CHINE","placename":"China","title":"TOUR DE GUET SUR LA ROUTE DE LA SOIE"}},{"type":"Feature","geometry":{"type":"Point","coordinates":[2.3134029000029,48.854334500001]},"properties":{"description":"Tour","address":"75007,PARIS,FRANCE","placename":"75007 Paris, France","title":"TOUR EIFFEL"}},{"type":"Feature","geometry":{"type":"Point","coordinates":[35.442580999997,30.328878000003]},"properties":{"description":"Tombeau","address":"PETRA,JORDANIE","placename":"Petra, Jordan","title":"KHAZNEH (PETRA)"}},{"type":"Feature","geometry":{"type":"Point","coordinates":[12.460773699998,41.901514099999]},"properties":{"description":"Thermes Romains","address":"ROME,ITALIE","placename":"Rome, Italy","title":"THERMES ROMAINS DE DIOCLETIEN"}},{"type":"Feature","geometry":{"type":"Point","coordinates":[79.919854899997,24.8318452]},"properties":{"description":"Temple","address":"KHAJURAHO,INDE","placename":"Khajuraho, Madhya Pradesh, India","title":"TEMPLE DE KHAJURAHO"}},{"type":"Feature","geometry":{"type":"Point","coordinates":[31.208903000003,30.076291999997]},"properties":{"description":"Statue","address":"GIZEH,EGYPTE","placename":"Al-Jizah, Tag Ad Dewal, Embabah, Giza, Egypt","title":"SPHINX DE GIZEH (-2500 AV JC)"}},{"type":"Feature","geometry":{"type":"Point","coordinates":[1.1513609999979,49.027012899998]},"properties":{"description":"Sanctuaire","address":"EVREUX,FRANCE","placename":"\u00c9vreux, France","title":"SITE ARCHEOLOGIQUE DU VIEIL EVREUX (GISACUM)"}},{"type":"Feature","geometry":{"type":"Point","coordinates":[22.381462400002,38.552253100003]},"properties":{"description":"Sanctuaire","address":"DELPHES,GRECE","placename":"Delphi, Greece","title":"DELPHES (SANCTUAIRE)"}},{"type":"Feature","geometry":{"type":"Point","coordinates":[31.208903000003,30.076291999997]},"properties":{"description":"Pyramide","address":"GIZEH,EGYPTE","placename":"Al-Jizah, Tag Ad Dewal, Embabah, Giza, Egypt","title":"PYRAMIDE DE KHEOPS (-2650 AV JC)"}},{"type":"Feature","geometry":{"type":"Point","coordinates":[-102.552784,23.634501000001]},"properties":{"description":"Pyramide","address":"MEXIQUE","placename":"Mexico","title":"CHICHEN ITZA LE TEMPLE DES GUERRIERS MAYAS"}},{"type":"Feature","geometry":{"type":"Point","coordinates":[31.208903000003,30.076291999997]},"properties":{"description":"Pyramide","address":"GIZEH,EGYPTE","placename":"Al-Jizah, Tag Ad Dewal, Embabah, Giza, Egypt","title":"PYRAMIDE DE MYKERINOS (-2500 AV JC)"}},{"type":"Feature","geometry":{"type":"Point","coordinates":[31.216666999998,29.850000000003]},"properties":{"description":"Pyramide","address":"SAQQARAH,EGYPTE","placename":"Saqqara, Saqarah, Al Badrashin, Giza, Egypt","title":"PYRAMIDE DE DJESER (-2700 AV JC)"}},{"type":"Feature","geometry":{"type":"Point","coordinates":[2.3522219000019,48.856613999999]},"properties":{"description":"Pyramide","address":"PARIS,FRANCE","placename":"Paris, France","title":"LA PYRAMIDE DU LOUVRE"}},{"type":"Feature","geometry":{"type":"Point","coordinates":[31.208903000003,30.076291999997]},"properties":{"description":"Pyramide","address":"GIZEH,EGYPTE","placename":"Al-Jizah, Tag Ad Dewal, Embabah, Giza, Egypt","title":"SITE DE GIZEH (-2600 AV JC)"}},{"type":"Feature","geometry":{"type":"Point","coordinates":[78.962879999997,20.593684000004]},"properties":{"description":"Palais","address":"INDE","placename":"India","title":"TAJ MAHAL"}},{"type":"Feature","geometry":{"type":"Point","coordinates":[-3.5979290999973,37.1764874]},"properties":{"description":"Palais","address":"GRENADE,ESPAGNE","placename":"Granada, Andalusia, Spain","title":"ALHAMBRA DE GRENADE"}},{"type":"Feature","geometry":{"type":"Point","coordinates":[2.3522219000019,48.856613999999]},"properties":{"description":"Palais","address":"PARIS,FRANCE","placename":"Paris, France","title":"PALAIS DES TUILERIES"}},{"type":"Feature","geometry":{"type":"Point","coordinates":[116.407526,39.90403]},"properties":{"description":"Palais","address":"PEKIN,CHINE","placename":"Beijing, China","title":"LA CITE INTERDITE"}},{"type":"Feature","geometry":{"type":"Point","coordinates":[1.2170849999988,49.272602000002]},"properties":{"description":"Mur","address":"VAL DE REUIL,FRANCE","placename":"Val-de-Reuil, France","title":"MONUMENT A LA MEMOIRE ET A LA PAIX"}},{"type":"Feature","geometry":{"type":"Point","coordinates":[-6.5555556000001,31.060555599996]},"properties":{"description":"Kasbah","address":"SKOURA,MAROC","placename":"Skoura, Morocco","title":"KASBAH SKOURA (ATLAS MAROC)"}},{"type":"Feature","geometry":{"type":"Point","coordinates":[104.195397,35.861660000001]},"properties":{"description":"Fortification","address":"CHINE","placename":"China","title":"PORTE DE JADE SUR LA ROUTE DE LA SOIE (CHINE)"}},{"type":"Feature","geometry":{"type":"Point","coordinates":[4.0316959999975,49.258328999998]},"properties":{"description":"Fortification","address":"51100,REIMS,FRANCE","placename":"Rheims, France","title":"CITE GALLO-ROMAINE DE REIMS"}},{"type":"Feature","geometry":{"type":"Point","coordinates":[44.433333300002,32.483333299998]},"properties":{"description":"Fortification","address":"HILLA,IRAK","placename":"Hillah, Iraq","title":"PORTE D'ISHTAR - BABYLONE (-575 AV JC)"}},{"type":"Feature","geometry":{"type":"Point","coordinates":[-1.1736610000007,46.012562999997]},"properties":{"description":"Fortification","address":"ILE D'AIX,FRANCE","placename":"\u00cele-d'Aix, France","title":"FORT-BOYARD"}},{"type":"Feature","geometry":{"type":"Point","coordinates":[-75.015152,-9.1899670000004]},"properties":{"description":"Cit\u00e9 Inca","address":"PEROU","placename":"Peru","title":"MACHU PICCHU"}},{"type":"Feature","geometry":{"type":"Point","coordinates":[6.0240538999979,47.237829]},"properties":{"description":"Citadelle","address":"BESANCON,FRANCE","placename":"Besan\u00e7on, France","title":"CITADELLE DE BESANCON"}},{"type":"Feature","geometry":{"type":"Point","coordinates":[4.9386299999965,49.703489999998]},"properties":{"description":"Citadelle","address":"SEDAN,FRANCE","placename":"Sedan, France","title":"CITADELLE DE SEDAN"}},{"type":"Feature","geometry":{"type":"Point","coordinates":[58.356944399997,29.106111100004]},"properties":{"description":"Citadelle","address":"BAM,IRAN","placename":"Bam, Iran","title":"CITADELLE DE BAM"}},{"type":"Feature","geometry":{"type":"Point","coordinates":[-0.38649170000156,47.3504282]},"properties":{"description":"Ch\u00e2teau","address":"49320,BRISSAC,FRANCE","placename":"49320 Brissac-Quinc\u00e9, France","title":"CHATEAU DE BRISSAC"}},{"type":"Feature","geometry":{"type":"Point","coordinates":[1.4192000000017,49.246568]},"properties":{"description":"Ch\u00e2teau","address":"27700,LES ANDELYS,FRANCE","placename":"Les Andelys, France","title":"CHATEAU GAILLARD"}},{"type":"Feature","geometry":{"type":"Point","coordinates":[2.0937610000017,48.898907999998]},"properties":{"description":"Ch\u00e2teau","address":"SAINT-GERMAIN-EN-LAYE,FRANCE","placename":"Saint-Germain-en-Laye, France","title":"CHATEAU DE SAINT-GERMAIN-EN-LAYE"}},{"type":"Feature","geometry":{"type":"Point","coordinates":[2.130122000004,48.801408000002]},"properties":{"description":"Ch\u00e2teau","address":"VERSAILLES,FRANCE","placename":"Versailles, France","title":"CHATEAU DE VERSAILLES"}},{"type":"Feature","geometry":{"type":"Point","coordinates":[2.3789260000011,49.018834]},"properties":{"description":"Ch\u00e2teau","address":"ECOUEN,FRANCE","placename":"\u00c9couen, France","title":"CHATEAU D'ECOUEN"}},{"type":"Feature","geometry":{"type":"Point","coordinates":[1.3362718999968,47.587952]},"properties":{"description":"Ch\u00e2teau","address":"BLOIS,FRANCE","placename":"Blois, France","title":"CHATEAU DE BLOIS"}},{"type":"Feature","geometry":{"type":"Point","coordinates":[-1.5536210000024,47.218370999998]},"properties":{"description":"Ch\u00e2teau","address":"NANTES,FRANCE","placename":"Nantes, France","title":"CHATEAU DES DUCS DE BRETAGNE"}},{"type":"Feature","geometry":{"type":"Point","coordinates":[2.4394969000021,48.847758999998]},"properties":{"description":"Ch\u00e2teau","address":"94300,VINCENNES,FRANCE","placename":"Vincennes, France","title":"CHATEAU DE VINCENNES (DONJON)"}},{"type":"Feature","geometry":{"type":"Point","coordinates":[1.6011260000012,48.789808000001]},"properties":{"description":"Ch\u00e2teau","address":"78550,HOUDAN,FRANCE","placename":"Houdan, France","title":"DONJON DE HOUDAN"}},{"type":"Feature","geometry":{"type":"Point","coordinates":[-0.56556399999994,47.618132]},"properties":{"description":"Ch\u00e2teau","address":"ECUILLE,FRANCE","placename":"\u00c9cuill\u00e9, France","title":"CHATEAU DU PLESSIS-BOURRE"}},{"type":"Feature","geometry":{"type":"Point","coordinates":[2.3522219000019,48.856613999999]},"properties":{"description":"Ch\u00e2teau","address":"PARIS,FRANCE","placename":"Paris, France","title":"CHATEAU DE VINCENNES"}},{"type":"Feature","geometry":{"type":"Point","coordinates":[2.6553999999959,48.542104999998]},"properties":{"description":"Ch\u00e2teau","address":"MELUN,FRANCE","placename":"Melun, France","title":"CHATEAU DE MELUN"}},{"type":"Feature","geometry":{"type":"Point","coordinates":[1.829079000003,48.643868]},"properties":{"description":"Ch\u00e2teau","address":"RAMBOUILLET,FRANCE","placename":"Rambouillet, France","title":"CHATEAU DE RAMBOUILLET"}},{"type":"Feature","geometry":{"type":"Point","coordinates":[1.5168780000043,47.614158000001]},"properties":{"description":"Ch\u00e2teau","address":"CHAMBORD,FRANCE","placename":"Chambord, France","title":"CHATEAU DE CHAMBORD"}},{"type":"Feature","geometry":{"type":"Point","coordinates":[2.3522219000019,48.856613999999]},"properties":{"description":"Ch\u00e2teau","address":"PARIS,FRANCE","placename":"Paris, France","title":"LA BASTILLE (PRISON)"}},{"type":"Feature","geometry":{"type":"Point","coordinates":[0.984406999997,47.413326]},"properties":{"description":"Ch\u00e2teau","address":"AMBOISE,FRANCE","placename":"Amboise, France","title":"CHATEAU D'AMBOISE"}},{"type":"Feature","geometry":{"type":"Point","coordinates":[2.2137489999989,46.227638]},"properties":{"description":"Ch\u00e2teau","address":"FRANCE","placename":"France","title":"CHATEAU D'ANET"}},{"type":"Feature","geometry":{"type":"Point","coordinates":[-0.56316599999924,47.478418999999]},"properties":{"description":"Ch\u00e2teau","address":"ANGERS,FRANCE","placename":"Angers, France","title":"CHATEAU D'ANGERS"}},{"type":"Feature","geometry":{"type":"Point","coordinates":[0.46573999999947,47.261769999999]},"properties":{"description":"Ch\u00e2teau","address":"AZAY-LE-RIDEAU,FRANCE","placename":"Azay-le-Rideau, France","title":"CHATEAU D'AZAY-LE-RIDEAU"}},{"type":"Feature","geometry":{"type":"Point","coordinates":[2.4687389000041,49.193160000001]},"properties":{"description":"Ch\u00e2teau","address":"CHANTILLY,FRANCE","placename":"Chantilly, France","title":"CHATEAU DE CHANTILLY"}},{"type":"Feature","geometry":{"type":"Point","coordinates":[1.0702442999964,47.325050499998]},"properties":{"description":"Ch\u00e2teau","address":"CHENONCEAU,FRANCE","placename":"Chenonceau Castle, 37150 Chenonceau, France","title":"CHATEAU DE CHENONCEAU"}},{"type":"Feature","geometry":{"type":"Point","coordinates":[3.3236659000003,49.52051]},"properties":{"description":"Ch\u00e2teau","address":"COUCY,FRANCE","placename":"Coucy-le-Ch\u00e2teau-Auffrique, France","title":"CHATEAU DE COUCY"}},{"type":"Feature","geometry":{"type":"Point","coordinates":[2.0152549000031,48.529170999997]},"properties":{"description":"Ch\u00e2teau","address":"DOURDAN,FRANCE","placename":"Dourdan, France","title":"CHATEAU DE DOURDAN"}},{"type":"Feature","geometry":{"type":"Point","coordinates":[2.7016200000007,48.404675999998]},"properties":{"description":"Ch\u00e2teau","address":"FONTAINEBLEAU,FRANCE","placename":"Fontainebleau, France","title":"CHATEAU DE FONTAINEBLEAU"}},{"type":"Feature","geometry":{"type":"Point","coordinates":[2.3439900000043,48.867564099999]},"properties":{"description":"Ch\u00e2teau","address":"75002,PARIS,FRANCE","placename":"75002 Paris, France","title":"TOUR JEAN SANS PEUR"}},{"type":"Feature","geometry":{"type":"Point","coordinates":[1.7765789999998,49.279773999998]},"properties":{"description":"Ch\u00e2teau","address":"GISORS,FRANCE","placename":"Gisors, France","title":"CHATEAU DE GISORS"}},{"type":"Feature","geometry":{"type":"Point","coordinates":[0.65825800000361,47.388309]},"properties":{"description":"Ch\u00e2teau","address":"LA RICHE,FRANCE","placename":"La Riche, France","title":"CHATEAU DE PLESSIS-LEZ-TOURS"}},{"type":"Feature","geometry":{"type":"Point","coordinates":[2.9781729999975,49.347327999999]},"properties":{"description":"Ch\u00e2teau","address":"PIERREFONDS,FRANCE","placename":"Pierrefonds, France","title":"CHATEAU DE PIERREFONDS"}},{"type":"Feature","geometry":{"type":"Point","coordinates":[0.40621700000385,47.324847000003]},"properties":{"description":"Ch\u00e2teau","address":"LANGEAIS,FRANCE","placename":"Langeais, France","title":"CHATEAU DE LANGEAIS"}},{"type":"Feature","geometry":{"type":"Point","coordinates":[2.4733460000038,49.261132]},"properties":{"description":"Ch\u00e2teau","address":"CREIL,FRANCE","placename":"Creil, France","title":"CHATEAU DE CREIL"}},{"type":"Feature","geometry":{"type":"Point","coordinates":[0.99766400000197,47.128157999999]},"properties":{"description":"Ch\u00e2teau","address":"LOCHES,FRANCE","placename":"Loches, France","title":"CHATEAU DE LOCHES"}},{"type":"Feature","geometry":{"type":"Point","coordinates":[1.0999709999967,49.443231999999]},"properties":{"description":"Ch\u00e2teau","address":"ROUEN,FRANCE","placename":"Rouen, France","title":"CHATEAU DE ROBERT LE DIABLE"}},{"type":"Feature","geometry":{"type":"Point","coordinates":[2.1165980999999,48.824317000002]},"properties":{"description":"Ch\u00e2teau","address":"MARLY-LE-ROY,FRANCE","placename":"All\u00e9e du Roy, 78150 Le Chesnay, France","title":"CHATEAU DE MARLY"}},{"type":"Feature","geometry":{"type":"Point","coordinates":[10.451526000003,51.165690999999]},"properties":{"description":"Ch\u00e2teau","address":"ALLEMAGNE","placename":"Germany","title":"CHATEAU DE SIGMARINGEN"}},{"type":"Feature","geometry":{"type":"Point","coordinates":[1.0999709999967,49.443231999999]},"properties":{"description":"Ch\u00e2teau","address":"ROUEN,FRANCE","placename":"Rouen, France","title":"CHATEAU DE BOUVREUIL (CHATEAU DE ROUEN)"}},{"type":"Feature","geometry":{"type":"Point","coordinates":[3.0420480000027,36.752886999999]},"properties":{"description":"Arc de Triomphe","address":"ALGER,ALGERIE","placename":"Algiers, Algeria","title":"MAQAM ASH-SHAHID"}},{"type":"Feature","geometry":{"type":"Point","coordinates":[2.3439900000043,48.867564099999]},"properties":{"description":"Arc de Triomphe","address":"75002,PARIS,FRANCE","placename":"75002 Paris, France","title":"PORTE SAINT-MARTIN"}},{"type":"Feature","geometry":{"type":"Point","coordinates":[2.3111111000029,48.874166699999]},"properties":{"description":"Arc de Triomphe","address":"75008,PARIS,FRANCE","placename":"8th arrondissement of Paris, Paris, France","title":"ARC DE TRIOMPHE DE L'ETOILE"}},{"type":"Feature","geometry":{"type":"Point","coordinates":[2.3439900000043,48.867564099999]},"properties":{"description":"Arc de Triomphe","address":"75002,PARIS,FRANCE","placename":"75002 Paris, France","title":"PORTE SAINT-DENIS"}},{"type":"Feature","geometry":{"type":"Point","coordinates":[27.364639000002,37.949655999997]},"properties":{"description":"Amphit\u00e9atre Antique","address":"EPHESE,TURQUIE","placename":"Atat\u00fcrk Mh., Temple of Artemis, 35920 Sel\u00e7uk\/Izmir Province, Turkey","title":"THEATRE D'EPHESE (-300 AV JC)"}},{"type":"Feature","geometry":{"type":"Point","coordinates":[4.8075109999994,44.138098899999]},"properties":{"description":"Amphit\u00e9atre Antique","address":"ORANGE,FRANCE","placename":"Orange, France","title":"THEATRE ANTIQUE D'ORANGE"}},{"type":"Feature","geometry":{"type":"Point","coordinates":[12.460773699998,41.901514099999]},"properties":{"description":"Amphit\u00e9atre Antique","address":"ROME,ITALIE","placename":"Rome, Italy","title":"COLISEE DE ROME"}},{"type":"Feature","geometry":{"type":"Point","coordinates":[-0.57918000000316,44.837789000003]},"properties":{"description":"Amphit\u00e9atre Antique","address":"BORDEAUX,FRANCE","placename":"Bordeaux, France","title":"AMPHITHEATRE DE BORDEAUX (PALAIS GALLIEN)"}},{"type":"Feature","geometry":{"type":"Point","coordinates":[23.729309700001,37.983715499999]},"properties":{"description":"Agora","address":"ATHENES,GRECE","placename":"Athens, Greece","title":"AGORA D'ATHENES (-500 AV JC)"}},{"type":"Feature","geometry":{"type":"Point","coordinates":[23.729309700001,37.983715499999]},"properties":{"description":"Acropole","address":"ATHENES,GRECE","placename":"Athens, Greece","title":"ACROPOLE D'ATHENES (-450 AV JC)"}},{"type":"Feature","geometry":{"type":"Point","coordinates":[2.3002917000001,48.8413278]},"properties":{"description":"Vue du ciel","address":"75015,PARIS,FRANCE","placename":"15th arrondissement of Paris, Paris, France","title":"BALLON EUTELSAT AIRPARIF"}},{"type":"Feature","geometry":{"type":"Point","coordinates":[2.3522219000019,48.856613999999]},"properties":{"description":"Promenade","address":"PARIS,FRANCE","placename":"Paris, France","title":"PARC DE LA VILLETTE"}},{"type":"Feature","geometry":{"type":"Point","coordinates":[2.331052599997,48.864049300002]},"properties":{"description":"Promenade","address":"75001,PARIS,FRANCE","placename":"75001 Paris, France","title":"JARDIN DES TUILERIES"}},{"type":"Feature","geometry":{"type":"Point","coordinates":[2.381822199999,48.882350000002]},"properties":{"description":"Promenade","address":"75019,PARIS,FRANCE","placename":"19th arrondissement of Paris, Paris, France","title":"SQUARE DE LA BUTTE DU CHAPEAU ROUGE"}},{"type":"Feature","geometry":{"type":"Point","coordinates":[2.3591144999997,48.863479899997]},"properties":{"description":"Promenade","address":"75003,PARIS,FRANCE","placename":"75003 Paris, France","title":"SQUARE TEMPLE"}},{"type":"Feature","geometry":{"type":"Point","coordinates":[2.3002917000001,48.8413278]},"properties":{"description":"Promenade","address":"75015,PARIS,FRANCE","placename":"15th arrondissement of Paris, Paris, France","title":"SQUARE DU SERMENT DE KOUFRA"}},{"type":"Feature","geometry":{"type":"Point","coordinates":[2.3078389000008,48.882244400002]},"properties":{"description":"Promenade","address":"75017,PARIS,FRANCE","placename":"17th arrondissement of Paris, Paris, France","title":"SQUARE JACQUES AUDIBERTI"}},{"type":"Feature","geometry":{"type":"Point","coordinates":[2.331052599997,48.864049300002]},"properties":{"description":"Promenade","address":"75001,PARIS,FRANCE","placename":"75001 Paris, France","title":"JARDIN DES HALLES"}},{"type":"Feature","geometry":{"type":"Point","coordinates":[2.3078389000008,48.882244400002]},"properties":{"description":"Promenade","address":"75017,PARIS,FRANCE","placename":"17th arrondissement of Paris, Paris, France","title":"PROMENADE BERNARD LAFAY"}},{"type":"Feature","geometry":{"type":"Point","coordinates":[2.381822199999,48.882350000002]},"properties":{"description":"Promenade","address":"75019,PARIS,FRANCE","placename":"19th arrondissement of Paris, Paris, France","title":"JARDIN COMPANS"}},{"type":"Feature","geometry":{"type":"Point","coordinates":[2.3582788000038,48.853427500002]},"properties":{"description":"Promenade","address":"75004,PARIS,FRANCE","placename":"75004 Paris, France","title":"SQUARE CHARLES-VICTOR LANGLOIS"}},{"type":"Feature","geometry":{"type":"Point","coordinates":[2.2487626000004,48.853093299998]},"properties":{"description":"Promenade","address":"75016,PARIS,FRANCE","placename":"75016 Paris, France","title":"JARDIN DES SERRES D'AUTEUIL"}},{"type":"Feature","geometry":{"type":"Point","coordinates":[2.381822199999,48.882350000002]},"properties":{"description":"Promenade","address":"75019,PARIS,FRANCE","placename":"19th arrondissement of Paris, Paris, France","title":"SQUARE DU QUAI DE LA LOIRE"}},{"type":"Feature","geometry":{"type":"Point","coordinates":[2.3555555999978,48.832222200002]},"properties":{"description":"Promenade","address":"75013,PARIS,FRANCE","placename":"13th arrondissement of Paris, Paris, France","title":"JARDIN GANDON-MASSENA"}},{"type":"Feature","geometry":{"type":"Point","coordinates":[2.3002917000001,48.8413278]},"properties":{"description":"Promenade","address":"75015,PARIS,FRANCE","placename":"15th arrondissement of Paris, Paris, France","title":"PARC GEORGES BRASSENS"}},{"type":"Feature","geometry":{"type":"Point","coordinates":[2.3002917000001,48.8413278]},"properties":{"description":"Promenade","address":"75015,PARIS,FRANCE","placename":"15th arrondissement of Paris, Paris, France","title":"SQUARE COMMERCE"}},{"type":"Feature","geometry":{"type":"Point","coordinates":[2.3002917000001,48.8413278]},"properties":{"description":"Promenade","address":"75015,PARIS,FRANCE","placename":"15th arrondissement of Paris, Paris, France","title":"SQUARE VIOLET"}},{"type":"Feature","geometry":{"type":"Point","coordinates":[2.3078389000008,48.882244400002]},"properties":{"description":"Promenade","address":"75017,PARIS,FRANCE","placename":"17th arrondissement of Paris, Paris, France","title":"PROMENADE PEREIRE"}},{"type":"Feature","geometry":{"type":"Point","coordinates":[2.3078389000008,48.882244400002]},"properties":{"description":"Promenade","address":"75017,PARIS,FRANCE","placename":"17th arrondissement of Paris, Paris, France","title":"SQUARE LILY LASKINE"}},{"type":"Feature","geometry":{"type":"Point","coordinates":[2.3591144999997,48.863479899997]},"properties":{"description":"Promenade","address":"75003,PARIS,FRANCE","placename":"75003 Paris, France","title":"SQUARE EMILE CHAUTEMPS (SEBASTOPOL)"}},{"type":"Feature","geometry":{"type":"Point","coordinates":[2.3444472000026,48.892149999999]},"properties":{"description":"Promenade","address":"75018,PARIS,FRANCE","placename":"18th arrondissement of Paris, Paris, France","title":"SQUARE CHARLES HERMITE"}},{"type":"Feature","geometry":{"type":"Point","coordinates":[2.3881833,48.840808300002]},"properties":{"description":"Promenade","address":"75012,PARIS,FRANCE","placename":"12th arrondissement of Paris, Paris, France","title":"PROMENADE PLANTEE"}},{"type":"Feature","geometry":{"type":"Point","coordinates":[2.3522219000019,48.856613999999]},"properties":{"description":"Plage en Ville","address":"PARIS,FRANCE","placename":"Paris, France","title":"PARIS PLAGE"}},{"type":"Feature","geometry":{"type":"Point","coordinates":[2.2190329999958,48.869798000003]},"properties":{"description":"Plage en Ville","address":"SURESNES,FRANCE","placename":"Suresnes, France","title":"LA MER A SURESNES"}},{"type":"Feature","geometry":{"type":"Point","coordinates":[2.3522219000019,48.856613999999]},"properties":{"description":"Piscine","address":"PARIS,FRANCE","placename":"Paris, France","title":"AQUABOULEVARD DE PARIS"}},{"type":"Feature","geometry":{"type":"Point","coordinates":[3.4708299999998,43.312454999999]},"properties":{"description":"Parc Attraction","address":"AGDE,FRANCE","placename":"Agde, France","title":"LUNAPARK AGDE"}},{"type":"Feature","geometry":{"type":"Point","coordinates":[3.4185639999981,43.312489000001]},"properties":{"description":"Parc Attraction","address":"VIAS,FRANCE","placename":"Vias, France","title":"EUROPARK VIAS"}},{"type":"Feature","geometry":{"type":"Point","coordinates":[2.586068000002,49.103679000001]},"properties":{"description":"Parc Attraction","address":"PLAILLY,FRANCE","placename":"Plailly, France","title":"PARC ASTERIX"}},{"type":"Feature","geometry":{"type":"Point","coordinates":[2.331052599997,48.864049300002]},"properties":{"description":"Parc Attraction","address":"75001,PARIS,FRANCE","placename":"75001 Paris, France","title":"JARDIN LALANNE"}},{"type":"Feature","geometry":{"type":"Point","coordinates":[2.598505000002,48.859275999999]},"properties":{"description":"Parc Attraction","address":"MARNE LA VALLEE,FRANCE","placename":"77420 Marne-la-Vall\u00e9e, France","title":"DISNEYLAND PARIS"}},{"type":"Feature","geometry":{"type":"Point","coordinates":[3.4708299999998,43.312454999999]},"properties":{"description":"Parc Aquatique","address":"AGDE,FRANCE","placename":"Agde, France","title":"AQUALAND AGDE"}},{"type":"Feature","geometry":{"type":"Point","coordinates":[1.9754189999968,48.979317000003]},"properties":{"description":"Parc Aquatique","address":"VERNEUIL,FRANCE","placename":"Verneuil-sur-Seine, France","title":"CENTER PARCS NORMANDIE (VERNEUIL)"}},{"type":"Feature","geometry":{"type":"Point","coordinates":[2.0251649999968,47.601677000003]},"properties":{"description":"Parc Aquatique","address":"LAMOTTE-BEUVRON,FRANCE","placename":"41600 Lamotte-Beuvron, France","title":"CENTER PARCS SOLOGNE (LAMOTTE-BEUVRON)"}},{"type":"Feature","geometry":{"type":"Point","coordinates":[3.6654610000036,49.474176000001]},"properties":{"description":"Parc Aquatique","address":"CHAMOUILLE,FRANCE","placename":"02860 Chamouille, France","title":"CENTER PARCS AISNE (LAON)"}},{"type":"Feature","geometry":{"type":"Point","coordinates":[1.2170849999988,49.272602000002]},"properties":{"description":"Parc Accrobranche","address":"VAL DE REUIL,FRANCE","placename":"Val-de-Reuil, France","title":"VOLTIG'EURE"}},{"type":"Feature","geometry":{"type":"Point","coordinates":[1.9600770000035,48.782907000001]},"properties":{"description":"Mod\u00e9lisme","address":"78990,ELANCOURT,FRANCE","placename":"\u00c9lancourt, France","title":"FRANCE MINIATURE"}},{"type":"Feature","geometry":{"type":"Point","coordinates":[2.3262429999963,48.757204999999]},"properties":{"description":"Jouet","address":"94260,FRESNES,FRANCE","placename":"Fresnes, France","title":"PLAYMOBIL FUNPARK"}},{"type":"Feature","geometry":{"type":"Point","coordinates":[2.3811530000011,48.857993000002]},"properties":{"description":"Jouet","address":"75011,PARIS,FRANCE","placename":"75011 Paris, France","title":"CENTRE KAPLA"}},{"type":"Feature","geometry":{"type":"Point","coordinates":[2.3439900000043,48.867564099999]},"properties":{"description":"Jeux Vid\u00e9o","address":"75002,PARIS,FRANCE","placename":"75002 Paris, France","title":"LA TETE DANS LES NUAGES (SALLE DE JEUX)"}},{"type":"Feature","geometry":{"type":"Point","coordinates":[1.533503999996,49.081595000002]},"properties":{"description":"Jardin","address":"GIVERNY,FRANCE","placename":"Giverny, France","title":"LA MAISON DE CLAUDE MONET (GIVERNY)"}},{"type":"Feature","geometry":{"type":"Point","coordinates":[2.3002917000001,48.8413278]},"properties":{"description":"Jardin","address":"75015,PARIS,FRANCE","placename":"15th arrondissement of Paris, Paris, France","title":"PARC ANDRE CITROEN"}},{"type":"Feature","geometry":{"type":"Point","coordinates":[2.3439900000043,48.867564099999]},"properties":{"description":"Discoth\u00e8que","address":"75002,PARIS,FRANCE","placename":"75002 Paris, France","title":"LA GALERIE (SEVEN 2 ONE)"}},{"type":"Feature","geometry":{"type":"Point","coordinates":[1.2170849999988,49.272602000002]},"properties":{"description":"Base Nautique","address":"27100,VAL DE REUIL,FRANCE","placename":"Val-de-Reuil, France","title":"TELESKI NAUTIQUE LERY-POSES-VAL DE REUIL"}},{"type":"Feature","geometry":{"type":"Point","coordinates":[1.2170849999988,49.272602000002]},"properties":{"description":"Base Nautique","address":"VAL DE REUIL,FRANCE","placename":"Val-de-Reuil, France","title":"LA CAPOULADE LERY-POSES-VAL DE REUIL"}},{"type":"Feature","geometry":{"type":"Point","coordinates":[-0.88754499999896,48.974749999998]},"properties":{"description":"Atelier","address":"LA FERRI\u00c8RE-HARANG,FRANCE","placename":"14350 La Ferri\u00e8re-Harang, France","title":"VIADUC DE LA SOULEUVRE"}},{"type":"Feature","geometry":{"type":"Point","coordinates":[2.381822199999,48.882350000002]},"properties":{"description":"Atelier","address":"75019,PARIS,FRANCE","placename":"19th arrondissement of Paris, Paris, France","title":"CITE DES ENFANTS (LA VILLETTE)"}},{"type":"Feature","geometry":{"type":"Point","coordinates":[2.2764889000041,48.863611099999]},"properties":{"description":"Atelier","address":"75116,PARIS,FRANCE","placename":"16th arrondissement of Paris, Paris, France","title":"JARDIN D'ACCLIMATATION (ATELIER)"}},{"type":"Feature","geometry":{"type":"Point","coordinates":[3.5275389999963,43.355965999998]},"properties":{"description":"Port de Plaisance","address":"MARSEILLAN,FRANCE","placename":"Marseillan, France","title":"PORT DE MARSEILLAN"}},{"type":"Feature","geometry":{"type":"Point","coordinates":[5.8014349999975,43.118020999998]},"properties":{"description":"Port de Plaisance","address":"SANARY SUR MER,FRANCE","placename":"Sanary-sur-Mer, France","title":"PORT DE SANARY SUR MER"}},{"type":"Feature","geometry":{"type":"Point","coordinates":[6.1286390000018,43.120541000002]},"properties":{"description":"Port de Plaisance","address":"HYERES,FRANCE","placename":"Hy\u00e8res, France","title":"PORT DE HYERES LES PALMIERS"}},{"type":"Feature","geometry":{"type":"Point","coordinates":[-1.1702150000031,44.661383000003]},"properties":{"description":"Port de Plaisance","address":"ARCACHON,FRANCE","placename":"Arcachon, France","title":"PORT DU TEICH"}},{"type":"Feature","geometry":{"type":"Point","coordinates":[7.4246158000028,43.738417600001]},"properties":{"description":"Port de Plaisance","address":"MONACO,MONACO","placename":"Monaco","title":"PORT DE MONACO"}},{"type":"Feature","geometry":{"type":"Point","coordinates":[-1.5973019999993,48.837579]},"properties":{"description":"Port de P\u00eache-Plaisance","address":"GRANVILLE,FRANCE","placename":"Granville, France","title":"PORT DE GRANVILLE"}},{"type":"Feature","geometry":{"type":"Point","coordinates":[0.38077399999714,49.755601]},"properties":{"description":"Port de P\u00eache-Plaisance","address":"FECAMP,FRANCE","placename":"F\u00e9camp, France","title":"PORT DE FECAMP"}},{"type":"Feature","geometry":{"type":"Point","coordinates":[3.4708299999998,43.312454999999]},"properties":{"description":"Plage","address":"AGDE,FRANCE","placename":"Agde, France","title":"PLAGE DE LA TAMARISSIERE"}},{"type":"Feature","geometry":{"type":"Point","coordinates":[6.0722839999987,43.096777]},"properties":{"description":"Plage","address":"CARQUEIRANNE,FRANCE","placename":"Carqueiranne, France","title":"PLAGE DU PENO"}},{"type":"Feature","geometry":{"type":"Point","coordinates":[6.0722839999987,43.096777]},"properties":{"description":"Plage","address":"CARQUEIRANNE,FRANCE","placename":"Carqueiranne, France","title":"PLAGE DU PRADON"}},{"type":"Feature","geometry":{"type":"Point","coordinates":[6.0722839999987,43.096777]},"properties":{"description":"Plage","address":"CARQUEIRANNE,FRANCE","placename":"Carqueiranne, France","title":"PLAGE DES BAU ROUGES"}},{"type":"Feature","geometry":{"type":"Point","coordinates":[6.0186869999991,43.106932999999]},"properties":{"description":"Plage","address":"LE PRADET,FRANCE","placename":"Le Pradet, France","title":"PLAGE DES OURSINIERES"}},{"type":"Feature","geometry":{"type":"Point","coordinates":[6.0186869999991,43.106932999999]},"properties":{"description":"Plage","address":"LE PRADET,FRANCE","placename":"Le Pradet, France","title":"PLAGE DE LA GARONNE"}},{"type":"Feature","geometry":{"type":"Point","coordinates":[6.0186869999991,43.106932999999]},"properties":{"description":"Plage","address":"LE PRADET,FRANCE","placename":"Le Pradet, France","title":"PLAGE DU MONACO (LE PRADET)"}},{"type":"Feature","geometry":{"type":"Point","coordinates":[5.8782189999969,43.102975999997]},"properties":{"description":"Plage","address":"LA SEYNE-SUR-MER,FRANCE","placename":"La Seyne-sur-Mer, France","title":"PLAGE DE FABREGAS"}},{"type":"Feature","geometry":{"type":"Point","coordinates":[5.8392249999968,43.093061999998]},"properties":{"description":"Plage","address":"SIX-FOURS-LES-PLAGES,FRANCE","placename":"Six-Fours-les-Plages, France","title":"PLAGE DU CROS"}},{"type":"Feature","geometry":{"type":"Point","coordinates":[5.8392249999968,43.093061999998]},"properties":{"description":"Plage","address":"SIX-FOURS-LES-PLAGES,FRANCE","placename":"Six-Fours-les-Plages, France","title":"PLAGE DE LA COUDOULIERE"}},{"type":"Feature","geometry":{"type":"Point","coordinates":[5.8392249999968,43.093061999998]},"properties":{"description":"Plage","address":"SIX-FOURS-LES-PLAGES,FRANCE","placename":"Six-Fours-les-Plages, France","title":"PLAGE DU CAP NEGRE"}},{"type":"Feature","geometry":{"type":"Point","coordinates":[5.8392249999968,43.093061999998]},"properties":{"description":"Plage","address":"SIX-FOURS-LES-PLAGES,FRANCE","placename":"Six-Fours-les-Plages, France","title":"PLAGE DE BONNEGRACE"}},{"type":"Feature","geometry":{"type":"Point","coordinates":[5.8014349999975,43.118020999998]},"properties":{"description":"Plage","address":"SANARY-SUR-MER,FRANCE","placename":"Sanary-sur-Mer, France","title":"PLAGE DES BAUX"}},{"type":"Feature","geometry":{"type":"Point","coordinates":[5.8014349999975,43.118020999998]},"properties":{"description":"Plage","address":"SANARY-SUR-MER,FRANCE","placename":"Sanary-sur-Mer, France","title":"PLAGE DE PORTISSOL"}},{"type":"Feature","geometry":{"type":"Point","coordinates":[5.8014349999975,43.118020999998]},"properties":{"description":"Plage","address":"SANARY-SUR-MER,FRANCE","placename":"Sanary-sur-Mer, France","title":"LA PLAGE DE BEAUCOURS (SANARY-SUR-MER)"}},{"type":"Feature","geometry":{"type":"Point","coordinates":[5.8014349999975,43.118020999998]},"properties":{"description":"Plage","address":"SANARY-SUR-MER,FRANCE","placename":"Sanary-sur-Mer, France","title":"LA PLAGE DU PRADO (SANARY-SUR-MER)"}},{"type":"Feature","geometry":{"type":"Point","coordinates":[5.8014349999975,43.118020999998]},"properties":{"description":"Plage","address":"SANARY-SUR-MER,FRANCE","placename":"Sanary-sur-Mer, France","title":"LA PLAGE DOREE"}},{"type":"Feature","geometry":{"type":"Point","coordinates":[5.7541860000019,43.136418]},"properties":{"description":"Plage","address":"BANDOL,FRANCE","placename":"Bandol, France","title":"PLAGE DU CASINO"}},{"type":"Feature","geometry":{"type":"Point","coordinates":[5.7541860000019,43.136418]},"properties":{"description":"Plage","address":"BANDOL,FRANCE","placename":"Bandol, France","title":"ANSE DE RENECROS"}},{"type":"Feature","geometry":{"type":"Point","coordinates":[5.7095709999996,43.1826409]},"properties":{"description":"Plage","address":"SAINT-CYR-SUR-MER,FRANCE","placename":"Saint-Cyr-sur-Mer, France","title":"CALANQUE DE PORT D'ALON"}},{"type":"Feature","geometry":{"type":"Point","coordinates":[5.7095709999996,43.1826409]},"properties":{"description":"Plage","address":"SAINT-CYR-SUR-MER,FRANCE","placename":"Saint-Cyr-sur-Mer, France","title":"PLAGE DE LA MADRAGUE (SAINT-CYR-SUR-MER)"}},{"type":"Feature","geometry":{"type":"Point","coordinates":[5.7095709999996,43.1826409]},"properties":{"description":"Plage","address":"SAINT-CYR-SUR-MER,FRANCE","placename":"Saint-Cyr-sur-Mer, France","title":"PLAGE DES LECQUES"}},{"type":"Feature","geometry":{"type":"Point","coordinates":[-2.3932359999988,47.285447999999]},"properties":{"description":"Plage","address":"LA BAULE,FRANCE","placename":"La Baule-Escoublac, France","title":"PLAGE DE LA BAULE"}},{"type":"Feature","geometry":{"type":"Point","coordinates":[0.075121999996656,49.353975999999]},"properties":{"description":"Plage","address":"DEAUVILLE,FRANCE","placename":"Deauville, France","title":"PLAGE DE DEAUVILLE"}},{"type":"Feature","geometry":{"type":"Point","coordinates":[1.5906750000037,50.521276000003]},"properties":{"description":"Plage","address":"LE TOUQUET,FRANCE","placename":"Le Touquet, France","title":"PLAGE DU TOUQUET"}},{"type":"Feature","geometry":{"type":"Point","coordinates":[55.6,-21.100000000001]},"properties":{"description":"Plage","address":"ILE DE LA REUNION","placename":"Reunion, For\u00eat de B\u00e9bour, Reunion","title":"PLAGE DE BOUCAN CANOT"}},{"type":"Feature","geometry":{"type":"Point","coordinates":[-1.3743611999997,46.191353099998]},"properties":{"description":"Plage","address":"ILE DE RE,FRANCE","placename":"\u00cele de R\u00e9, France","title":"PLAGE DE LA CONCHE (ILE DE RE)"}},{"type":"Feature","geometry":{"type":"Point","coordinates":[1.5924999999974,50.423879999999]},"properties":{"description":"Plage","address":"BERCK SUR MER,FRANCE","placename":"Berck-sur-Mer, 62600 Berck, France","title":"PLAGE DE BERCK"}},{"type":"Feature","geometry":{"type":"Point","coordinates":[-1.3743611999997,46.191353099998]},"properties":{"description":"Plage","address":"ILE DE RE,FRANCE","placename":"\u00cele de R\u00e9, France","title":"PLAGE DE BOIS PLAGE (ILE DE RE)"}},{"type":"Feature","geometry":{"type":"Point","coordinates":[0.20556700000089,49.707436000002]},"properties":{"description":"Plage","address":"ETRETAT,FRANCE","placename":"\u00c9tretat, France","title":"PLAGE D'ETRETAT"}},{"type":"Feature","geometry":{"type":"Point","coordinates":[-0.25865800000353,49.276656000001]},"properties":{"description":"Plage","address":"OUISTREHAM,FRANCE","placename":"Ouistreham, France","title":"PLAGE DE OUISTREHAM"}},{"type":"Feature","geometry":{"type":"Point","coordinates":[-1.5382999999974,46.228900000002]},"properties":{"description":"Phare","address":"SAINT-CLEMENT DES BALEINES,FRANCE","placename":"Saint-Cl\u00e9ment-des-Baleines, France","title":"PHARE DES BALEINES"}},{"type":"Feature","geometry":{"type":"Point","coordinates":[0.20556700000089,49.707436000002]},"properties":{"description":"Falaise","address":"ETRETAT,FRANCE","placename":"\u00c9tretat, France","title":"FALAISE D'ETRETAT"}},{"type":"Feature","geometry":{"type":"Point","coordinates":[2.2137489999989,46.227638]},"properties":{"description":"Etang","address":"FRANCE","placename":"France","title":"ETANG DE THAU"}},{"type":"Feature","geometry":{"type":"Point","coordinates":[3.4708299999998,43.312454999999]},"properties":{"description":"Embouchure","address":"AGDE,FRANCE","placename":"Agde, France","title":"EMBOUCHURE DE L'HERAULT"}},{"type":"Feature","geometry":{"type":"Point","coordinates":[2.2137489999989,46.227638]},"properties":{"description":"Baie","address":"FRANCE","placename":"France","title":"BAIE DE SOMME"}},{"type":"Feature","geometry":{"type":"Point","coordinates":[-122.4194155,37.774929500003]},"properties":{"description":"Baie","address":"SAN FRANCISCO,ETATS-UNIS","placename":"San Francisco, CA, USA","title":"BAIE DE SAN FRANCISCO"}},{"type":"Feature","geometry":{"type":"Point","coordinates":[1.6171559999974,50.383942000003]},"properties":{"description":"Baie","address":"GROFFLIERS,FRANCE","placename":"Groffliers, France","title":"BAIE DE L'AUTHIE"}},{"type":"Feature","geometry":{"type":"Point","coordinates":[-122.4194155,37.774929500003]},"properties":{"description":"Prison","address":"SAN FRANCISCO,ETATS-UNIS","placename":"San Francisco, CA, USA","title":"ALCATRAZ (PRISON)"}},{"type":"Feature","geometry":{"type":"Point","coordinates":[-95.712890999999,37.090240000003]},"properties":{"description":"Gouvernement International","address":"ETATS-UNIS","placename":"United States","title":"CAMP DAVID"}},{"type":"Feature","geometry":{"type":"Point","coordinates":[-77.036365799997,38.895111800001]},"properties":{"description":"Gouvernement International","address":"WASHINGTON,ETATS-UNIS","placename":"Washington, DC, USA","title":"CONGRES DES ETATS-UNIS (SIEGE)"}},{"type":"Feature","geometry":{"type":"Point","coordinates":[-0.12768310000084,51.507334599999]},"properties":{"description":"Gouvernement International","address":"LONDRES,GRANDE-BRETAGNE","placename":"London, UK","title":"PARLEMENT BRITANIQUE (SIEGE)"}},{"type":"Feature","geometry":{"type":"Point","coordinates":[-77.036365799997,38.895111800001]},"properties":{"description":"Gouvernement International","address":"WASHINGTON,ETATS-UNIS","placename":"Washington, DC, USA","title":"MAISON BLANCHE"}},{"type":"Feature","geometry":{"type":"Point","coordinates":[6.1422961000044,46.198392200003]},"properties":{"description":"Gouvernement International","address":"GENEVE,SUISSE","placename":"Geneva, Switzerland","title":"PALAIS FEDERALE (SUISSE)"}},{"type":"Feature","geometry":{"type":"Point","coordinates":[35.21371,31.768319]},"properties":{"description":"Gouvernement International","address":"JERUSALEM,ISRAEL","placename":"Jerusalem, Israel","title":"KNESSET"}},{"type":"Feature","geometry":{"type":"Point","coordinates":[-77.036365799997,38.895111800001]},"properties":{"description":"Finance","address":"WASHINGTON,ETATS-UNIS","placename":"Washington, DC, USA","title":"RESERVE FEDERALE DES ETATS-UNIS (SIEGE)"}},{"type":"Feature","geometry":{"type":"Point","coordinates":[2.3134029000029,48.854334500001]},"properties":{"description":"Droit International","address":"75007,PARIS,FRANCE","placename":"75007 Paris, France","title":"COMMISSION NATIONALE FRANCAISE POUR L'UNESCO"}},{"type":"Feature","geometry":{"type":"Point","coordinates":[2.3361201000006,48.8676901]},"properties":{"description":"Droit International","address":"PARIS,MONDE","placename":"Voyageurs du Monde, 55 Rue Sainte-Anne, 75002 Paris, France","title":"UNESCO (SIEGE)"}},{"type":"Feature","geometry":{"type":"Point","coordinates":[1.183290000002,49.228177999997]},"properties":{"description":"Droit International","address":"LA HAYE,MONDE","placename":"Nouveau Monde, 27100 Val-de-Reuil, France","title":"COUR PENALE INTERNATIONALE (SIEGE)"}},{"type":"Feature","geometry":{"type":"Point","coordinates":[-74.005973100003,40.7143528]},"properties":{"description":"Droit International","address":"NEW-YORK,MONDE","placename":"New York, NY, USA","title":"ORGANISATION DES NATIONS UNIES (SIEGE)"}},{"type":"Feature","geometry":{"type":"Point","coordinates":[6.1563100999956,46.180747700001]},"properties":{"description":"Droit International","address":"GENEVES,MONDE","placename":"Le Bout-du-Monde, Geneva, Switzerland","title":"ORGANISATION DES NATIONS UNIES (GENEVES)"}},{"type":"Feature","geometry":{"type":"Point","coordinates":[-77.781167000004,21.521757]},"properties":{"description":"Droit International","address":"CUBA","placename":"Cuba","title":"GUANTANAMO"}},{"type":"Feature","geometry":{"type":"Point","coordinates":[6.1422961000044,46.198392200003]},"properties":{"description":"Droit International","address":"GENEVE,SUISSE","placename":"Geneva, Switzerland","title":"BUREAU INTERNATIONAL DE LA PAIX"}},{"type":"Feature","geometry":{"type":"Point","coordinates":[2.3522219000019,48.856613999999]},"properties":{"description":"Pouvoir Ex\u00e9cutif","address":"PARIS,FRANCE","placename":"Paris, France","title":"PALAIS DE L'ELYSEE"}},{"type":"Feature","geometry":{"type":"Point","coordinates":[2.3354222999977,48.848857600001]},"properties":{"description":"Politique","address":"75006,PARIS,FRANCE","placename":"75006 Paris, France","title":"FONDATION NATIONALE DES SCIENCES POLITIQUES"}},{"type":"Feature","geometry":{"type":"Point","coordinates":[2.3522219000019,48.856613999999]},"properties":{"description":"L\u00e9gislatif","address":"PARIS,FRANCE","placename":"Paris, France","title":"ASSEMBLEE NATIONALE (PALAIS BOURBON)"}},{"type":"Feature","geometry":{"type":"Point","coordinates":[2.3522219000019,48.856613999999]},"properties":{"description":"L\u00e9gislatif","address":"PARIS,FRANCE","placename":"Paris, France","title":"SENAT FRANCAIS (PALAIS DU LUXEMBOURG)"}},{"type":"Feature","geometry":{"type":"Point","coordinates":[2.3522219000019,48.856613999999]},"properties":{"description":"Finance","address":"PARIS,FRANCE","placename":"Paris, France","title":"BANQUE DE France"}},{"type":"Feature","geometry":{"type":"Point","coordinates":[2.3522219000019,48.856613999999]},"properties":{"description":"Droit International","address":"PARIS,FRANCE","placename":"Paris, France","title":"MINISTERE DES AFFAIRES ETRANGERES DE LA FRANCE (SIEGE)"}},{"type":"Feature","geometry":{"type":"Point","coordinates":[2.350647999998,48.767811000001]},"properties":{"description":"G\u00e9othermie","address":"94550,CHEVILLY-LARUE,FRANCE","placename":"Chevilly-Larue, France","title":"CENTRALE DE GEOTHERMIE DE LA SEMHACH"}},{"type":"Feature","geometry":{"type":"Point","coordinates":[2.0346999999993,42.498300000002]},"properties":{"description":"Four Solaire","address":"FONT-ROMEU,FRANCE","placename":"Font-Romeu-Odeillo-Via, France","title":"FOUR SOLAIRE D'ODEILLO"}},{"type":"Feature","geometry":{"type":"Point","coordinates":[2.3882199999972,48.813054999998]},"properties":{"description":"Centre de Valorisation Energ\u00e9tique","address":"94200,IVRY SUR SEINE,FRANCE","placename":"Ivry-sur-Seine, France","title":"CENTRE DE VALORISATION ENERGETIQUE D'IVRY-PARIS"}},{"type":"Feature","geometry":{"type":"Point","coordinates":[2.0457998000002,48.927223899999]},"properties":{"description":"Automobile","address":"78307,POISSY,FRANCE","placename":"Office de Tourime de Poissy, 132 Rue du G\u00e9n\u00e9ral de Gaulle, 78300 Poissy, France","title":"USINE PSA PEUGEOT-CITROEN (POISSY)"}},{"type":"Feature","geometry":{"type":"Point","coordinates":[-7.0926199999983,31.791702]},"properties":{"description":"Vall\u00e9e","address":"MAROC","placename":"Morocco","title":"VALLEE DES ROSES"}},{"type":"Feature","geometry":{"type":"Point","coordinates":[-7.0926199999983,31.791702]},"properties":{"description":"Vall\u00e9e","address":"MAROC","placename":"Morocco","title":"VALLEE HEUREUSE (MAROC)"}},{"type":"Feature","geometry":{"type":"Point","coordinates":[-7.0926199999983,31.791702]},"properties":{"description":"Vall\u00e9e","address":"MAROC","placename":"Morocco","title":"VALLEE DU DRAA"}},{"type":"Feature","geometry":{"type":"Point","coordinates":[-7.0926199999983,31.791702]},"properties":{"description":"Vall\u00e9e","address":"MAROC","placename":"Morocco","title":"VALLEE DU HENNE"}},{"type":"Feature","geometry":{"type":"Point","coordinates":[-7.0926199999983,31.791702]},"properties":{"description":"Vall\u00e9e","address":"MAROC","placename":"Morocco","title":"VALLEE DES IMGHRAN"}},{"type":"Feature","geometry":{"type":"Point","coordinates":[-7.0926199999983,31.791702]},"properties":{"description":"Vall\u00e9e","address":"MAROC","placename":"Morocco","title":"VALLEE D'AFOURAR"}},{"type":"Feature","geometry":{"type":"Point","coordinates":[133.7374926,34.677740199998]},"properties":{"description":"Satellite Plan\u00e8taire","address":"MONDE","placename":"Monde, Soja, Okayama Prefecture, Japan","title":"LUNE"}},{"type":"Feature","geometry":{"type":"Point","coordinates":[2.2137489999989,46.227638]},"properties":{"description":"R\u00e9serve Naturelle","address":"FRANCE","placename":"France","title":"RESERVE NATURELLE DE SCANDOLA"}},{"type":"Feature","geometry":{"type":"Point","coordinates":[-7.0926199999983,31.791702]},"properties":{"description":"Refuge de Montagne","address":"MAROC","placename":"Morocco","title":"REFUGE NELTNER"}},{"type":"Feature","geometry":{"type":"Point","coordinates":[133.7374926,34.677740199998]},"properties":{"description":"Plan\u00e8te","address":"MONDE","placename":"Monde, Soja, Okayama Prefecture, Japan","title":"TERRE (-4 600 000 000)"}},{"type":"Feature","geometry":{"type":"Point","coordinates":[2.3582788000038,48.853427500002]},"properties":{"description":"Mur V\u00e9g\u00e9tal","address":"75004,PARIS,FRANCE","placename":"75004 Paris, France","title":"MUR VEGETAL BHV HOMME"}},{"type":"Feature","geometry":{"type":"Point","coordinates":[2.3134029000029,48.854334500001]},"properties":{"description":"Mur V\u00e9g\u00e9tal","address":"75007,PARIS,FRANCE","placename":"75007 Paris, France","title":"MUR VEGETAL DU MUSEE DU QUAI BRANLY"}},{"type":"Feature","geometry":{"type":"Point","coordinates":[-5.9955809000011,31.373840000003]},"properties":{"description":"Montagne et Massif","address":"BOUMALNE DADES,MAROC","placename":"Boumalne Dades, Morocco","title":"MASSIF SAGHRO (ATLAS MAROC)"}},{"type":"Feature","geometry":{"type":"Point","coordinates":[2.2137489999989,46.227638]},"properties":{"description":"Montagne et Massif","address":"FRANCE","placename":"France","title":"MONT-BLANC"}},{"type":"Feature","geometry":{"type":"Point","coordinates":[-7.0926199999983,31.791702]},"properties":{"description":"Montagne et Massif","address":"MAROC","placename":"Morocco","title":"MASSIF M'GOUN (ATLAS MAROC)"}},{"type":"Feature","geometry":{"type":"Point","coordinates":[-7.9999999999983,31.633333300002]},"properties":{"description":"Montagne et Massif","address":"MARRAKECH,MAROC","placename":"Marrakesh, Morocco","title":"MASSIF TOUBKAL (ATLAS MAROC)"}},{"type":"Feature","geometry":{"type":"Point","coordinates":[34.508523,-8.7831949999966]},"properties":{"description":"Montagne et Massif","address":"AFRIQUE","placename":"Africa","title":"KILIMANJARO"}},{"type":"Feature","geometry":{"type":"Point","coordinates":[-95.712890999999,37.090240000003]},"properties":{"description":"Montagne et Massif","address":"ETATS-UNIS","placename":"United States","title":"GLACIER COLUMBIA (ALASKA)"}},{"type":"Feature","geometry":{"type":"Point","coordinates":[-7.0926199999983,31.791702]},"properties":{"description":"Gorge","address":"MAROC","placename":"Morocco","title":"GORGES OUSDIDINE"}},{"type":"Feature","geometry":{"type":"Point","coordinates":[-7.0926199999983,31.791702]},"properties":{"description":"Gorge","address":"MAROC","placename":"Morocco","title":"GORGES DU DADES"}},{"type":"Feature","geometry":{"type":"Point","coordinates":[-7.0926199999983,31.791702]},"properties":{"description":"Gorge","address":"MAROC","placename":"Morocco","title":"GORGES DU TOUDRA"}},{"type":"Feature","geometry":{"type":"Point","coordinates":[-7.0926199999983,31.791702]},"properties":{"description":"Gorge","address":"MAROC","placename":"Morocco","title":"GORGES D'AGOUTI"}},{"type":"Feature","geometry":{"type":"Point","coordinates":[133.7374926,34.677740199998]},"properties":{"description":"Galaxie","address":"MONDE","placename":"Monde, Soja, Okayama Prefecture, Japan","title":"GALAXIE M51"}},{"type":"Feature","geometry":{"type":"Point","coordinates":[-7.0926199999983,31.791702]},"properties":{"description":"Dune","address":"MAROC","placename":"Morocco","title":"DUNES DE CHEGAGA"}},{"type":"Feature","geometry":{"type":"Point","coordinates":[-7.0926199999983,31.791702]},"properties":{"description":"Dune","address":"MAROC","placename":"Morocco","title":"DUNES DE OULAD DRIS"}},{"type":"Feature","geometry":{"type":"Point","coordinates":[-1.1702150000031,44.661383000003]},"properties":{"description":"Dune","address":"ARCACHON,FRANCE","placename":"Arcachon, France","title":"DUNE DU PILAT"}},{"type":"Feature","geometry":{"type":"Point","coordinates":[-7.0926199999983,31.791702]},"properties":{"description":"Col","address":"MAROC","placename":"Morocco","title":"COL DE TAGMOUT"}},{"type":"Feature","geometry":{"type":"Point","coordinates":[-7.0926199999983,31.791702]},"properties":{"description":"Col","address":"MAROC","placename":"Morocco","title":"COL DE TICHKA"}},{"type":"Feature","geometry":{"type":"Point","coordinates":[-7.0926199999983,31.791702]},"properties":{"description":"Col","address":"MAROC","placename":"Morocco","title":"COL TIZI MZIK"}},{"type":"Feature","geometry":{"type":"Point","coordinates":[-7.0926199999983,31.791702]},"properties":{"description":"Col","address":"MAROC","placename":"Morocco","title":"COL MOUGUALTATE"}},{"type":"Feature","geometry":{"type":"Point","coordinates":[-7.0926199999983,31.791702]},"properties":{"description":"Col","address":"MAROC","placename":"Morocco","title":"COL DE TIZI N'OUGHRI"}},{"type":"Feature","geometry":{"type":"Point","coordinates":[-7.0926199999983,31.791702]},"properties":{"description":"Col","address":"MAROC","placename":"Morocco","title":"COL N'OUMSSOUD"}},{"type":"Feature","geometry":{"type":"Point","coordinates":[-7.0926199999983,31.791702]},"properties":{"description":"Cascade","address":"MAROC","placename":"Morocco","title":"CASCADES D'OUZOUD"}},{"type":"Feature","geometry":{"type":"Point","coordinates":[35.21371,31.768319]},"properties":{"description":"Tombeau","address":"JERUSALEM,PALESTINE","placename":"Jerusalem, Israel","title":"SAINT-SEPULCRE DE JERUSALEM (JESUS-CHRIST)"}},{"type":"Feature","geometry":{"type":"Point","coordinates":[35.21371,31.768319]},"properties":{"description":"Temple","address":"JERUSALEM,ISRAEL","placename":"Jerusalem, Israel","title":"MUR DES LAMENTATIONS (TEMPLE DE SALOMON -17 AV JC)"}},{"type":"Feature","geometry":{"type":"Point","coordinates":[35.21371,31.768319]},"properties":{"description":"Sanctuaire","address":"JERUSALEM,PALESTINE","placename":"Jerusalem, Israel","title":"DOME DU ROCHER A JERUSALEM (ABRAHAM-IBRAHIM-MAHOMET)"}},{"type":"Feature","geometry":{"type":"Point","coordinates":[28.976959999999,41.00527]},"properties":{"description":"Mosqu\u00e9e","address":"ISTANBUL,TURQUIE","placename":"Istanbul, Turkey","title":"MOSQUEE BLEUE (ISTANBUL)"}},{"type":"Feature","geometry":{"type":"Point","coordinates":[39.816666699996,21.4166667]},"properties":{"description":"Mosqu\u00e9e","address":"LA MECQUE,ARABIE SAOUDITE","placename":"Mecca Saudi Arabia","title":"MOSQUEE DE LA MECQUE"}},{"type":"Feature","geometry":{"type":"Point","coordinates":[10.097239999996,35.677138900003]},"properties":{"description":"Mosqu\u00e9e","address":"KAIROUAN,TUNISIE","placename":"Al-Qayrawan, Tunisia","title":"GRANDE MOSQUEE DE KAIROUAN"}},{"type":"Feature","geometry":{"type":"Point","coordinates":[36.306400000001,33.511099999997]},"properties":{"description":"Mosqu\u00e9e","address":"DAMAS,SYRIE","placename":"Damascus, Syria","title":"GRANDE MOSQUEE DES OMEYYADES DAMAS"}},{"type":"Feature","geometry":{"type":"Point","coordinates":[35.21371,31.768319]},"properties":{"description":"Mosqu\u00e9e","address":"JERUSALEM EST,PALESTINE","placename":"Jerusalem, Israel","title":"MOSQUEE AL-AQSA DE JERUSALEM"}},{"type":"Feature","geometry":{"type":"Point","coordinates":[-4.7791268999961,37.8847225]},"properties":{"description":"Mosqu\u00e9e","address":"CORDOUE,ESPAGNE","placename":"Cordova, Andalusia, Spain","title":"ANCIENNE MOSQUEE DE CORDOUE"}},{"type":"Feature","geometry":{"type":"Point","coordinates":[35.21371,31.768319]},"properties":{"description":"Esplanade","address":"JERUSALEM EST,PALESTINE","placename":"Jerusalem, Israel","title":"ESPLANADE DES MOSQUEES"}},{"type":"Feature","geometry":{"type":"Point","coordinates":[4.0316959999975,49.258328999998]},"properties":{"description":"Cimeti\u00e8re","address":"REIMS,FRANCE","placename":"Rheims, France","title":"CIMETIERE DE L'EST DE REIMS"}},{"type":"Feature","geometry":{"type":"Point","coordinates":[6.6331189999983,47.700254000001]},"properties":{"description":"Chapelle","address":"RONCHAMP,FRANCE","placename":"Ronchamp, France","title":"CHAPELLE DE RONCHAMP"}},{"type":"Feature","geometry":{"type":"Point","coordinates":[2.3522219000019,48.856613999999]},"properties":{"description":"Chapelle","address":"PARIS,FRANCE","placename":"Paris, France","title":"SAINTE CHAPELLE DE PARIS"}},{"type":"Feature","geometry":{"type":"Point","coordinates":[37.618421700003,55.751241899998]},"properties":{"description":"Cath\u00e9drale","address":"MOSCOU,RUSSIE","placename":"Moscow, Russia","title":"CATHEDRALE SAINT-BASILE"}},{"type":"Feature","geometry":{"type":"Point","coordinates":[4.0316959999975,49.258328999998]},"properties":{"description":"Cath\u00e9drale","address":"REIMS,FRANCE","placename":"Rheims, France","title":"CATHEDRALE DE REIMS"}},{"type":"Feature","geometry":{"type":"Point","coordinates":[7.7478819999967,48.583148]},"properties":{"description":"Cath\u00e9drale","address":"STRASBOURG,FRANCE","placename":"Strasbourg, France","title":"CATHEDRALE DE STRASBOURG"}},{"type":"Feature","geometry":{"type":"Point","coordinates":[-4.7791268999961,37.8847225]},"properties":{"description":"Cath\u00e9drale","address":"CORDOUE,ESPAGNE","placename":"Cordova, Andalusia, Spain","title":"CATHEDRALE DE CORDOUE"}},{"type":"Feature","geometry":{"type":"Point","coordinates":[2.3522219000019,48.856613999999]},"properties":{"description":"Cath\u00e9drale","address":"PARIS,FRANCE","placename":"Paris, France","title":"NOTRE DAME DE PARIS"}},{"type":"Feature","geometry":{"type":"Point","coordinates":[2.2957529999988,49.894067000001]},"properties":{"description":"Cath\u00e9drale","address":"AMIENS,FRANCE","placename":"Amiens, France","title":"CATHEDRALE D'AMIENS"}},{"type":"Feature","geometry":{"type":"Point","coordinates":[1.4442089999994,43.604651999997]},"properties":{"description":"Cath\u00e9drale","address":"TOULOUSE,FRANCE","placename":"Toulouse, France","title":"CATHEDRALE DE TOULOUSE"}},{"type":"Feature","geometry":{"type":"Point","coordinates":[1.078908899997,51.280233]},"properties":{"description":"Cath\u00e9drale","address":"CANTERBURY,GRANDE-BRETAGNE","placename":"Canterbury, Kent, UK","title":"CATHEDRALE DE CANTERBURY"}},{"type":"Feature","geometry":{"type":"Point","coordinates":[1.4890119999993,48.443853999997]},"properties":{"description":"Cath\u00e9drale","address":"CHARTRES,FRANCE","placename":"Chartres, France","title":"CATHEDRALE DE CHARTRES"}},{"type":"Feature","geometry":{"type":"Point","coordinates":[3.0870249999991,45.777222000001]},"properties":{"description":"Cath\u00e9drale","address":"CLERMONT-FERRAND,FRANCE","placename":"Clermont-Ferrand, France","title":"CATHEDRALE DE CLERMONT-FERRAND"}},{"type":"Feature","geometry":{"type":"Point","coordinates":[1.2611050000013,45.833619]},"properties":{"description":"Cath\u00e9drale","address":"LIMOGES,FRANCE","placename":"Limoges, France","title":"CATHEDRALE DE LIMOGES"}},{"type":"Feature","geometry":{"type":"Point","coordinates":[-1.5465904997847,47.194371594924]},"properties":{"youtube:link":"","water":"0","energy":"0","co2e":"0","weight":"0","description":"Cath\u00e9drale","address":"Boulevard du G\u00e9n\u00e9ral de Gaulle, 44400 Rez\u00e9, France","placename":"Nantes, France","title":"CATHEDRALE DE NANTES"}},{"type":"Feature","geometry":{"type":"Point","coordinates":[1.0999709999967,49.443231999999]},"properties":{"description":"Cath\u00e9drale","address":"ROUEN,FRANCE","placename":"Rouen, France","title":"CATHEDRALE DE ROUEN"}},{"type":"Feature","geometry":{"type":"Point","coordinates":[1.4890119999993,48.443853999997]},"properties":{"description":"Cath\u00e9drale","address":"CHARTRES,FRANCE","placename":"Chartres, France","title":"CATHEDRALE CHARTRES"}},{"type":"Feature","geometry":{"type":"Point","coordinates":[3.2826799999976,48.200649999999]},"properties":{"description":"Cath\u00e9drale","address":"SENS,FRANCE","placename":"89100 Sens, France","title":"CATHEDRALE DE SENS"}},{"type":"Feature","geometry":{"type":"Point","coordinates":[2.0818749999978,49.42964]},"properties":{"description":"Cath\u00e9drale","address":"BEAUVAIS,FRANCE","placename":"Beauvais, France","title":"CATHEDRALE DE BEAUVAIS"}},{"type":"Feature","geometry":{"type":"Point","coordinates":[3.3879337999971,50.6056475]},"properties":{"description":"Cath\u00e9drale","address":"TOURNAI,BELGIQUE","placename":"Tournai, Belgium","title":"CATHEDRALE DE TOURNAI"}},{"type":"Feature","geometry":{"type":"Point","coordinates":[-0.12768310000084,51.507334599999]},"properties":{"description":"Cath\u00e9drale","address":"LONDRES,GRANDE-BRETAGNE","placename":"London, UK","title":"CATHEDRALE SAINT-PAUL DE LONDRES"}},{"type":"Feature","geometry":{"type":"Point","coordinates":[1.4442089999994,43.604651999997]},"properties":{"description":"Cath\u00e9drale","address":"TOULOUSE,FRANCE","placename":"Toulouse, France","title":"CATHEDRALE SAINT-SERNIN DE TOULOUSE"}},{"type":"Feature","geometry":{"type":"Point","coordinates":[2.5759860000036,44.349389]},"properties":{"description":"Cath\u00e9drale","address":"RODEZ,FRANCE","placename":"Rodez, France","title":"CATHEDRALE DE RODEZ"}},{"type":"Feature","geometry":{"type":"Point","coordinates":[0.69997709990257,47.380870994916]},"properties":{"youtube:link":"","water":"0","energy":"0","co2e":"0","weight":"0","description":"Cath\u00e9drale","address":"Avenue du G\u00e9n\u00e9ral de Gaulle, 37000 Tours, France","placename":"Tours, France","title":"CATHEDRALE DE TOURS"}},{"type":"Feature","geometry":{"type":"Point","coordinates":[2.5832119999993,49.205164000001]},"properties":{"description":"Cath\u00e9drale","address":"SENLIS,FRANCE","placename":"Senlis, France","title":"CATHEDRALE DE SENLIS"}},{"type":"Feature","geometry":{"type":"Point","coordinates":[5.3697800000009,43.296482000003]},"properties":{"description":"Basilique","address":"MARSEILLE,FRANCE","placename":"Marseille, France","title":"BASILIQUE NOTRE DAME DE LA GARDE"}},{"type":"Feature","geometry":{"type":"Point","coordinates":[2.3574429999985,48.936181000001]},"properties":{"description":"Basilique","address":"SAINT-DENIS,FRANCE","placename":"Saint-Denis, France","title":"BASILIQUE SAINT-DENIS"}},{"type":"Feature","geometry":{"type":"Point","coordinates":[2.3522219000019,48.856613999999]},"properties":{"description":"Basilique","address":"PARIS,FRANCE","placename":"Paris, France","title":"SACRE COEUR"}},{"type":"Feature","geometry":{"type":"Point","coordinates":[-0.41035199999999,49.189997]},"properties":{"description":"Abbaye","address":"SAINT-GERMAIN-LA-BLANCHE-HERBE,FRANCE","placename":"Saint-Germain-la-Blanche-Herbe, France","title":"LA GRANGE AUX DIMES DE L'ABBAYE DE SAINT-GERMAIN-LA-BLANCHE-HERBE)"}},{"type":"Feature","geometry":{"type":"Point","coordinates":[4.9119529000041,46.561815999999]},"properties":{"description":"Abbaye","address":"TOURNUS,FRANCE","placename":"Tournus, France","title":"ABBAYE DE TOURNUS"}},{"type":"Feature","geometry":{"type":"Point","coordinates":[-0.75261499999659,51.286893900002]},"properties":{"description":"Abbaye","address":"FARNBOROUGH,GRANDE-BRETAGNE","placename":"Farnborough, Hampshire, UK","title":"ABBAYE SAINT-MICHEL (FARNBOROUGH GRANDE-BRETAGNE)"}},{"type":"Feature","geometry":{"type":"Point","coordinates":[6.3811109999968,47.816840899999]},"properties":{"description":"Abbaye","address":"LUXEUIL,FRANCE","placename":"Luxeuil-les-Bains, France","title":"ABBAYE DE LUXEUIL"}},{"type":"Feature","geometry":{"type":"Point","coordinates":[0.81945900000031,49.433213999998]},"properties":{"description":"Abbaye","address":"JUMIEGE,FRANCE","placename":"Jumi\u00e8ges, France","title":"ABBAYE DE JUMIEGE"}},{"type":"Feature","geometry":{"type":"Point","coordinates":[0.049576999999478,47.181755000001]},"properties":{"description":"Abbaye","address":"FONTEVRAULT,FRANCE","placename":"Fontevraud-l'Abbaye, France","title":"ABBAYE DE FONTEVRAULT"}},{"type":"Feature","geometry":{"type":"Point","coordinates":[2.3192310000002,47.810331000003]},"properties":{"description":"Abbaye","address":"SAINT-BENOIT-SUR-LOIRE,FRANCE","placename":"Saint-Beno\u00eet-sur-Loire, France","title":"ABBAYE DE SAINT-BENOIT-SUR-LOIRE"}},{"type":"Feature","geometry":{"type":"Point","coordinates":[2.2137489999989,46.227638]},"properties":{"description":"Abbaye","address":"FRANCE","placename":"France","title":"MONT SAINT-MICHEL"}},{"type":"Feature","geometry":{"type":"Point","coordinates":[2.4170139999981,42.594711999998]},"properties":{"description":"Abbaye","address":"SAINT-MICHEL-DE-CUXA,FRANCE","placename":"Saint-Michel-de-Cuxa, Route de Taurinya, 66500 Codalet, France","title":"ABBAYE DE SAINT-MICHEL-DE-CUXA"}},{"type":"Feature","geometry":{"type":"Point","coordinates":[4.664554999998,46.428968]},"properties":{"description":"Abbaye","address":"CLUNY,FRANCE","placename":"Cluny, France","title":"ABBAYE DE CLUNY"}},{"type":"Feature","geometry":{"type":"Point","coordinates":[2.3574429999985,48.936181000001]},"properties":{"description":"Abbaye","address":"SAINT-DENIS,FRANCE","placename":"Saint-Denis, France","title":"ABBAYE DE SAINT-DENIS"}},{"type":"Feature","geometry":{"type":"Point","coordinates":[2.477729999998,48.634545000002]},"properties":{"description":"Mus\u00e9e","address":"91450,ETIOLLES,FRANCE","placename":"\u00c9tiolles, France","title":"CENTRE D'EXPOSITION ARCHEOLOGIQUE D'ETIOLLES"}},{"type":"Feature","geometry":{"type":"Point","coordinates":[2.3522219000019,48.856613999999]},"properties":{"description":"Mus\u00e9e","address":"PARIS,FRANCE","placename":"Paris, France","title":"LE GRAND PALAIS (PARIS)"}},{"type":"Feature","geometry":{"type":"Point","coordinates":[2.381822199999,48.882350000002]},"properties":{"description":"Mus\u00e9e","address":"75019,PARIS,FRANCE","placename":"19th arrondissement of Paris, Paris, France","title":"CITE DES SCIENCES ET DE L'INDUSTRIE (LA VILLETTE)"}},{"type":"Feature","geometry":{"type":"Point","coordinates":[2.6926109999967,48.267043000001]},"properties":{"description":"Mus\u00e9e","address":"77140,NEMOURS,FRANCE","placename":"Nemours, France","title":"MUSEE DE LA PREHISTOIRE DE NEMOURS"}},{"type":"Feature","geometry":{"type":"Point","coordinates":[2.3591144999997,48.863479899997]},"properties":{"description":"Mus\u00e9e","address":"75003,PARIS,FRANCE","placename":"75003 Paris, France","title":"MUSEE CARNAVALET"}},{"type":"Feature","geometry":{"type":"Point","coordinates":[1.200878999997,48.833473000001]},"properties":{"description":"Mus\u00e9e","address":"27320,MARCILLY LA CAMPAGNE,FRANCE","placename":"Marcilly-la-Campagne, France","title":"MUSEE LES ROUTILS"}},{"type":"Feature","geometry":{"type":"Point","coordinates":[2.3111111000029,48.874166699999]},"properties":{"description":"Mus\u00e9e","address":"75008,PARIS,FRANCE","placename":"8th arrondissement of Paris, Paris, France","title":"PALAIS DE LA DECOUVERTE"}},{"type":"Feature","geometry":{"type":"Point","coordinates":[2.314738999997,48.955735]},"properties":{"description":"Mus\u00e9e","address":"93800,EPINAY-SUR-SEINE,FRANCE","placename":"\u00c9pinay-sur-Seine, France","title":"CENTRE DEPARTEMENTALE D'ARCHEOLOGIE DE SEINE-SAINT-DENIS"}},{"type":"Feature","geometry":{"type":"Point","coordinates":[31.235711600004,30.0444196]},"properties":{"description":"Mus\u00e9e","address":"LE CAIRE,EGYPTE","placename":"Cairo, Cairo Governorate, Egypt","title":"MUSEE DE LOUXOR"}},{"type":"Feature","geometry":{"type":"Point","coordinates":[2.3591144999997,48.863479899997]},"properties":{"description":"Mus\u00e9e","address":"75003,PARIS,FRANCE","placename":"75003 Paris, France","title":"MUSEE DE LA MAGIE"}},{"type":"Feature","geometry":{"type":"Point","coordinates":[2.3522219000019,48.856613999999]},"properties":{"description":"Mus\u00e9e","address":"PARIS,FRANCE","placename":"Paris, France","title":"MUSEE NATIONALE D'HISTOIRE NATURELLE"}},{"type":"Feature","geometry":{"type":"Point","coordinates":[2.2487626000004,48.853093299998]},"properties":{"description":"Mus\u00e9e","address":"75016,PARIS,FRANCE","placename":"75016 Paris, France","title":"MUSEE DE LA MARINE"}},{"type":"Feature","geometry":{"type":"Point","coordinates":[2.4253770000025,48.936752000003]},"properties":{"description":"Mus\u00e9e","address":"LE BOURGET,FRANCE","placename":"Le Bourget, France","title":"MUSEE DE L'AIR"}},{"type":"Feature","geometry":{"type":"Point","coordinates":[2.3522219000019,48.856613999999]},"properties":{"description":"Mus\u00e9e","address":"PARIS,FRANCE","placename":"Paris, France","title":"MUSEE DE L'ARMEE"}},{"type":"Feature","geometry":{"type":"Point","coordinates":[2.3522219000019,48.856613999999]},"properties":{"description":"Mus\u00e9e","address":"PARIS,FRANCE","placename":"Paris, France","title":"MUSEE D'ORSAY"}},{"type":"Feature","geometry":{"type":"Point","coordinates":[-0.58726900000292,44.835008800003]},"properties":{"description":"Mus\u00e9e","address":"33000,BORDEAUX,FRANCE","placename":"33000 Bordeaux, France","title":"MUSEE D'ART CONTEMPORAIN CAPC (BORDEAUX)"}},{"type":"Feature","geometry":{"type":"Point","coordinates":[2.331052599997,48.864049300002]},"properties":{"description":"Mus\u00e9e","address":"75001,PARIS,FRANCE","placename":"75001 Paris, France","title":"MUSEE DU LOUVRE"}},{"type":"Feature","geometry":{"type":"Point","coordinates":[-2.9234408999979,43.256962900003]},"properties":{"description":"Mus\u00e9e","address":"BILBAO,ESPAGNE","placename":"Bilbao, Basque Country, Spain","title":"MUSEE GUGGENHEIM DE BILBAO"}},{"type":"Feature","geometry":{"type":"Point","coordinates":[-0.8750449999982,43.646285000001]},"properties":{"description":"Mus\u00e9e","address":"NOUMEA,FRANCE","placename":"Noum\u00e9a, 40360 Castelnau-Chalosse, France","title":"CENTRE CULTUREL TJIBAOU"}},{"type":"Feature","geometry":{"type":"Point","coordinates":[2.3582788000038,48.853427500002]},"properties":{"description":"Mus\u00e9e","address":"75004,PARIS,FRANCE","placename":"75004 Paris, France","title":"BEAUBOURG CENTRE POMPIDOU"}},{"type":"Feature","geometry":{"type":"Point","coordinates":[2.3522219000019,48.856613999999]},"properties":{"description":"Mus\u00e9e","address":"PARIS,FRANCE","placename":"Paris, France","title":"INSTITUT DU MONDE ARABE"}},{"type":"Feature","geometry":{"type":"Point","coordinates":[2.331052599997,48.864049300002]},"properties":{"description":"Mus\u00e9e","address":"75001,PARIS,FRANCE","placename":"75001 Paris, France","title":"MUSEE D'ARTS DECORATIFS"}},{"type":"Feature","geometry":{"type":"Point","coordinates":[34.453593000003,31.522561000003]},"properties":{"description":"Centre Culturel","address":"GAZA,PALESTINE","placename":"Gaza","title":"CENTRE CULTUREL FRANCAIS DE GAZA"}},{"type":"Feature","geometry":{"type":"Point","coordinates":[2.3369667000015,48.878280600003]},"properties":{"description":"V\u00e9tement","address":"75009,PARIS,FRANCE","placename":"9th arrondissement of Paris, Paris, France","title":"GUERRISOL"}},{"type":"Feature","geometry":{"type":"Point","coordinates":[1.0069100000031,49.292162999999]},"properties":{"description":"Optique","address":"76500,ELBEUF,FRANCE","placename":"Elbeuf, France","title":"IDEALOPTIQUE (ELBEUF)"}},{"type":"Feature","geometry":{"type":"Point","coordinates":[2.3439900000043,48.867564099999]},"properties":{"description":"Mod\u00e9lisme","address":"75002,PARIS,FRANCE","placename":"75002 Paris, France","title":"CENTRAL TRAIN"}},{"type":"Feature","geometry":{"type":"Point","coordinates":[2.331052599997,48.864049300002]},"properties":{"description":"Mod\u00e9lisme","address":"75001,PARIS,FRANCE","placename":"75001 Paris, France","title":"LE BONHOMME DE BOIS"}},{"type":"Feature","geometry":{"type":"Point","coordinates":[2.3603688999975,48.878561799999]},"properties":{"description":"Location V\u00e9hicule","address":"75010,PARIS,FRANCE","placename":"75010 Paris, France","title":"AVIS GARE DE L'EST"}},{"type":"Feature","geometry":{"type":"Point","coordinates":[2.331052599997,48.864049300002]},"properties":{"description":"Location V\u00e9hicule","address":"75001,PARIS,FRANCE","placename":"75001 Paris, France","title":"INTERRENT BEAUBOURG"}},{"type":"Feature","geometry":{"type":"Point","coordinates":[2.3582788000038,48.853427500002]},"properties":{"description":"Erotisme","address":"75004,PARIS,FRANCE","placename":"75004 Paris, France","title":"PASSAGE DU DESIR (MAGASIN)"}},{"type":"Feature","geometry":{"type":"Point","coordinates":[2.331052599997,48.864049300002]},"properties":{"description":"Centre Commercial","address":"75001,PARIS,FRANCE","placename":"75001 Paris, France","title":"FORUM DES HALLES"}},{"type":"Feature","geometry":{"type":"Point","coordinates":[7.7478819999967,48.583148]},"properties":{"description":"Parlement","address":"STRASBOURG,FRANCE","placename":"Strasbourg, France","title":"PARLEMENT EUROPEEN (SIEGE)"}},{"type":"Feature","geometry":{"type":"Point","coordinates":[8.6821267000028,50.110922100002]},"properties":{"description":"Finance","address":"FRANCFORT,ALLEMAGNE","placename":"Frankfurt, Germany","title":"BANQUE CENTRALE EUROPEENNE (SIEGE)"}},{"type":"Feature","geometry":{"type":"Point","coordinates":[6.1319346000031,49.611621]},"properties":{"description":"Cour de Justice","address":"LUXEMBOURG,LUXEMBOURG","placename":"Luxembourg","title":"COUR DE JUSTICE DES COMMUNAUTES EUROPEENNES (SIEGE)"}},{"type":"Feature","geometry":{"type":"Point","coordinates":[4.3517103000014,50.850339599998]},"properties":{"description":"Commission","address":"BRUXELLES,BELGIQUE","placename":"City of Brussels, Belgium","title":"COMMISSION EUROPEENNE (SIEGE)"}},{"type":"Feature","geometry":{"type":"Point","coordinates":[0.8198919999957,48.731932]},"properties":{"description":"Fonderie","address":"27130,LES BARILS,FRANCE","placename":"Les Barils, France","title":"FONDERIE D'ART DES BARILS"}},{"type":"Feature","geometry":{"type":"Point","coordinates":[2.1639769999968,48.696893000001]},"properties":{"description":"Moulin","address":"BURES-SUR-YVETTE,FRANCE","placename":"Bures-sur-Yvette, France","title":"LE MOULIN GUIBERT"}},{"type":"Feature","geometry":{"type":"Point","coordinates":[0.77085200000021,49.397284899998]},"properties":{"description":"Moulin","address":"HAUVILLE,FRANCE","placename":"Hauville, France","title":"MOULIN MEDIEVAL DE HAUVILLE"}}],"properties":{"tags":"","description":"","title":"Lieux du monde \u00e0 visiter (source ilyatoo.com)"}}