{"type":"FeatureCollection","features":[{"type":"Feature","geometry":{"type":"Point","coordinates":[-92.869137387068,44.730712395044]},"properties":{"description":"","address":"Zweber Ln, Hastings, MN 55033, USA","title":"Organic Valley Farm"}},{"type":"Feature","geometry":{"type":"Point","coordinates":[-95.43164908672,48.597844994867]},"properties":{"supplychain_instance_id":"supplychain-1","stop_instance_id":"stop-361","description":"","address":"Winner Forest Rd, MN, USA","title":"Organic Valley Farm"}},{"type":"Feature","geometry":{"type":"Point","coordinates":[-89.398528287556,40.633124895294]},"properties":{"supplychain_instance_id":"supplychain-1","stop_instance_id":"stop-324","description":"","address":"Illinois, USA","title":"Organic Valley Farm"}},{"type":"Feature","geometry":{"type":"Point","coordinates":[-88.787867787641,43.784439695096]},"properties":{"supplychain_instance_id":"supplychain-1","stop_instance_id":"stop-289","description":"","address":"Wisconsin, USA","title":"Organic Valley Farm"}},{"type":"Feature","geometry":{"type":"Point","coordinates":[-90.481902887402,42.645842795163]},"properties":{"supplychain_instance_id":"supplychain-1","stop_instance_id":"stop-256","description":"","address":"Vosberg Ln, Smelser, WI 53818, USA","title":"Organic Valley Farm"}},{"type":"Feature","geometry":{"type":"Point","coordinates":[-91.175816487307,43.53970069511]},"properties":{"supplychain_instance_id":"supplychain-1","stop_instance_id":"stop-225","description":"","address":"Trussoni Ln, Genoa, WI 54632, USA","title":"Organic Valley Farm"}},{"type":"Feature","geometry":{"type":"Point","coordinates":[-90.129024987458,42.950747995145]},"properties":{"supplychain_instance_id":"supplychain-1","stop_instance_id":"stop-196","description":"","address":"Upland Hills Health: Tranel Kari L, 800 Compassion Way, Dodgeville, WI 53533, USA","title":"Organic Valley Farm"}},{"type":"Feature","geometry":{"type":"Point","coordinates":[-81.621626988638,41.504639995236]},"properties":{"supplychain_instance_id":"supplychain-1","stop_instance_id":"stop-169","description":"","address":"Cleveland Clinic Foundation: Stoller James K MD, 9500 Euclid Ave, Cleveland, OH 44195, USA","title":"Organic Valley Farm"}},{"type":"Feature","geometry":{"type":"Point","coordinates":[-85.602364288084,44.314844295066]},"properties":{"supplychain_instance_id":"supplychain-1","stop_instance_id":"stop-144","description":"","address":"Michigan, USA","title":"Organic Valley Farm"}},{"type":"Feature","geometry":{"type":"Point","coordinates":[-90.780695387367,44.260794495069]},"properties":{"supplychain_instance_id":"supplychain-1","stop_instance_id":"stop-121","description":"","address":"Sheppard, Black River Falls, WI 54615, USA","title":"Organic Valley Farm"}},{"type":"Feature","geometry":{"type":"Point","coordinates":[-88.787867787641,43.784439695096]},"properties":{"supplychain_instance_id":"supplychain-1","stop_instance_id":"stop-100","description":"","address":"Wisconsin, USA","title":"Organic Valley Farm"}},{"type":"Feature","geometry":{"type":"Point","coordinates":[-83.336593988399,41.557549695232]},"properties":{"supplychain_instance_id":"supplychain-1","stop_instance_id":"stop-81","description":"","address":"Martin, Clay, OH 43445, USA","title":"Organic Valley Farm"}},{"type":"Feature","geometry":{"type":"Point","coordinates":[-83.336593988399,41.557549695232]},"properties":{"supplychain_instance_id":"supplychain-1","stop_instance_id":"stop-64","description":"","address":"Martin, Clay, OH 43445, USA","title":"Organic Valley Farm"}},{"type":"Feature","geometry":{"type":"Point","coordinates":[-88.787867787641,43.784439695096]},"properties":{"supplychain_instance_id":"supplychain-1","stop_instance_id":"stop-49","description":"","address":"Wisconsin, USA","title":"Organic Valley Farm"}},{"type":"Feature","geometry":{"type":"Point","coordinates":[-90.409567687415,38.022275195486]},"properties":{"supplychain_instance_id":"supplychain-1","stop_instance_id":"stop-36","description":"","address":"Koester, FRENCH VILLAGE, MO 63036, USA","title":"Organic Valley Farm"}},{"type":"Feature","geometry":{"type":"Point","coordinates":[-91.48384228727,44.818784795039]},"properties":{"supplychain_instance_id":"supplychain-1","stop_instance_id":"stop-25","description":"","address":"Holm Ave, Eau Claire, WI 54703, USA","title":"Holm, WI"}},{"type":"Feature","geometry":{"type":"Point","coordinates":[-84.687663388211,41.15028039526]},"properties":{"supplychain_instance_id":"supplychain-1","stop_instance_id":"stop-16","description":"","address":"Gasser Rd, OH, USA","title":"Gasser, OH"}},{"type":"Feature","geometry":{"type":"Point","coordinates":[-88.787867787641,43.784439695096]},"properties":{"supplychain_instance_id":"supplychain-1","stop_instance_id":"stop-9","description":"","address":"Wisconsin, USA","title":"Organic Valley Farm"}},{"type":"Feature","geometry":{"type":"Point","coordinates":[-88.787867787641,43.784439695096]},"properties":{"supplychain_instance_id":"supplychain-1","stop_instance_id":"stop-4","description":"","address":"Wisconsin, USA","title":"Organic Valley Farm"}},{"type":"Feature","geometry":{"type":"Point","coordinates":[-91.206655987304,44.526406995055]},"properties":{"supplychain_instance_id":"supplychain-1","stop_instance_id":"stop-1","description":"","address":"Berg, Sumner, WI 54758, USA","title":"Organic Valley Farm"}}],"properties":{"title":"Annie's Macaroni and Cheese Geography","description":"","tags":""}}