{"type":"FeatureCollection","features":[{"type":"Feature","geometry":{"type":"Point","coordinates":[113.266531,23.132191]},"properties":{"urltitle:moreinfo":"Orico","url:moreinfo":"http:\/\/ www.orico.com.cn","description":"86-755-25196059","address":"F9, Headquaters Economic Center Building, Zhonghaixin Science &Technology Park ,Guangdong, China.","placename":"Guangdong, China","title":"Top Cover"}},{"type":"Feature","geometry":{"type":"Point","coordinates":[114.247581,22.720242999996]},"properties":{"urltitle:moreinfo":"Luosikepu Electronics","url:moreinfo":"www.luosikepu.com\/","description":"86-755-89582650","address":"Niuguling Industry Park, Xuexiang Community Bantian street,Longgang District,Shenzhen, China.","placename":"Longgang, Shenzhen, Guangdong, China","title":"Top Cover"}},{"type":"Feature","geometry":{"type":"Point","coordinates":[100.93,13.173999999996]},"properties":{"urltitle:moreinfo":"Wearnes Precision","url:moreinfo":"http:\/\/www.wearnes.com","description":"\u00a00-3834-5421-7","address":"Moo 6 Bowin Si Racha, Chonburi, Thailand.","placename":"Si Racha, Chon Buri, Thailand","title":"Top Cover"}},{"type":"Feature","geometry":{"type":"Point","coordinates":[103.7063145,1.3260163999999]},"properties":{"urltitle:moreinfo":"N.O.K. Precision","url:moreinfo":"www.nokpct.com\/","description":"(+65) 62653233","address":"18 Tractor Road, Jurong Town Singapore, Singapore.","placename":"18 Tractor Rd, Singapore 627976","title":"Top Cover"}},{"type":"Feature","geometry":{"type":"Point","coordinates":[100.6702778,14.361944400002]},"properties":{"urltitle:moreinfo":"NMB-Minebea Thailand","url:moreinfo":"www.minebea.co.th\/","description":"035-335310","address":"Moo 9,Tambol Khanharm, Amphur Uthai, Ayutthaya, Thailand.","placename":"Uthai, Phra Nakhon Si Ayutthaya, Thailand","title":"Top Cover"}},{"type":"Feature","geometry":{"type":"Point","coordinates":[100.5971361,14.258557799996]},"properties":{"urltitle:moreinfo":"N.O.K. Precision","url:moreinfo":"www.nokpct.com\/","description":"035-258-666,081-9486605","address":"Moo 16, T. Bang Pa-In, A. Bang Pa-In KM. 59 Asia Road, Ayutthaya 13160, Thailand.","placename":"Bang Krasan, Bang Pa-in, Phra Nakhon Si Ayutthaya 13160, Thailand","title":"Top Cover"}},{"type":"Feature","geometry":{"type":"Point","coordinates":[100.6183666,14.065043999996]},"properties":{"urltitle:moreinfo":"MPM Technology","url:moreinfo":"http:\/\/www.mpmtech.com\/","description":"0-2529-4373-5","address":"Moo 20, Khlong Nueng Sub Dist, Tumbol Khlong Nueng, Amphoe Khlong Luang, Pathum Thani, Thailand.","placename":"Khlong Nueng, Khlong Luang, Pathum Thani, Thailand","title":"Top Cover"}},{"type":"Feature","geometry":{"type":"Point","coordinates":[100.6702778,14.361944400002]},"properties":{"urltitle:moreinfo":"MMI Group","url:moreinfo":"http:\/\/www.mmi.com.sg\/","description":"081-8304762","address":"Moo 9,Tambol Khanharm, Amphur Uthai, Ayutthaya, Thailand.","placename":"Uthai, Phra Nakhon Si Ayutthaya, Thailand","title":"Top Cover"}},{"type":"Feature","geometry":{"type":"Point","coordinates":[103.803952,1.4502710000038]},"properties":{"urltitle:moreinfo":"Metalform","url:moreinfo":"www.metalform.com","description":"(+65) 65-67538377","address":"2 Woodlands Loop Singapore, Singapore.","placename":"2 Woodlands Loop, Singapore 738074","title":"Top Cover"}},{"type":"Feature","geometry":{"type":"Point","coordinates":[100.6702778,14.361944400002]},"properties":{"urltitle:moreinfo":"Metalform","url:moreinfo":"www.metalform.com","description":"035-719-339","address":"Moo 9,Tambol Khanharm, Amphur Uthai, Ayutthaya, Thailand.","placename":"Uthai, Phra Nakhon Si Ayutthaya, Thailand","title":"Top Cover"}},{"type":"Feature","geometry":{"type":"Point","coordinates":[121.49615808308,14.295629398051]},"properties":{"urltitle:moreinfo":"Engtek Group","url:moreinfo":"http:\/\/www.engtek.com\/engtek\/group\/EngtekGroup\/eng_eppi_eng.asp","description":"(049) 549-3282 \/ 3369","address":"Lumban, Philippines","title":"Top Cover","weight":"0","co2e":"0","energy":"0","water":"0","youtube:link":""}},{"type":"Feature","geometry":{"type":"Point","coordinates":[103.650568,1.6289379999964]},"properties":{"urltitle:moreinfo":"Engtek Group","url:moreinfo":"http:\/\/www.engtek.com\/engtek\/group\/EngtekGroup\/altum_apt_eng.asp","description":"07-351 5250","address":"Plo 185, Jalan Siber 9, Kaw. Perindustrian Senai IV, Senai, Johor Bahru, Johor, Malaysia.","placename":"Jalan Cyber 9, Kawasan Perindustrian Senai 3, 81400 Senai, Johor, Malaysia","title":"Top Cover"}},{"type":"Feature","geometry":{"type":"Point","coordinates":[100.5971361,14.258557799996]},"properties":{"urltitle:moreinfo":"Engtek Group","url:moreinfo":"http:\/\/www.engtek.com\/engtek\/group\/EngtekGroup\/altum_apt_eng.asp","description":"035-729100,085-1490057(9)","address":"Moo 1, Tambon Ban-Lane, Amphone Bang Pa-in Ayutthaya, Thailand.","placename":"Bang Pa-in, Phra Nakhon Si Ayutthaya, Thailand","title":"Top Cover"}},{"type":"Feature","geometry":{"type":"Point","coordinates":[100.2698497,5.3435750999996]},"properties":{"urltitle:moreinfo":"WD Group","url:moreinfo":"http:\/\/www.wdc.com\/en\/","description":"604-6439449","address":"Bayan Lepas FTZ Phase 3, - Penang 11900, Malaysia.","placename":"Sunway Tunas, 11900 Bayan Lepas, Penang, Malaysia","title":"Substrate"}},{"type":"Feature","geometry":{"type":"Point","coordinates":[103.6394499,1.3364581999989]},"properties":{"urltitle:moreinfo":"WD Group","url:moreinfo":"http:\/\/www.wdc.com\/en\/","description":"6864 5031","address":"3 Tuas Link 2 Singapore, Singapore.","placename":"3 Tuas Link 2, Singapore 638552","title":"Substrate"}},{"type":"Feature","geometry":{"type":"Point","coordinates":[103.6923095,1.3123529000034]},"properties":{"urltitle:moreinfo":"Showa Denko","url:moreinfo":"http:\/\/www.sdk.co.jp\/english\/about\/network\/booversea.html","description":"(+65) 6309-2000","address":"2 Pioneer Crescent, Singapore.","placename":"2 Pioneer Crescent, Singapore 628553","title":"Substrate"}},{"type":"Feature","geometry":{"type":"Point","coordinates":[120.96468658316,24.803945496763]},"properties":{"urltitle:moreinfo":"Showa Denko","url:moreinfo":"http:\/\/www.sdk.co.jp\/english\/about\/network\/booversea.html","description":"886-3-5770777","address":"Hsinchu City, Taiwan 300","title":"Substrate","weight":"0","co2e":"0","energy":"0","water":"0","youtube:link":""}},{"type":"Feature","geometry":{"type":"Point","coordinates":[114.0682742,22.561879500001]},"properties":{"urltitle:moreinfo":"Kaifa Magnetic","url:moreinfo":"http:\/\/www.kaifa.cn\/en\/index\/index.aspx","description":"0755 8327 5000","address":"Caitian Road #7006 Futian District Shenzhen, China.","placename":"7006\u53f7 Caitian Rd, Futian, Shenzhen, Guangdong, China","title":"Substrate"}},{"type":"Feature","geometry":{"type":"Point","coordinates":[100.2698497,5.3435750999996]},"properties":{"urltitle:moreinfo":"Kobe Precision Technology","url:moreinfo":"http:\/\/www.kptec.com.my\/","description":"","address":"Plot 39, Phase IV, Bayan Lepas Industrial Estate, 11900 Penang, Malaysia.","placename":"Sunway Tunas, 11900 Bayan Lepas, Penang, Malaysia","title":"Substrate"}},{"type":"Feature","geometry":{"type":"Point","coordinates":[100.2698497,5.3435750999996]},"properties":{"urltitle:moreinfo":"WD Group","url:moreinfo":"http:\/\/www.wdc.com\/en\/","description":"604-6439449","address":"Bayan Lepas FTZ Phase 3, - Penang 11900, Malaysia.","placename":"Sunway Tunas, 11900 Bayan Lepas, Penang, Malaysia","title":"Media"}},{"type":"Feature","geometry":{"type":"Point","coordinates":[103.6394499,1.3364581999989]},"properties":{"urltitle:moreinfo":"WD Group","url:moreinfo":"http:\/\/www.wdc.com\/en\/","description":"6864 5031","address":"3 Tuas Link 2, Singapore.","placename":"3 Tuas Link 2, Singapore 638552","title":"Media"}},{"type":"Feature","geometry":{"type":"Point","coordinates":[103.6923095,1.3123529000034]},"properties":{"urltitle:moreinfo":"Showa Denko","url:moreinfo":"http:\/\/www.sdk.co.jp\/english\/about\/network\/booversea.html","description":"(+65) 6309-2000","address":"2 Pioneer Crescent, Singapore.","placename":"2 Pioneer Crescent, Singapore 628553","title":"Media"}},{"type":"Feature","geometry":{"type":"Point","coordinates":[120.96051498316,23.697809996889]},"properties":{"urltitle:moreinfo":"Showa Denko","url:moreinfo":"http:\/\/www.sdk.co.jp\/english\/about\/network\/booversea.html","description":"886-3-5770777","address":"Taiwan","title":"Media","weight":"0","co2e":"0","energy":"0","water":"0","youtube:link":""}},{"type":"Feature","geometry":{"type":"Point","coordinates":[72.869733899997,19.113645]},"properties":{"urltitle:moreinfo":"Futuristic Concepts Media","url:moreinfo":"http:\/\/www.fcml.net","description":"91-22-28472589","address":"Tex Center f Wing, Near Hdfc Bank, Chandivali, Andheri, India.","placename":"Andheri, Maharashtra, India","title":"Glass Disk Substrate"}},{"type":"Feature","geometry":{"type":"Point","coordinates":[140.5690784,37.441349500001]},"properties":{"url:moreinfo":"http:\/\/www.optonexus.co.jp\/index.html","description":"81-247-772010","address":"35 Kuboazahinokuchi Tokiwamachi, Tamura-shi, Japan","placename":"Tamura, Fukushima Prefecture, Japan","title":"Glass Disk Substrate"}},{"type":"Feature","geometry":{"type":"Point","coordinates":[119.823166,31.340710999999]},"properties":{"urltitle:moreinfo":"Alibaba","url:moreinfo":"http:\/\/www.alibaba.com\/showroom\/yixing-feifan-ceramics.html","description":"86-510-87191518","address":"Jianxin Village, Dingshu Town, Yixing, Wuxi, Jiangsu, China.","placename":"Yixing, Wuxi, Jiangsu, China","title":"Glass Disk Substrate"}},{"type":"Feature","geometry":{"type":"Point","coordinates":[127.5183,37.413800000001]},"properties":{"urltitle:moreinfo":"Archgon","url:moreinfo":"http:\/\/www.dtsinfo.co.kr","description":"82-31-7026173","address":"Technopark 145, Yatap-Dong, Sungnam-SI, Gyeonggi-Do, South Korea.","placename":"Gyeonggi-do, South Korea","title":"Glass Disk Substrate"}},{"type":"Feature","geometry":{"type":"Point","coordinates":[121.5598345,25.091075000004]},"properties":{"urltitle:moreinfo":"Archgon","url:moreinfo":"http:\/\/www.archgon.com","description":"886-2-89235873","address":"3FL. , No. 228, Sec. 1, Yung-He, Rd. Taipei, Taiwan.","placename":"Taipei City, Taiwan","title":"Glass Disk Substrate"}},{"type":"Feature","geometry":{"type":"Point","coordinates":[121.01194438316,24.83333329676]},"properties":{"youtube:link":"","water":"0","energy":"0","co2e":"0","weight":"0","urltitle:moreinfo":"Magnetic Laboratories","url:moreinfo":"http:\/\/www.mag-labo.jp\/en\/","description":"886-3558-6148","address":"Zhubei City, Hsinchu County, Taiwan 302","title":"Glass Disk Substrate"}},{"type":"Feature","geometry":{"type":"Point","coordinates":[121.473704,31.230393]},"properties":{"urltitle:moreinfo":"Showa Denko","url:moreinfo":"http:\/\/www.sdk.co.jp\/english\/about\/network\/booversea.html","description":"(+86)-21-6217-5000","address":"18F, WangWang Building No.211 Shimen Yi Road, Shanghai, China.","placename":"Shanghai, China","title":"Glass Disk Substrate"}},{"type":"Feature","geometry":{"type":"Point","coordinates":[114.0682742,22.561879500001]},"properties":{"urltitle:moreinfo":"Kaifa Magnetic","url:moreinfo":"http:\/\/www.kaifa.cn\/en\/index\/index.aspx","description":"0755 8327 5000","address":"Caitian Road #7006 Futian District Shenzhen, China.","placename":"7006\u53f7 Caitian Rd, Futian, Shenzhen, Guangdong, China","title":"Glass Disk Substrate"}},{"type":"Feature","geometry":{"type":"Point","coordinates":[100.2698497,5.3435750999996]},"properties":{"urltitle:moreinfo":"Kobe Precision Technology","url:moreinfo":"http:\/\/www.kptec.com.my\/","description":"(+604)-6327222","address":"Plot 39, Phase IV, Bayan Lepas Industrial Estate, 11900 Penang, Malaysia.","placename":"Sunway Tunas, 11900 Bayan Lepas, Penang, Malaysia","title":"Glass Disk Substrate"}},{"type":"Feature","geometry":{"type":"Point","coordinates":[105.85,21.033333300001]},"properties":{"urltitle:moreinfo":"Hoya Group","url:moreinfo":"http:\/\/www.hoya.com\/","description":"(+84)-43-951-6399","address":"Plot J3&4, Thang Long Industrial Park, Dong Anh District, Hanoi, Vietnam.","placename":"Hanoi, Hoan Kiem District, Hanoi, Vietnam","title":"Glass Disk Substrate"}},{"type":"Feature","geometry":{"type":"Point","coordinates":[121.0781493,14.303634500003]},"properties":{"urltitle:moreinfo":"Hoya Group","url:moreinfo":"http:\/\/www.hoya.com\/","description":"(+65) 6329 1620","address":"111 East Main Avenue, Special Export Processing Zone, Laguna Technopark, Binan, Laguna, Philippines.","placename":"Bi\u00f1an City, Philippines","title":"Glass Disk Substrate"}},{"type":"Feature","geometry":{"type":"Point","coordinates":[98.924534300002,18.1253143]},"properties":{"urltitle:moreinfo":"Hoya Group","url:moreinfo":"http:\/\/www.hoya.com\/","description":"053-552413-6","address":"Moo 4 Tambol Banklang, Amphur Muang, Lamphun, Thailand.","placename":"Lamphun, Thailand","title":"Glass Disk Substrate"}},{"type":"Feature","geometry":{"type":"Point","coordinates":[100.5296115,14.330435000001]},"properties":{"urltitle:moreinfo":"AGC Electronics Thailand","url:moreinfo":"http:\/\/www.th.agc-group.com\/","description":"0-3571-9105-8 \u0e15\u0e48\u0e2d 1614 - 5","address":"Moo 7, T Pailing A Phanakorn Sri Ayutthaya Ayutthaya, Thailand.","placename":"Phra Nakhon Si Ayutthaya, Thailand","title":"Glass Disk Substrate"}},{"type":"Feature","geometry":{"type":"Point","coordinates":[98.924534286231,18.125314297561]},"properties":{"urltitle:moreinfo":"HANA","url:moreinfo":"http:\/\/www.hanagroup.com\/h_ayt_th.htm","description":"053-581565","address":"Lamphun, Thailand","title":"Semiconductor\u00a0","weight":"0","co2e":"0","energy":"0","water":"0","youtube:link":""}},{"type":"Feature","geometry":{"type":"Point","coordinates":[100.5971361,14.258557799996]},"properties":{"urltitle:moreinfo":"HANA","url:moreinfo":"http:\/\/www.hanagroup.com\/h_ayt_th.htm","description":"035-350803-4","address":"Moo 1, T. Baan-Len, A. Bang Pa-In KM. 59 Asia Road, Ayutthaya 13160, Thailand.","placename":"Bang Krasan, Bang Pa-in, Phra Nakhon Si Ayutthaya 13160, Thailand","title":"Semiconductor\u00a0"}},{"type":"Feature","geometry":{"type":"Point","coordinates":[100.6647101,14.003391299996]},"properties":{"urltitle:moreinfo":"Toshiba Group","url:moreinfo":"www.toshiba.co.th","description":"02 5011030","address":"Moo 5, Bangkadi Industrial Park, Tivanon Rd., T. Bangkadi, A. Muang, PATHUMTHANI, Thailand.","placename":"Pathum Thani, Thailand","title":"Semiconductor\u00a0"}},{"type":"Feature","geometry":{"type":"Point","coordinates":[121.5598345,25.091075000004]},"properties":{"urltitle:moreinfo":"World Peace Industrial","url:moreinfo":"http:\/\/www.wpi-group.com\/","description":"886-2-27885200","address":"76 Cheng Kung Rd., Sec. 1, Taipei, Taiwan.","placename":"Taipei City, Taiwan","title":"Semiconductor\u00a0"}},{"type":"Feature","geometry":{"type":"Point","coordinates":[121.0059198,24.781657299997]},"properties":{"urltitle:moreinfo":"Taiwan Semiconductor Manufacturing Company","url:moreinfo":"www.tsmc.com\/","description":"886-3-5636688","address":"No. 8, Li-Hsin Rd. VI, Hsinchu Science Park, Hsinchu, Taiwan.","placename":"Hsinchu Science Park Administration, No. 2\u865f, X\u012bn'\u0101n Rd, Dong District, Hsinchu City, Taiwan 300","title":"Semiconductor\u00a0"}},{"type":"Feature","geometry":{"type":"Point","coordinates":[100.5846441,13.882463399996]},"properties":{"urltitle:moreinfo":"PHILIPS","url:moreinfo":"http:\/\/www.philips.co.th\/","description":"Tel.66-2 5511052","address":"MOO 3 CHANGWATTANA RD., TALAT BANG KHEN Lak Si,Bangkok, Thailand.","placename":"Talat Bang Khen, Lak Si, Bangkok, Thailand","title":"Semiconductor\u00a0"}},{"type":"Feature","geometry":{"type":"Point","coordinates":[101.975766,4.2104840000023]},"properties":{"urltitle:moreinfo":"Infastech Group","url:moreinfo":"http:\/\/www.infastech.com\/","description":"(+91)-44-47118001","address":"Lot 63 Persiaran Bunga Tanjung 1 Seremban, NSB  70400, Malaysia","placename":"Malaysia","title":"Semiconductor\u00a0"}},{"type":"Feature","geometry":{"type":"Point","coordinates":[127.76692198221,35.907756995657]},"properties":{"urltitle:moreinfo":"SK-Hynix","url:moreinfo":"http:\/\/www.skhynix.com\/en\/index.jsp","description":"408-232-8000","address":"South Korea","title":"Semiconductor\u00a0","weight":"0","co2e":"0","energy":"0","water":"0","youtube:link":""}},{"type":"Feature","geometry":{"type":"Point","coordinates":[114.247581,22.720242999996]},"properties":{"urltitle:moreinfo":"EPAK","url:moreinfo":"http:\/\/www.epak.com","description":"86-755-2917-7881","address":"Tongfuyu Industrial Zone, Jianlong, Bao'an Cun, Henggang Town, Longgang Shenzhen, Guangdong, China.","placename":"Longgang, Shenzhen, Guangdong, China","title":"Semiconductor\u00a0"}},{"type":"Feature","geometry":{"type":"Point","coordinates":[98.924534300002,18.1253143]},"properties":{"urltitle:moreinfo":"OKI PRECISION","url:moreinfo":"http:\/\/www.oki.com\/","description":"053-554605","address":"Moo 4, T. Banklang A. Muang, Lamphun, Thailand.","placename":"Lamphun, Thailand","title":"Resistor"}},{"type":"Feature","geometry":{"type":"Point","coordinates":[101.6236686,3.0116639999956]},"properties":{"urltitle:moreinfo":"Yageo Group","url:moreinfo":"http:\/\/www.yageo.com\/portal\/index.jsp","description":"(+60) 3 8063 8864","address":"Bandar Puteri Puchong 47100 Selangor, Malaysia.","placename":"REAL Kids Bandar Puteri, 61 Jalan Puteri 10\/3, Bandar Puteri, 47100 Puchong, Selangor, Malaysia","title":"Resistor"}},{"type":"Feature","geometry":{"type":"Point","coordinates":[113.751765,23.020536000003]},"properties":{"urltitle:moreinfo":"Yageo Group","url:moreinfo":"http:\/\/www.yageo.com\/portal\/index.jsp","description":"(+86) 769 8772 0275","address":"7-1, Gaoli 1st Rd., Gaoli Ind. Zone, Tangxia Town Dongguan City, Guangdong, China.","placename":"Dongguan, Guangdong, China","title":"Resistor"}},{"type":"Feature","geometry":{"type":"Point","coordinates":[120.311143,31.490636999998]},"properties":{"urltitle:moreinfo":"Hua Xin Electronics","url:moreinfo":"http:\/\/www.huaxing.com.hk\/","description":"(+86)-0510-5887734","address":"226 He Lic Kou Shang Li Dong, Wuxi, China.","placename":"Wuxi, Jiangsu, China","title":"Resistor"}},{"type":"Feature","geometry":{"type":"Point","coordinates":[100.5525269,13.843672900003]},"properties":{"urltitle:moreinfo":"SUMMIT POWER SYSTEM","url:moreinfo":"http:\/\/www.summitpower.org\/","description":"Tel.66-2 5796151","address":"SOI PHAHOLYOTHIN 40 PHAHOLYOTHIN RD., LAT YAO Chatuchak,Bangkok, Thailand.","placename":"Lat Yao, Chatuchak, Bangkok 10900, Thailand","title":"Resistor"}},{"type":"Feature","geometry":{"type":"Point","coordinates":[100.4938889,13.752222200004]},"properties":{"urltitle:moreinfo":"SHIZUKI ELECTRIC","url:moreinfo":"http:\/\/www.shizuki.co.jp\/english\/us_group.html","description":"Tel.66-2 9199600","address":"111 BANGCHAN INDUSTRIAL ESTATE, SERITHAI 54 RD., KWANG KHANNA YAO, Khanna Yao,Bangkok, Thailand.","placename":"Bangkok, Thailand","title":"Resistor"}},{"type":"Feature","geometry":{"type":"Point","coordinates":[100.4938889,13.752222200004]},"properties":{"urltitle:moreinfo":"Thailad Bussiness Director","url:moreinfo":"http:\/\/www.eguide.co.th\/TH\/COMPANY\/33671\/National-Thai-C\/detail_all.htm?Television+Colour+Analyzers","description":"Tel.66-2 7081111","address":"MOO 2 TEPARAK RD. BANGSAOTHONG, Bangkok, Thailand.","placename":"Bangkok, Thailand","title":"Resistor"}},{"type":"Feature","geometry":{"type":"Point","coordinates":[135.6957852,34.926771000003]},"properties":{"urltitle:moreinfo":"Murata Group","url:moreinfo":"http:\/\/www.murata.co.th","description":"81-75-951-9111","address":"10-1, Higashikotari 1-chome, Nagaokakyo-shi, Kyoto, Japan.","placename":"Nagaokakyo, Kyoto Prefecture, Japan","title":"Resistor"}},{"type":"Feature","geometry":{"type":"Point","coordinates":[99.017876386217,18.578172197505]},"properties":{"urltitle:moreinfo":"HANA","url:moreinfo":"http:\/\/www.hanagroup.com\/h_ayt_th.htm","description":"053-581565","address":"Mueang Lamphun, Lamphun, Thailand","title":"Diode","weight":"0","co2e":"0","energy":"0","water":"0","youtube:link":""}},{"type":"Feature","geometry":{"type":"Point","coordinates":[100.5788889,13.887500000003]},"properties":{"urltitle:moreinfo":"HANA","url:moreinfo":"http:\/\/www.hanagroup.com\/h_ayt_th.htm","description":"02-5214935-8","address":"10\/4 Vibhavadi-Rangsit Rd., Talad Bang Khen, Lak si, Bangkok, Thailand.","placename":"Lak Si, Bangkok, Thailand","title":"Diode"}},{"type":"Feature","geometry":{"type":"Point","coordinates":[98.924534286231,18.125314297561]},"properties":{"urltitle:moreinfo":"Shindengen","url:moreinfo":"http:\/\/www.shindengen.co.jp\/top_e\/index.html","description":"053-581406","address":"Lamphun, Thailand","title":"Diode","weight":"0","co2e":"0","energy":"0","water":"0","youtube:link":""}},{"type":"Feature","geometry":{"type":"Point","coordinates":[101.6157773,13.5490952]},"properties":{"urltitle:moreinfo":"Microchip Technology","url:moreinfo":"http:\/\/www.microchip.com\/","description":"038-857119","address":"Moo 1 Suwintawong Road Wangtakean Muang Chachoengsao, Chachoengsao, Thailand.","placename":"Chachoengsao, Thailand","title":"Diode"}},{"type":"Feature","geometry":{"type":"Point","coordinates":[100.5975503,14.222228599998]},"properties":{"urltitle:moreinfo":"CRS Group","url:moreinfo":"http:\/\/www.ctscorp.com\/","description":"035 221570","address":"Moo 2, Bangpa-in Industrial Estate, Udom Sorayuth Road, Khlong Chik, Bang Pa-in, Phra Nakhon Si Ayutthaya, Thailand.","placename":"Khlong Chik, Bang Pa-in, Phra Nakhon Si Ayutthaya 13160, Thailand","title":"Diode"}},{"type":"Feature","geometry":{"type":"Point","coordinates":[102.09375898579,14.985435997962]},"properties":{"urltitle:moreinfo":"Korat-Denki","url:moreinfo":"www.cco.th\/","description":"044 202682-5","address":"Nakornratchasima Thonburi Hospital, Nai Mueang, Mueang Nakhon Ratchasima, Nakhon Ratchasima 30000, Thailand","title":"Diode","weight":"0","co2e":"0","energy":"0","water":"0","youtube:link":""}},{"type":"Feature","geometry":{"type":"Point","coordinates":[98.924534286231,18.125314297561]},"properties":{"urltitle:moreinfo":"K E C Group","url:moreinfo":"http:\/\/www.kce.org\/","description":"053-581417-21","address":"Lamphun, Thailand","title":"Diode","weight":"0","co2e":"0","energy":"0","water":"0","youtube:link":""}},{"type":"Feature","geometry":{"type":"Point","coordinates":[101.4339148,12.830844699999]},"properties":{"urltitle:moreinfo":"Katata Group","url:moreinfo":"http:\/\/www.katata.co.jp\/","description":"038 891200-3","address":"MOO 3 TAMBOL MABYANGPORN AMPHUR PLUAKDANG, RAYONG, Thailand.","placename":"Rayong, Thailand","title":"Diode"}},{"type":"Feature","geometry":{"type":"Point","coordinates":[100.5985574,13.709891400002]},"properties":{"urltitle:moreinfo":"K n K Electronics","url:moreinfo":"http:\/\/www.knkelectronics.com\/","description":"02 7470370-1","address":"49\/27 Soi 103 Sukhumvit, Khwang Nong Bon Khet Prawet, Bangkok, Thailand.","placename":"Thanon Sukhumvit, Bangkok, Thailand","title":"Diode"}},{"type":"Feature","geometry":{"type":"Point","coordinates":[100.7841667,13.723333299998]},"properties":{"urltitle:moreinfo":"ELECTRONICS INDUSTRY PUBLIC","url:moreinfo":"http:\/\/www.eicsemi.com\/contactus.php","description":"Tel.66-2 3261234","address":"MOO 4, EPZ 1, LAT KRABANG INDUSTRIAL ESTATE, Lat Krabang, Bangkok, Thailand.","placename":"Lat Krabang, Bangkok 10520, Thailand","title":"Diode"}},{"type":"Feature","geometry":{"type":"Point","coordinates":[100.5525269,13.843672900003]},"properties":{"urltitle:moreinfo":"SUMMIT POWER SYSTEM","url:moreinfo":"http:\/\/www.summitpower.org\/","description":"Tel.02579-6165, 02-940-0011-2","address":"354, SOI PHAHOLYOTHIN 40 PHAHOLYOTHIN RD., LAT YAO Chatuchak, Bangkok, Thailand.","placename":"Lat Yao, Chatuchak, Bangkok 10900, Thailand","title":"Capacitor"}},{"type":"Feature","geometry":{"type":"Point","coordinates":[100.4938889,13.752222200004]},"properties":{"urltitle:moreinfo":"SHIZUKI ELECTRIC","url:moreinfo":"http:\/\/www.shizuki.co.jp\/english\/us_group.html","description":"Tel.66-2 9199600","address":"BANGCHAN INDUSTRIAL ESTATE, SERITHAI 54 RD., KWANG KHANNA YAO, Khanna Yao,Bangkok, Thailand.","placename":"Bangkok, Thailand","title":"Capacitor"}},{"type":"Feature","geometry":{"type":"Point","coordinates":[100.4938889,13.752222200004]},"properties":{"urltitle:moreinfo":"Thai Bussiness","url:moreinfo":"http:\/\/www.thailandbizlist.com\/companyprofile\/3566\/national-thai-co-ltd-","description":"Tel.66-2 7081111","address":"MOO 2 TEPARAK RD. BANGSAOTHONG, ,Bangkok, Thailand.","placename":"Bangkok, Thailand","title":"Capacitor"}},{"type":"Feature","geometry":{"type":"Point","coordinates":[135.6957852,34.926771000003]},"properties":{"urltitle:moreinfo":"Murata Group","url:moreinfo":"http:\/\/www.murata.co.th","description":"81-75-951-9111","address":"10-1, Higashikotari 1-chome, Nagaokakyo-shi, Kyoto, Japan.","placename":"Nagaokakyo, Kyoto Prefecture, Japan","title":"Capacitor"}},{"type":"Feature","geometry":{"type":"Point","coordinates":[99.057108900001,18.542276800003]},"properties":{"urltitle:moreinfo":"MMC ELECTRONICS","url:moreinfo":"http:\/\/www.mmeth.co.th\/","description":"Tel.66-2 3152273-4","address":"MOO 4, BANKLANG MuangLamphun,Lamphun 51000","placename":"Nai Mueang, Mueang Lamphun, Lamphun 51000, Thailand","title":"Capacitor"}},{"type":"Feature","geometry":{"type":"Point","coordinates":[100.4938889,13.752222200004]},"properties":{"urltitle:moreinfo":"MITSUBISHI ELECTRIC AUTOMATION","url:moreinfo":"www.meath-co.com\/","description":"Tel.66-2 5171326","address":"111 , SERITHAI RD., KANNA YAO, Khanna Yao,Bangkok, Thailand.","placename":"Bangkok, Thailand","title":"Capacitor"}},{"type":"Feature","geometry":{"type":"Point","coordinates":[127.76692198221,35.907756995657]},"properties":{"urltitle:moreinfo":"SK-Hynix","url:moreinfo":"http:\/\/www.skhynix.com\/en\/index.jsp","description":"408-232-8000","address":"South Korea","title":"Capacitor","weight":"0","co2e":"0","energy":"0","water":"0","youtube:link":""}},{"type":"Feature","geometry":{"type":"Point","coordinates":[114.247581,22.720242999996]},"properties":{"urltitle:moreinfo":"EPAK","url:moreinfo":"http:\/\/www.epak.com","description":"86-755-2917-7881","address":"Tongfuyu Industrial Zone, Jianlong, Bao'an Cun, Henggang Town, Longgang Shenzhen, Guangdong, China.","placename":"Longgang, Shenzhen, Guangdong, China","title":"Capacitor"}},{"type":"Feature","geometry":{"type":"Point","coordinates":[100.7548851,13.633574100002]},"properties":{"urltitle:moreinfo":"Delta Thailand","url:moreinfo":"http:\/\/www.deltathailand.com\/","description":"02 7092800","address":"Moo 4, Sukhumvit Road, Praksa Muang Samut Prakan, Thailand.","placename":"Samut Prakan, Thailand","title":"Transistor"}},{"type":"Feature","geometry":{"type":"Point","coordinates":[98.924534286231,18.125314297561]},"properties":{"urltitle:moreinfo":"Shindengen","url:moreinfo":"http:\/\/www.shindengen.co.jp\/top_e\/index.html","description":"053-581406","address":"Lamphun, Thailand","title":"Transistor","weight":"0","co2e":"0","energy":"0","water":"0","youtube:link":""}},{"type":"Feature","geometry":{"type":"Point","coordinates":[98.924534286231,18.125314297561]},"properties":{"urltitle:moreinfo":"Murata","url:moreinfo":"http:\/\/www.murata.co.th","description":"053-581158-66","address":"Lamphun, Thailand","title":"Transistor","weight":"0","co2e":"0","energy":"0","water":"0","youtube:link":""}},{"type":"Feature","geometry":{"type":"Point","coordinates":[98.924534300002,18.1253143]},"properties":{"urltitle:moreinfo":"Fujikura-Electronics","url:moreinfo":"http:\/\/www.fujikura-electronics.co.th","description":"02-5296222","address":"Moo 4, Super Highway Road, Tambol Banklang, Amphur Muang Lamphun, Lamphun, Thailand.","placename":"Lamphun, Thailand","title":"Transistor"}},{"type":"Feature","geometry":{"type":"Point","coordinates":[98.924534286231,18.125314297561]},"properties":{"urltitle:moreinfo":"K E C Group","url:moreinfo":"http:\/\/www.kce.org\/","description":"053-581417-21","address":"Lamphun, Thailand","title":"Transistor","weight":"0","co2e":"0","energy":"0","water":"0","youtube:link":""}},{"type":"Feature","geometry":{"type":"Point","coordinates":[103.8371515,1.3560786999994]},"properties":{"urltitle:moreinfo":"YOSUN Group","url:moreinfo":"http:\/\/www.yosungroup.com\/yosun\/enter.do","description":"6552 4811","address":"159 Sin Ming Road,  Singapore.","placename":"159 Sin Ming Rd, Singapore 575625","title":"Transistor"}},{"type":"Feature","geometry":{"type":"Point","coordinates":[120.311143,31.490636999998]},"properties":{"urltitle:moreinfo":"Hua Xin Electronics","url:moreinfo":"http:\/\/www.huaxing.com.hk\/","description":"(+86)-0510-5887734","address":"226 He Lic Kou Shang Li Dong, Wuxi,China.","placename":"Wuxi, Jiangsu, China","title":"Transistor"}},{"type":"Feature","geometry":{"type":"Point","coordinates":[103.8509491,1.2800945000008]},"properties":{"urltitle:moreinfo":"Walsin Technology Group","url:moreinfo":"http:\/\/www.walsin.com.my\/walsin\/default.aspx?l=","description":"(+65)-3923211","address":"No. 72 Bandemeer Road #07-02 Hiap Huat House Singapore, Singapore.","placename":"Singapore","title":"Transistor"}},{"type":"Feature","geometry":{"type":"Point","coordinates":[101.7425656,3.1125763999958]},"properties":{"urltitle:moreinfo":"Walsin Technology Group","url:moreinfo":"http:\/\/www.walsin.com.my\/walsin\/default.aspx?l=","description":"(+60)-3-9857800","address":"47-2A, Jalan Perdana 6\/8, Pandan Perdana 55300 Kuala Lumpur, Malaysia","placename":"2 Jalan Perdana 6\/8, Pandan Perdana, 55300 Kuala Lumpur, Federal Territory of Kuala Lumpur, Malaysia","title":"Transistor"}},{"type":"Feature","geometry":{"type":"Point","coordinates":[121.0059198,24.781657299997]},"properties":{"urltitle:moreinfo":"United Microelectronics Corporation","url:moreinfo":"http:\/\/www.umc.com\/English\/","description":"(+886) (3) 5782258","address":"No. 3, Li-Hsin 2nd Road Hsinchu Science Park Hsinchu, Taiwan.","placename":"Hsinchu Science Park Administration, No. 2\u865f, X\u012bn'\u0101n Rd, Dong District, Hsinchu City, Taiwan 300","title":"Transistor"}},{"type":"Feature","geometry":{"type":"Point","coordinates":[100.7841667,13.723333299998]},"properties":{"urltitle:moreinfo":"ELECTRONICS INDUSTRY PUBLIC","url:moreinfo":"http:\/\/www.eicsemi.com\/contactus.php","description":"Tel.66-2 3261234","address":"MOO 4, EPZ 1, LAT KRABANG INDUSTRIAL ESTATE, Lat Krabang,Bangkok, Thailand.","placename":"Lat Krabang, Bangkok 10520, Thailand","title":"Transistor"}},{"type":"Feature","geometry":{"type":"Point","coordinates":[100.52961148601,14.330434998047]},"properties":{"urltitle:moreinfo":"STARS MICROELECTRONICS (THAILAND) PUBLIC COMPANY LIMITED.","url:moreinfo":"http:\/\/www.starsmicroelectronics.com\/","description":"(035)221777","address":"Phra Nakhon Si Ayutthaya, Thailand","title":"Integrated circuit\u00a0","weight":"0","co2e":"0","energy":"0","water":"0","youtube:link":""}},{"type":"Feature","geometry":{"type":"Point","coordinates":[100.75488508598,13.633574098138]},"properties":{"urltitle:moreinfo":"Delta Thailand","url:moreinfo":"http:\/\/www.deltathailand.com\/","description":"02 7092800","address":"Samut Prakan, Thailand","title":"Integrated circuit\u00a0","weight":"0","co2e":"0","energy":"0","water":"0","youtube:link":""}},{"type":"Feature","geometry":{"type":"Point","coordinates":[100.52961148601,14.330434998047]},"properties":{"urltitle:moreinfo":"Circuit Electronic Industries Public","url:moreinfo":"http:\/\/www.cei.co.th\/index_en.html","description":"035-226280-9","address":"Phra Nakhon Si Ayutthaya, Thailand","title":"Integrated circuit\u00a0","weight":"0","co2e":"0","energy":"0","water":"0","youtube:link":""}},{"type":"Feature","geometry":{"type":"Point","coordinates":[100.6702778,14.361944400002]},"properties":{"urltitle:moreinfo":"Cal-comp","url:moreinfo":"www.calcomp.co.th\/","description":"(66)-2 2615033","address":"Rojana Industrial Eastate, Uthai, Phra Nakhon Si Ayutthaya, Thailand.","placename":"Uthai, Phra Nakhon Si Ayutthaya, Thailand","title":"Integrated circuit\u00a0"}},{"type":"Feature","geometry":{"type":"Point","coordinates":[100.6702778,14.361944400002]},"properties":{"urltitle:moreinfo":"Hitachi Group","url:moreinfo":"http:\/\/www.hitachi-metals.co.jp\/e\/corp\/corp08.html","description":"035 220294","address":"Moo 5, Rojana Industrial Park, Tambol Khanharm, Amphur Uthai, Ayutthaya, Thailand.","placename":"Uthai, Phra Nakhon Si Ayutthaya, Thailand","title":"Integrated circuit\u00a0"}},{"type":"Feature","geometry":{"type":"Point","coordinates":[100.5971361,14.258557799996]},"properties":{"urltitle:moreinfo":"HANA","url:moreinfo":"http:\/\/www.hanagroup.com\/h_ayt_th.htm","description":"035-350803-4","address":"Moo 1, T. Baan-Len, A. Bang Pa-In KM. 59 Asia Road, Ayutthaya 13160, Thailand.","placename":"Bang Krasan, Bang Pa-in, Phra Nakhon Si Ayutthaya 13160, Thailand","title":"Integrated circuit\u00a0"}},{"type":"Feature","geometry":{"type":"Point","coordinates":[99.057108900001,18.542276800003]},"properties":{"urltitle:moreinfo":"OKI PRECISION","url:moreinfo":"http:\/\/www.oki.com\/","description":"053-554605","address":"Moo 4, T. Banklang A. Muang, Lamphun 51000, Thailand.","placename":"Nai Mueang, Mueang Lamphun, Lamphun 51000, Thailand","title":"Integrated circuit\u00a0"}},{"type":"Feature","geometry":{"type":"Point","coordinates":[98.924534286231,18.125314297561]},"properties":{"urltitle:moreinfo":"Shindengen","url:moreinfo":"http:\/\/www.shindengen.co.jp\/top_e\/index.html","description":"053-581406","address":"Lamphun, Thailand","title":"Integrated circuit\u00a0","weight":"0","co2e":"0","energy":"0","water":"0","youtube:link":""}},{"type":"Feature","geometry":{"type":"Point","coordinates":[100.52961148601,14.330434998047]},"properties":{"urltitle:moreinfo":"Microwave Technology Corporation","url:moreinfo":"http:\/\/www.microwave.co.th\/","description":"035-721559-60","address":"Phra Nakhon Si Ayutthaya, Thailand","title":"Integrated circuit\u00a0","weight":"0","co2e":"0","energy":"0","water":"0","youtube:link":""}},{"type":"Feature","geometry":{"type":"Point","coordinates":[100.5296115,14.330435000001]},"properties":{"urltitle:moreinfo":"MEDTEC","url:moreinfo":"http:\/\/www.mektec.co.th\/mektec\/","description":"Tel.66-35 258888","address":"560 UDOIT-SORAYITA, KLONG-TIK, BANGPA-IN, ,Phra Nakhon Si Ayutthaya, Thailand.","placename":"Phra Nakhon Si Ayutthaya, Thailand","title":"Integrated circuit\u00a0"}},{"type":"Feature","geometry":{"type":"Point","coordinates":[98.924534300002,18.1253143]},"properties":{"urltitle:moreinfo":"Fujikura-Electronics","url:moreinfo":"http:\/\/www.fujikura-electronics.co.th","description":"02-5296222","address":"Moo 4, Super Highway Road, Tambol Banklang, Amphur Muang Lamphun, Lamphun, Thailand.","placename":"Lamphun, Thailand","title":"Integrated circuit\u00a0"}},{"type":"Feature","geometry":{"type":"Point","coordinates":[100.6647101,14.003391299996]},"properties":{"urltitle:moreinfo":"Toshiba Group","url:moreinfo":"http:\/\/www.toshiba.co.th\/2009\/th\/index.html","description":"02 5011030","address":"Moo 5, Tivanon Rd., T. Bangkadi, A. Muang, PATHUMTHANI, Thailand.","placename":"Pathum Thani, Thailand","title":"Integrated circuit\u00a0"}},{"type":"Feature","geometry":{"type":"Point","coordinates":[98.924534286231,18.125314297561]},"properties":{"urltitle:moreinfo":"K.E.C.","url:moreinfo":"http:\/\/www.kce.org\/history_iframe.html","description":"053-581417-21","address":"Lamphun, Thailand","title":"Integrated circuit\u00a0","weight":"0","co2e":"0","energy":"0","water":"0","youtube:link":""}},{"type":"Feature","geometry":{"type":"Point","coordinates":[121.5598345,25.091075000004]},"properties":{"urltitle:moreinfo":"World Peace Industrial","url:moreinfo":"http:\/\/www.wpi-group.com\/","description":"886-2-27885200","address":"76 Cheng Kung Rd., Sec. 1, Taipei, Taiwan.","placename":"Taipei City, Taiwan","title":"Integrated circuit\u00a0"}},{"type":"Feature","geometry":{"type":"Point","coordinates":[121.0059198,24.781657299997]},"properties":{"urltitle:moreinfo":"T.S.M.C.","url:moreinfo":"http:\/\/www.tsmc.com\/english\/default.htm","description":"886-3-5636688","address":"No. 8, Li-Hsin Rd. VI, Hsinchu Science Park, Hsinchu, Taiwan.","placename":"Hsinchu Science Park Administration, No. 2\u865f, X\u012bn'\u0101n Rd, Dong District, Hsinchu City, Taiwan 300","title":"Integrated circuit\u00a0"}},{"type":"Feature","geometry":{"type":"Point","coordinates":[100.4938889,13.752222200004]},"properties":{"urltitle:moreinfo":"T.M.S.C.","url:moreinfo":"http:\/\/www.tmsc.co.th\/","description":"Tel.66-2 9287967","address":"DORNMEUNG VILLA BLDG. THONGPRAPA RD., SI KAN Donmuang,Bangkok, Thailand.","placename":"Bangkok, Thailand","title":"Integrated circuit\u00a0"}},{"type":"Feature","geometry":{"type":"Point","coordinates":[121.473704,31.230393]},"properties":{"urltitle:moreinfo":"Aeneas","url:moreinfo":"http:\/\/www.aeneas.com.cn\/english\/index.htm","description":"021-6354-7786\/8817","address":"Rm.2912-2917 Kerry Everbrlght City Enterprise Square,N0.228 Mei yuan Rd.Shanghai, China.","placename":"Shanghai, China","title":"Integrated circuit\u00a0"}},{"type":"Feature","geometry":{"type":"Point","coordinates":[100.5846441,13.882463399996]},"properties":{"urltitle:moreinfo":"PHILIPS","url:moreinfo":"http:\/\/www.philips.co.th\/","description":"Tel.66-2 5511052","address":"MOO 3 CHANGWATTANA RD., TALAT BANG KHEN Lak Si,Bangkok, Thailand.","placename":"Talat Bang Khen, Lak Si, Bangkok, Thailand","title":"Integrated circuit\u00a0"}},{"type":"Feature","geometry":{"type":"Point","coordinates":[127.76692198221,35.907756995657]},"properties":{"urltitle:moreinfo":"SK-Hynix","url:moreinfo":"http:\/\/www.skhynix.com\/en\/index.jsp","description":"408-232-8000","address":"South Korea","title":"Integrated circuit\u00a0","weight":"0","co2e":"0","energy":"0","water":"0","youtube:link":""}},{"type":"Feature","geometry":{"type":"Point","coordinates":[121.5598345,25.091075000004]},"properties":{"urltitle:moreinfo":"Hittite","url:moreinfo":"http:\/\/www.hittite.com\/","description":"(+886)-972193907","address":"Xing-Dian District, New Taipei City, Taiwan.","placename":"Taipei City, Taiwan","title":"Integrated circuit\u00a0"}},{"type":"Feature","geometry":{"type":"Point","coordinates":[114.247581,22.720242999996]},"properties":{"urltitle:moreinfo":"EPAK","url:moreinfo":"http:\/\/www.epak.com","description":"86-755-2917-7881","address":"Tongfuyu Industrial Zone, Jianlong, Bao'an Cun, Henggang Town, Longgang Shenzhen, Guangdong, China.","placename":"Longgang, Shenzhen, Guangdong, China","title":"Integrated circuit\u00a0"}},{"type":"Feature","geometry":{"type":"Point","coordinates":[103.8509491,1.2800945000008]},"properties":{"urltitle:moreinfo":"Avnet","url:moreinfo":"http:\/\/www.avnet.com\/","description":"(+65) 6580 6000","address":"Lorong Chuan, #06-03 New Tech Park Singapore, Singapore.","placename":"Singapore","title":"Integrated circuit\u00a0"}},{"type":"Feature","geometry":{"type":"Point","coordinates":[121.5833333,25.066666700003]},"properties":{"urltitle:moreinfo":"Aeneas","url:moreinfo":"http:\/\/www.aeneas.com.tw\/","description":"02-87974259","address":"5F., NO.61, ZHOU-TZYY ST., NEI-HU, TAIPEI CITY, Taiwan.","placename":"Neihu District, Taipei City, Taiwan 114","title":"Integrated circuit\u00a0"}},{"type":"Feature","geometry":{"type":"Point","coordinates":[100.5971361,14.258557799996]},"properties":{"urltitle:moreinfo":"HANA","url:moreinfo":"http:\/\/www.hanagroup.com\/h_ayt_th.htm","description":"035-350803-4","address":"Moo 1, T. Baan-Len, A. Bang Pa-In KM. 59 Asia Road, Ayutthaya 13160, Thailand.","placename":"Bang Krasan, Bang Pa-in, Phra Nakhon Si Ayutthaya 13160, Thailand","title":"Print Circuit Board"}},{"type":"Feature","geometry":{"type":"Point","coordinates":[99.057108900001,18.542276800003]},"properties":{"urltitle:moreinfo":"OKI PRECISION","url:moreinfo":"http:\/\/www.oki.com\/","description":"053-554605","address":"Moo 4, T. Banklang A. Muang, Lamphun 51000, Thailand.","placename":"Nai Mueang, Mueang Lamphun, Lamphun 51000, Thailand","title":"Print Circuit Board"}},{"type":"Feature","geometry":{"type":"Point","coordinates":[98.924534286231,18.125314297561]},"properties":{"urltitle:moreinfo":"Shindengen","url:moreinfo":"http:\/\/www.shindengen.co.jp\/top_e\/index.html","description":"053-581406","address":"Lamphun, Thailand","title":"Print Circuit Board","weight":"0","co2e":"0","energy":"0","water":"0","youtube:link":""}},{"type":"Feature","geometry":{"type":"Point","coordinates":[98.924534286231,18.125314297561]},"properties":{"urltitle:moreinfo":"Murata","url:moreinfo":"http:\/\/www.murata.co.th","description":"053-581158-66","address":"Lamphun, Thailand","title":"Print Circuit Board","weight":"0","co2e":"0","energy":"0","water":"0","youtube:link":""}},{"type":"Feature","geometry":{"type":"Point","coordinates":[98.924534300002,18.1253143]},"properties":{"urltitle:moreinfo":"Fujikura-Electronics","url:moreinfo":"http:\/\/www.fujikura-electronics.co.th","description":"02-5296222","address":"Moo 4, Super Highway Road, Tambol Banklang, Amphur Muang Lamphun, Lamphun, Thailand.","placename":"Lamphun, Thailand","title":"Print Circuit Board"}},{"type":"Feature","geometry":{"type":"Point","coordinates":[100.7548851,13.633574100002]},"properties":{"urltitle:moreinfo":"Delta Thailand","url:moreinfo":"http:\/\/www.deltathailand.com\/","description":"02 7092800","address":"714 Moo 4, Sukhumvit Road, Praksa Muang Samut Prakan, Thailand.","placename":"Samut Prakan, Thailand","title":"Print Circuit Board"}},{"type":"Feature","geometry":{"type":"Point","coordinates":[100.5610837,13.742632799999]},"properties":{"urltitle:moreinfo":"Design-gateway","url:moreinfo":"www.design-gateway.com\/","description":"02-2612277","address":"1302 Sukhumvit 21 Rd. (Asoke), Klongtoey-Nua, Wattana, Bangkok 10110,THAILAND.","placename":"Sukhumvit 21 Soi 3, Khlong Tan Nuea, Vadhana, Bangkok 10110, Thailand","title":"Print Circuit Board"}},{"type":"Feature","geometry":{"type":"Point","coordinates":[100.605022,14.115219999998]},"properties":{"urltitle:moreinfo":"Shindengen","url:moreinfo":"http:\/\/www.shindengen.co.jp\/top_e\/index.html","description":"02-5291510-12","address":"60\/58, KHLONG NUNG Khlong Luang,Pathum Thani, Thailand.","placename":"Khlong Nueng SHPH, Nava Nakorn Industrial Promotion Zone, Khlong Nueng, Khlong Luang, Pathum Thani 12110, Thailand","title":"Print Circuit Board"}},{"type":"Feature","geometry":{"type":"Point","coordinates":[100.5482438,13.9961355]},"properties":{"urltitle:moreinfo":"TOSHIBA LIGHTING","url:moreinfo":"http:\/\/www.tlct.co.th\/","description":"Tel.66-2 5011021-32","address":"144\/2, MOO 5 TIVANONT RD., BANG KADI ,Pathum Thani, Thailand.","placename":"Bang Kadi, Mueang Pathum Thani, Pathum Thani 12000, Thailand","title":"Print Circuit Board"}},{"type":"Feature","geometry":{"type":"Point","coordinates":[98.924534300002,18.1253143]},"properties":{"urltitle:moreinfo":"Tokyo Coil","url:moreinfo":"http:\/\/www.tokyo-coil.co.th\/","description":"","address":"Moo 4 Tambol Banklang, Amphur Muang, Lamphun, Thailand.","placename":"Lamphun, Thailand","title":"Print Circuit Board"}},{"type":"Feature","geometry":{"type":"Point","coordinates":[113.8241837,22.647442099997]},"properties":{"urltitle:moreinfo":"RayMing","url:moreinfo":"http:\/\/www.rayming.com","description":"86-0758-8507654","address":"Baoan, Shenzhen, Guangdong, China.","placename":"Bao'an Ave, Shenzhen, Guangdong, China","title":"Print Circuit Board"}},{"type":"Feature","geometry":{"type":"Point","coordinates":[100.4938889,13.752222200004]},"properties":{"urltitle:moreinfo":"Thai Bussiness","url:moreinfo":"http:\/\/www.thailandbizlist.com\/companyprofile\/3566\/national-thai-co-ltd-","description":"Tel.66-2 7081111","address":"MOO 2 TEPARAK RD. BANGSAOTHONG ,Bangkok, Thailand.","placename":"Bangkok, Thailand","title":"Print Circuit Board"}},{"type":"Feature","geometry":{"type":"Point","coordinates":[100.5296115,14.330435000001]},"properties":{"urltitle:moreinfo":"MEDTEC","url:moreinfo":"http:\/\/www.mektec.co.th\/mektec\/","description":"Tel.66-35 258888","address":"UDOIT-SORAYITA, KLONG-TIK, BANGPA-IN, ,Phra Nakhon Si Ayutthaya, Thailand.","placename":"Phra Nakhon Si Ayutthaya, Thailand","title":"Print Circuit Board"}},{"type":"Feature","geometry":{"type":"Point","coordinates":[100.7548851,13.633574100002]},"properties":{"urltitle:moreinfo":"K C E INTERNATIONAL","url:moreinfo":"http:\/\/www.kce.org\/history_iframe.html","description":"Tel.66-2 3260199","address":"MOO 4 PHRAEKSA MuangKrabi,Samut Prakan, Thailand.","placename":"Samut Prakan, Thailand","title":"Print Circuit Board"}},{"type":"Feature","geometry":{"type":"Point","coordinates":[100.8856228,14.5356762]},"properties":{"urltitle:moreinfo":"JVC MANUFACTURING","url:moreinfo":"http:\/\/www.jvc.co.th\/","description":"Tel.66-2 5292105-9","address":"MOO 18 KHLONG CHET Khlong Luang,Pathum Thani, Thailand.","placename":"Phahonyothin Rd, Thailand","title":"Print Circuit Board"}},{"type":"Feature","geometry":{"type":"Point","coordinates":[113.884293,22.553393000002]},"properties":{"urltitle:moreinfo":"HECPCB","url:moreinfo":"http:\/\/www.hecpcb.com\/main.php?weblan=e","description":"(+86)-755-23036976.","address":"Building A3, North Industry Zone, Yanchuan, Songgang Town, Bao'an District, Shenzhen City, Guangdong, China.","placename":"Bao'an, Shenzhen, Guangdong, China","title":"Print Circuit Board"}},{"type":"Feature","geometry":{"type":"Point","coordinates":[104.19539698549,35.861659995661]},"properties":{"urltitle:moreinfo":"Xinlong Electroni","url:moreinfo":"http:\/\/www.xinlong.com\/","description":"86-20-86325559","address":"China","title":"Print Circuit Board","weight":"0","co2e":"0","energy":"0","water":"0","youtube:link":""}},{"type":"Feature","geometry":{"type":"Point","coordinates":[116.689183,39.517662999999]},"properties":{"urltitle:moreinfo":"Foxconn","url:moreinfo":"http:\/\/www.foxconn.com\/","description":"0316-5898888-62696","address":"Longhe Industrial Park, Anci District, Langfang, Hebei, China.","placename":"Anci, Langfang, Hebei, China","title":"Print Circuit Board"}},{"type":"Feature","geometry":{"type":"Point","coordinates":[121.4130555831,23.977499996857]},"properties":{"urltitle:moreinfo":"Eastern Electronics","url:moreinfo":"http:\/\/www.eec.com.tw\/","description":"886-3-3611141","address":"\u9577\u5cef\u5c71, Xiulin Township, Hualien County, Taiwan 972","title":"Print Circuit Board","weight":"0","co2e":"0","energy":"0","water":"0","youtube:link":""}},{"type":"Feature","geometry":{"type":"Point","coordinates":[101.61577728585,14.096558798077]},"properties":{"urltitle:moreinfo":"CMK Corporation","url:moreinfo":"http:\/\/www.cmk-corp.com\/en\/html\/company\/sales_idx.html","description":"026595715-7,026595713-4","address":"Prachin Buri, Thailand","title":"Print Circuit Board","weight":"0","co2e":"0","energy":"0","water":"0","youtube:link":""}},{"type":"Feature","geometry":{"type":"Point","coordinates":[100.5971361,14.258557799996]},"properties":{"urltitle:moreinfo":"CKL ELECTRONICS","url:moreinfo":"http:\/\/www.cklelectronic.com.ar\/","description":"Tel.66-35 258222","address":"MOO 2, UDOMSORAYUTH RD, T. KLONGJIG Bang Pa-in,Phra Nakhon Si Ayutthaya, Thailand.","placename":"Bang Pa-in, Phra Nakhon Si Ayutthaya, Thailand","title":"Print Circuit Board"}},{"type":"Feature","geometry":{"type":"Point","coordinates":[103.656334,1.6202869999962]},"properties":{"urltitle:moreinfo":"Cal-comp","url:moreinfo":"http:\/\/www.calcomp.com.my\/english\/contact.html","description":"60-7-5983585","address":"PTD 37441, Jalan Perindustrian 3, Kawasan Perindustrian Fasa 2, 81400 Senai, Johor, Malaysia.","placename":"81000 Senai, Johor, Malaysia","title":"Print Circuit Board"}},{"type":"Feature","geometry":{"type":"Point","coordinates":[103.9702763,1.3379701999987]},"properties":{"urltitle:moreinfo":"Cal-comp","url:moreinfo":"www.calcomp.co.th\/","description":"6546 2655","address":"19 Changi South Street 1 , Singapore.","placename":"19 Changi South Street 1, Singapore 486779","title":"Print Circuit Board"}},{"type":"Feature","geometry":{"type":"Point","coordinates":[114.057868,22.543099000001]},"properties":{"urltitle:moreinfo":"Zoomtak Electronics","url:moreinfo":"http:\/\/www.tolipackaging.com\/","description":"86-755-2778 8612","address":"A510, Hua Mei Ju Business Center, Bao'an 82 District, Shenzhen, Guangdong, China.","placename":"Shenzhen, Guangdong, China","title":"Print Circuit Board Assembly"}},{"type":"Feature","geometry":{"type":"Point","coordinates":[101.975766,4.2104840000023]},"properties":{"urltitle:moreinfo":"Toli Packaging","url:moreinfo":"http:\/\/www.tolipackaging.com\/","description":"60-7-4558918","address":"Lot 2 & 4, Jalan Wawasan 19 \/ 2, Kawasan Miel Sri Gading Phase 1, Malaysia.","placename":"Malaysia","title":"Print Circuit Board Assembly"}},{"type":"Feature","geometry":{"type":"Point","coordinates":[100.4938889,13.752222200004]},"properties":{"urltitle:moreinfo":"TECHNOLOGY APPLICATIONS","url:moreinfo":"http:\/\/www.thaitechno.net\/t1\/home.php?uid=1776","description":"Tel.66-2 5392026-9","address":"Vivat Bhumichitr 2571 Ladphrao Road Near Ladphrao Soi 87. Bangkapiwangthonglang Bangkok, Thailand.","placename":"Bangkok, Thailand","title":"Print Circuit Board Assembly"}},{"type":"Feature","geometry":{"type":"Point","coordinates":[80.249583000004,13.060421999997]},"properties":{"urltitle:moreinfo":"SYRMA TECHNOLOGY","url:moreinfo":"http:\/\/www.syrmatech.com\/","description":"91-44-22628601","address":"Plot No B27, Zone B, Phase 2, Mepz-Sez, Tamabaram, Chennai, India.","placename":"Chennai, Tamil Nadu, India","title":"Print Circuit Board Assembly"}},{"type":"Feature","geometry":{"type":"Point","coordinates":[103.745812,1.3286840000041]},"properties":{"urltitle:moreinfo":"Sumitronics","url:moreinfo":"http:\/\/www.sumitronics.com.sg","description":"65-96552644","address":"31 International Business Park# 05-10, Singapore.","placename":"31 International Business Park, Singapore 609921","title":"Print Circuit Board Assembly"}},{"type":"Feature","geometry":{"type":"Point","coordinates":[100.5971361,14.258557799996]},"properties":{"urltitle:moreinfo":"SMT Technologies","url:moreinfo":"http:\/\/www.smtt.com.my\/overview.php","description":"(035) 221 777","address":"605 - 606 Moo 2 Klongjig, Bang Pa-In, Ayutthaya 13160, Thailand.","placename":"Bang Krasan, Bang Pa-in, Phra Nakhon Si Ayutthaya 13160, Thailand","title":"Print Circuit Board Assembly"}},{"type":"Feature","geometry":{"type":"Point","coordinates":[100.4775952,5.6285872000013]},"properties":{"urltitle:moreinfo":"SMT Technologies","url:moreinfo":"http:\/\/www.smtt.com.my\/overview.php","description":"60 04 422988","address":"Plot 102, Industrial Estate,  Bakar Arang, Sungai Petani, Kedah, 08000 Malaysia.","placename":"Bakar Arang, 08000 Sungai Petani, Kedah, Malaysia","title":"Print Circuit Board Assembly"}},{"type":"Feature","geometry":{"type":"Point","coordinates":[113.9210342,22.532232799996]},"properties":{"urltitle:moreinfo":"Yishi Electronic","url:moreinfo":"http:\/\/www.yishi.net.cn\/","description":"86-755-83756060","address":"8th building, Xinwucun Industrial Zone, Taoyuan st., Nanshan District, China.","placename":"Taoyuan Rd, Nanshan, Shenzhen, Guangdong, China, 518052","title":"Print Circuit Board Assembly"}},{"type":"Feature","geometry":{"type":"Point","coordinates":[113.8241837,22.647442099997]},"properties":{"urltitle:moreinfo":"RayMing","url:moreinfo":"http:\/\/www.rayming.com","description":"86-0758-8507654","address":"Baoan, Shenzhen, Guangdong, China.","placename":"Bao'an Ave, Shenzhen, Guangdong, China","title":"Print Circuit Board Assembly"}},{"type":"Feature","geometry":{"type":"Point","coordinates":[100.52961148601,14.330434998047]},"properties":{"youtube:link":"","water":"0","energy":"0","co2e":"0","weight":"0","urltitle:moreinfo":"MEKTEC","url:moreinfo":"http:\/\/www.mektec.co.th\/mektec\/","description":"886-7-872-7777.","address":"Phra Nakhon Si Ayutthaya, Thailand","title":"Print Circuit Board Assembly"}},{"type":"Feature","geometry":{"type":"Point","coordinates":[100.52961148601,14.330434998047]},"properties":{"youtube:link":"","water":"0","energy":"0","co2e":"0","weight":"0","urltitle:moreinfo":"M & J Technologies","url:moreinfo":"http:\/\/www.mjtech.net\/corporate.html","description":"(+66) 35332170-5","address":"Phra Nakhon Si Ayutthaya, Thailand","title":"Print Circuit Board Assembly"}},{"type":"Feature","geometry":{"type":"Point","coordinates":[100.7841667,13.723333299998]},"properties":{"urltitle:moreinfo":"K C E Group","url:moreinfo":"http:\/\/www.kce.org\/history_iframe.html","description":"Tel.66-2 3240738-9","address":"MOO 4, CHALONGKRUNG RD., LUMPLATAEW, Lat Krabang, Bangkok, Thailand.","placename":"Lat Krabang, Bangkok 10520, Thailand","title":"Print Circuit Board Assembly"}},{"type":"Feature","geometry":{"type":"Point","coordinates":[113.884293,22.553393000002]},"properties":{"urltitle:moreinfo":"HECPCB","url:moreinfo":"http:\/\/www.hecpcb.com\/main.php?weblan=e","description":"(+86)-755-23036976.","address":"North Industry Zone, Yanchuan, Songgang Town, Bao'an District, Shenzhen City, Guangdong, China.","placename":"Bao'an, Shenzhen, Guangdong, China","title":"Print Circuit Board Assembly"}},{"type":"Feature","geometry":{"type":"Point","coordinates":[120.155069,30.274089]},"properties":{"urltitle:moreinfo":"Alibaba","url:moreinfo":"http:\/\/hzsingo.en.alibaba.com\/","description":"86-571-87203964","address":"West Garden 1st Roard , West Lake Technopark, Hangzhou, China.","placename":"Hangzhou, Zhejiang, China","title":"Print Circuit Board Assembly"}},{"type":"Feature","geometry":{"type":"Point","coordinates":[115.914037,-31.925474000001]},"properties":{"urltitle:moreinfo":"Global Business","url:moreinfo":"www.globalebizoutsource.com\/aboutus.html","description":"61-8-61613639","address":"416 Guildford Road, Bayswater, Western Australia, Australia.","placename":"416 Guildford Rd, Bayswater WA 6053, Australia","title":"Print Circuit Board Assembly"}},{"type":"Feature","geometry":{"type":"Point","coordinates":[116.689183,39.517662999999]},"properties":{"urltitle:moreinfo":"Foxconn","url:moreinfo":"http:\/\/www.foxconn.com\/","description":"0316-5898888-62696","address":"Longhe Industrial Park, Anci District, Langfang, Hebei, China.","placename":"Anci, Langfang, Hebei, China","title":"Print Circuit Board Assembly"}},{"type":"Feature","geometry":{"type":"Point","coordinates":[100.5427778,13.780000000003]},"properties":{"urltitle:moreinfo":"FORTH","url:moreinfo":"http:\/\/www.forth.co.th\/th\/","description":"Tel.66-2 6150600-14","address":"PRAHOLYOTHIN RD., SAMSENNAI, Phaya Thai,Bangkok, Thailand.","placename":"Phaya Thai, Bangkok 10400, Thailand","title":"Print Circuit Board Assembly"}},{"type":"Feature","geometry":{"type":"Point","coordinates":[100.6647101,14.003391299996]},"properties":{"urltitle:moreinfo":"ELEC & ELTEK","url:moreinfo":"http:\/\/www.eleceltek.thailand.com\/","description":"Tel.66-2 9703001","address":"134, MOO 2 BANG KHAYAENG MuangKrabi,Pathum Thani, Thailand.","placename":"Pathum Thani, Thailand","title":"Print Circuit Board Assembly"}},{"type":"Feature","geometry":{"type":"Point","coordinates":[77.228175000002,28.667502000003]},"properties":{"urltitle:moreinfo":"EAST INDIA TECHNOLOGIES","url:moreinfo":"http:\/\/www.edstechnologies.com\/","description":"91-120-2560450 \/ 2569381","address":"2584 Hamilton Road Rohtangi Mansion Kashmere Gate, New Delhi, Delhi, India.","placename":"Kashmere Gate, Lothian Rd, Mori Gate, New Delhi, Delhi 110006, India","title":"Print Circuit Board Assembly"}},{"type":"Feature","geometry":{"type":"Point","coordinates":[100.6647101,14.003391299996]},"properties":{"urltitle:moreinfo":"DATA GENERAL","url:moreinfo":"http:\/\/www.general-data.com\/","description":"(+66)-38-490-440-4","address":"MOO 6 PHAHOLYOTHIN RD., KLONG NUANG, KLONG LAUNG, ,Pathum Thani, Thailand.","placename":"Pathum Thani, Thailand","title":"Print Circuit Board Assembly"}},{"type":"Feature","geometry":{"type":"Point","coordinates":[151.2962608,-33.754652399999]},"properties":{"urltitle:moreinfo":"Cnl","url:moreinfo":"http:\/\/www.cnl.com\/","description":"61-9981-1698","address":"H9, 9-11, The Strand Deewhy Nsw,Sydney, NSW,  Australia.","placename":"11\/9 The Strand, Dee Why NSW 2099, Australia","title":"Print Circuit Board Assembly"}},{"type":"Feature","geometry":{"type":"Point","coordinates":[103.656334,1.6202869999962]},"properties":{"urltitle:moreinfo":"Cal-comp","url:moreinfo":"http:\/\/www.calcomp.com.my\/english\/contact.html","description":"60-7-5983585","address":"PTD 37441, Jalan Perindustrian 3, Kawasan Perindustrian Fasa 2, 81400 Senai, Johor Malaysia.","placename":"81000 Senai, Johor, Malaysia","title":"Print Circuit Board Assembly"}},{"type":"Feature","geometry":{"type":"Point","coordinates":[103.9702763,1.3379701999987]},"properties":{"urltitle:moreinfo":"Cal-comp","url:moreinfo":"www.calcomp.co.th\/","description":"6546 2655","address":"19 Changi South Street 1  Singapore, Singapore.","placename":"19 Changi South Street 1, Singapore 486779","title":"Print Circuit Board Assembly"}},{"type":"Feature","geometry":{"type":"Point","coordinates":[100.6702778,14.361944400002]},"properties":{"urltitle:moreinfo":"Cal-comp","url:moreinfo":"www.calcomp.co.th\/","description":"(66)-2 2615033","address":"Uthai, Phra Nakhon Si Ayutthaya, Thailand.","placename":"Uthai, Phra Nakhon Si Ayutthaya, Thailand","title":"Print Circuit Board Assembly"}},{"type":"Feature","geometry":{"type":"Point","coordinates":[100.52961148601,14.330434998047]},"properties":{"urltitle:moreinfo":"Single Point Parts","url:moreinfo":"http:\/\/www.spp.co.th\/","description":"(035)226700-1","address":"Phra Nakhon Si Ayutthaya, Thailand","title":"counter Plate","weight":"0","co2e":"0","energy":"0","water":"0","youtube:link":""}},{"type":"Feature","geometry":{"type":"Point","coordinates":[100.5971361,14.258557799996]},"properties":{"urltitle:moreinfo":"NMB-Minebea","url:moreinfo":"http:\/\/www.minebea.co.th\/minebea\/TH\/","description":"(66) 3536142939","address":"KM.51, Bang, Pa-In, Phra Nakhon Si Ayutthaya, Thailand.","placename":"Bang Pa-in, Phra Nakhon Si Ayutthaya, Thailand","title":"counter Plate"}},{"type":"Feature","geometry":{"type":"Point","coordinates":[121.12508248314,14.187671198066]},"properties":{"urltitle:moreinfo":"Engtek","url:moreinfo":"http:\/\/www.engtek.com","description":"(+63) (04) 954-9174","address":"Calamba City, Philippines","title":"counter Plate","weight":"0","co2e":"0","energy":"0","water":"0","youtube:link":""}},{"type":"Feature","geometry":{"type":"Point","coordinates":[100.52961148601,14.330434998047]},"properties":{"urltitle:moreinfo":"Single Point Parts","url:moreinfo":"http:\/\/www.spp.co.th\/","description":"(035)226700-1","address":"Phra Nakhon Si Ayutthaya, Thailand","title":"Insulation bush","weight":"0","co2e":"0","energy":"0","water":"0","youtube:link":""}},{"type":"Feature","geometry":{"type":"Point","coordinates":[100.5971361,14.258557799996]},"properties":{"urltitle:moreinfo":"NMB-Minebea","url:moreinfo":"http:\/\/www.minebea.co.th\/minebea\/TH\/","description":"(66) 3536142939","address":"KM.51, Bang, Pa-In, Phra Nakhon Si Ayutthaya, Thailand.","placename":"Bang Pa-in, Phra Nakhon Si Ayutthaya, Thailand","title":"Insulation bush"}},{"type":"Feature","geometry":{"type":"Point","coordinates":[100.52961148601,14.330434998047]},"properties":{"urltitle:moreinfo":"Single Point Parts","url:moreinfo":"http:\/\/www.spp.co.th\/","description":"(035)226700-1","address":"Phra Nakhon Si Ayutthaya, Thailand","title":"Base plate","weight":"0","co2e":"0","energy":"0","water":"0","youtube:link":""}},{"type":"Feature","geometry":{"type":"Point","coordinates":[100.5971361,14.258557799996]},"properties":{"urltitle:moreinfo":"NMB-Minebea","url:moreinfo":"http:\/\/www.minebea.co.th\/minebea\/TH\/","description":"(66) 3536142939","address":"KM.51, Bang, Pa-In, Phra Nakhon Si Ayutthaya, Thailand.","placename":"Bang Pa-in, Phra Nakhon Si Ayutthaya, Thailand","title":"Base plate"}},{"type":"Feature","geometry":{"type":"Point","coordinates":[121.12508248314,14.187671198066]},"properties":{"urltitle:moreinfo":"Engtek","url:moreinfo":"http:\/\/www.engtek.com","description":"(+63) (04) 954-9174","address":"Calamba City, Philippines","title":"Base plate","weight":"0","co2e":"0","energy":"0","water":"0","youtube:link":""}},{"type":"Feature","geometry":{"type":"Point","coordinates":[100.52961148601,14.330434998047]},"properties":{"urltitle:moreinfo":"Single Point Parts","url:moreinfo":"http:\/\/www.spp.co.th\/","description":"(035)226700-1","address":"Phra Nakhon Si Ayutthaya, Thailand","title":"Fastening","weight":"0","co2e":"0","energy":"0","water":"0","youtube:link":""}},{"type":"Feature","geometry":{"type":"Point","coordinates":[100.5971361,14.258557799996]},"properties":{"urltitle:moreinfo":"NMB-Minebea","url:moreinfo":"http:\/\/www.minebea.co.th\/minebea\/TH\/","description":"(66) 3536142939","address":"KM.51, Bang, Pa-In, Phra Nakhon Si Ayutthaya, Thailand.","placename":"Bang Pa-in, Phra Nakhon Si Ayutthaya, Thailand","title":"Fastening"}},{"type":"Feature","geometry":{"type":"Point","coordinates":[121.12508248314,14.187671198066]},"properties":{"urltitle:moreinfo":"Engtek","url:moreinfo":"http:\/\/www.engtek.com","description":"(+63) (04) 954-9174","address":"Calamba City, Philippines","title":"Fastening","weight":"0","co2e":"0","energy":"0","water":"0","youtube:link":""}},{"type":"Feature","geometry":{"type":"Point","coordinates":[100.52961148601,14.330434998047]},"properties":{"urltitle:moreinfo":"Single Point Parts","url:moreinfo":"http:\/\/www.spp.co.th\/","description":"(035)226700-1","address":"Phra Nakhon Si Ayutthaya, Thailand","title":"Magnet","weight":"0","co2e":"0","energy":"0","water":"0","youtube:link":""}},{"type":"Feature","geometry":{"type":"Point","coordinates":[103.8926498,1.3368030999968]},"properties":{"urltitle:moreinfo":"magnequench","url:moreinfo":"http:\/\/www.magnequench.com","description":"65 6281 2797","address":"1020 Tai Seng Avenue, Tai Seng Industrial Estate Hougang North-East Singapore 534416 Singapore.","placename":"Singapore 534416","title":"Magnet"}},{"type":"Feature","geometry":{"type":"Point","coordinates":[100.5971361,14.258557799996]},"properties":{"urltitle:moreinfo":"NMB-Minebea","url:moreinfo":"http:\/\/www.minebea.co.th\/minebea\/TH\/","description":"(66) 3536142939","address":"KM.51, Bang, Pa-In, Phra Nakhon Si Ayutthaya, Thailand.","placename":"Bang Pa-in, Phra Nakhon Si Ayutthaya, Thailand","title":"Magnet"}},{"type":"Feature","geometry":{"type":"Point","coordinates":[121.12508248314,14.187671198066]},"properties":{"urltitle:moreinfo":"Engtek","url:moreinfo":"http:\/\/www.engtek.com","description":"(+63) (04) 954-9174","address":"Calamba City, Philippines","title":"Magnet","weight":"0","co2e":"0","energy":"0","water":"0","youtube:link":""}},{"type":"Feature","geometry":{"type":"Point","coordinates":[100.52961148601,14.330434998047]},"properties":{"urltitle:moreinfo":"Single Point Parts","url:moreinfo":"http:\/\/www.spp.co.th\/","description":"(035)226700-1","address":"Phra Nakhon Si Ayutthaya, Thailand","title":"Sleeve","weight":"0","co2e":"0","energy":"0","water":"0","youtube:link":""}},{"type":"Feature","geometry":{"type":"Point","coordinates":[100.5971361,14.258557799996]},"properties":{"urltitle:moreinfo":"NMB-Minebea","url:moreinfo":"http:\/\/www.minebea.co.th\/minebea\/TH\/","description":"(66) 3536142939","address":"KM.51, Bang, Pa-In, Phra Nakhon Si Ayutthaya, Thailand.","placename":"Bang Pa-in, Phra Nakhon Si Ayutthaya, Thailand","title":"Sleeve"}},{"type":"Feature","geometry":{"type":"Point","coordinates":[121.12508248314,14.187671198066]},"properties":{"urltitle:moreinfo":"Engtek","url:moreinfo":"http:\/\/www.engtek.com","description":"(+63) (04) 954-9174","address":"Calamba City, Philippines","title":"Sleeve","weight":"0","co2e":"0","energy":"0","water":"0","youtube:link":""}},{"type":"Feature","geometry":{"type":"Point","coordinates":[100.52961148601,14.330434998047]},"properties":{"urltitle:moreinfo":"Single Point Parts","url:moreinfo":"http:\/\/www.spp.co.th\/","description":"(035)226700-1","address":"Phra Nakhon Si Ayutthaya, Thailand","title":"Shaft","weight":"0","co2e":"0","energy":"0","water":"0","youtube:link":""}},{"type":"Feature","geometry":{"type":"Point","coordinates":[100.5971361,14.258557799996]},"properties":{"urltitle:moreinfo":"NMB-Minebea","url:moreinfo":"http:\/\/www.minebea.co.th\/minebea\/TH\/","description":"(66) 3536142939","address":"KM.51, Bang, Pa-In, Phra Nakhon Si Ayutthaya, Thailand.","placename":"Bang Pa-in, Phra Nakhon Si Ayutthaya, Thailand","title":"Shaft"}},{"type":"Feature","geometry":{"type":"Point","coordinates":[121.12508248314,14.187671198066]},"properties":{"urltitle:moreinfo":"Engtek","url:moreinfo":"http:\/\/www.engtek.com","description":"(+63) (04) 954-9174","address":"Calamba City, Philippines","title":"Shaft","weight":"0","co2e":"0","energy":"0","water":"0","youtube:link":""}},{"type":"Feature","geometry":{"type":"Point","coordinates":[100.52961148601,14.330434998047]},"properties":{"urltitle:moreinfo":"Single Point Parts","url:moreinfo":"http:\/\/www.spp.co.th\/","description":"(035)226700-1","address":"Phra Nakhon Si Ayutthaya, Thailand","title":"Hub","weight":"0","co2e":"0","energy":"0","water":"0","youtube:link":""}},{"type":"Feature","geometry":{"type":"Point","coordinates":[100.6647101,14.003391299996]},"properties":{"urltitle:moreinfo":"Seiko","url:moreinfo":"http:\/\/www.sit.co.th\/","description":"02-529-2420","address":"Moo 19, Nava-nakorn Industrial Estate Zone3 Klong-Nueng, Klong-Luang, Pathumthani, Thailand.","placename":"Pathum Thani, Thailand","title":"Hub"}},{"type":"Feature","geometry":{"type":"Point","coordinates":[101.4453911,3.1352378999986]},"properties":{"urltitle:moreinfo":"Notion","url:moreinfo":"http:\/\/www.notionvtec.com\/","description":"03-3392 8741","address":"Lot 5028, Jalan Teratai, Batu 5 1\/2, Jalan Meru, 41050 Klang, Selangor, Malaysia.","placename":"Jalan Teratai, 41050 Klang, Selangor, Malaysia","title":"Hub"}},{"type":"Feature","geometry":{"type":"Point","coordinates":[100.5971361,14.258557799996]},"properties":{"urltitle:moreinfo":"NMB-Minebea","url:moreinfo":"http:\/\/www.minebea.co.th\/minebea\/TH\/","description":"(66) 3536142939","address":"KM.51, Bang, Pa-In, Phra Nakhon Si Ayutthaya, Thailand.","placename":"Bang Pa-in, Phra Nakhon Si Ayutthaya, Thailand","title":"Hub"}},{"type":"Feature","geometry":{"type":"Point","coordinates":[113.266531,23.132191]},"properties":{"urltitle:moreinfo":"Haozhi","url:moreinfo":"http:\/\/www.haozhihs.com\/en\/","description":"(86)-020-62257588-8805","address":"No .6, Jiangdong Street, Yonghe Development Zone, Guangdong, China.","placename":"Guangdong, China","title":"Spindle Motor"}},{"type":"Feature","geometry":{"type":"Point","coordinates":[119.942436,31.701085000002]},"properties":{"urltitle:moreinfo":"Jiesite","url:moreinfo":"http:\/\/www.czjst.com","description":"86-0519-89187119","address":"Jiangcun Industrial Zone, Henglin Town, Wujin District, Changzhou, Jiangsu, China.","placename":"Wujin, Changzhou, Jiangsu, China","title":"Spindle Motor"}},{"type":"Feature","geometry":{"type":"Point","coordinates":[100.5971361,14.258557799996]},"properties":{"urltitle:moreinfo":"NMB-Minebea","url:moreinfo":"http:\/\/www.minebea.co.th\/minebea\/TH\/","description":"(66) 3536142939","address":"KM.51, Bang, Pa-In, Phra Nakhon Si Ayutthaya, Thailand.","placename":"Bang Pa-in, Phra Nakhon Si Ayutthaya, Thailand","title":"Spindle Motor"}},{"type":"Feature","geometry":{"type":"Point","coordinates":[103.9741079,1.3754077999973]},"properties":{"urltitle:moreinfo":"Nidec","url:moreinfo":"http:\/\/www.nidec.com.sg\/","description":"6546 1111","address":"36 Loyang Way  Singapore, Singapore.","placename":"36 Loyang Way, Singapore 508771","title":"Spindle Motor"}},{"type":"Feature","geometry":{"type":"Point","coordinates":[100.7379706,14.017314100002]},"properties":{"urltitle:moreinfo":"Nidec","url:moreinfo":"http:\/\/www.nidec.com.sg\/","description":"0-3533-0742","address":"Moo 3 Thanyaburi-Lumlooka Road Rangsit Thanyaburi, Pathumthani, Thailand.","placename":"Rangsit, Thanyaburi, Pathum Thani 12110, Thailand","title":"Spindle Motor"}},{"type":"Feature","geometry":{"type":"Point","coordinates":[103.799804,1.4553500000036]},"properties":{"urltitle:moreinfo":"JCY International","url:moreinfo":"http:\/\/www.jcyinternational.com\/","description":"(+607)-352-5822","address":"29 Woodlands Industrial Park E1 04-18, Singapore.","placename":"29 Woodlands Industrial Park E1, Singapore 757716","title":"Spindle Motor"}},{"type":"Feature","geometry":{"type":"Point","coordinates":[121.12508248314,14.187671198066]},"properties":{"youtube:link":"","water":"0","energy":"0","co2e":"0","weight":"0","urltitle:moreinfo":"Engtek","url:moreinfo":"http:\/\/www.engtek.com","description":"(+63) (04) 954-9174","address":"Calamba City, Philippines","title":"Spindle Motor"}},{"type":"Feature","geometry":{"type":"Point","coordinates":[102.09375898579,14.985435997962]},"properties":{"youtube:link":"","water":"0","energy":"0","co2e":"0","weight":"0","urltitle:moreinfo":"Alphana","url:moreinfo":"http:\/\/www.alphana-tech.com\/en\/index.html","description":"66 (0) 4421 2905-12","address":"Nakornratchasima Thonburi Hospital, Nai Mueang, Mueang Nakhon Ratchasima, Nakhon Ratchasima 30000, Thailand","title":"Spindle Motor"}},{"type":"Feature","geometry":{"type":"Point","coordinates":[101.2523792,13.201746099996]},"properties":{"urltitle:moreinfo":"San \u2013 Ei Electronic","url:moreinfo":"http:\/\/www.sanei.co.th\/san-ei-network\/","description":"(66)-38-717114","address":"Moo 5 T.Donhuaroh, A.Muang Chonburi, Thailand.","placename":"Chon Buri, Thailand","title":"E-Block"}},{"type":"Feature","geometry":{"type":"Point","coordinates":[98.924534286231,18.125314297561]},"properties":{"urltitle:moreinfo":"Fujikura Electronics","url:moreinfo":"www.fujikura-electronics.co.th","description":"(+665) 358-1002-8","address":"Lamphun, Thailand","title":"E-Block","weight":"0","co2e":"0","energy":"0","water":"0","youtube:link":""}},{"type":"Feature","geometry":{"type":"Point","coordinates":[113.9172945,22.583491899998]},"properties":{"urltitle:moreinfo":"compart group","url:moreinfo":"www.compart-grp.com\/","description":"(86-755) 3368 0688","address":"61 Liu Xian Road 2, Baoan District 71 Shenzhen, Guangdong Province, China.","placename":"Liuxian 3rd Rd & Liuxian 2nd Road 3rd Alley, Bao'an, Shenzhen, Guangdong, China","title":"E-Block"}},{"type":"Feature","geometry":{"type":"Point","coordinates":[103.606526,1.4442720000033]},"properties":{"urltitle:moreinfo":"Unisteel","url:moreinfo":"www.unisteeltech.com\/","description":"(607) 5555333","address":"No.2, Jalan Mega 1 Taman Perindustrian Nusa Cemerlang Gelang Patah, Malaysia.","placename":"Jalan Mega 1, Taman Perindustrian Nusa Cemerlang, 81550 Gelang Patah, Johor, Malaysia","title":"VCM Coil"}},{"type":"Feature","geometry":{"type":"Point","coordinates":[103.8509491,1.2800945000008]},"properties":{"urltitle:moreinfo":"magnequench","url:moreinfo":"http:\/\/www.magnequench.com","description":"65 6281 2797","address":"1020 Tai Seng Avenue, Tai Seng Industrial Estate Hougang North-East Singapore, Singapore.","placename":"Singapore","title":"VCM Coil"}},{"type":"Feature","geometry":{"type":"Point","coordinates":[100.52961148601,14.330434998047]},"properties":{"youtube:link":"","water":"0","energy":"0","co2e":"0","weight":"0","urltitle:moreinfo":"The Hitachi Metals Group","url:moreinfo":"http:\/\/www.hitachi-metals.co.jp\/e\/corp\/corp08.html","description":"035-330588-94","address":"Phra Nakhon Si Ayutthaya, Thailand","title":"VCM Coil"}},{"type":"Feature","geometry":{"type":"Point","coordinates":[98.924534300002,18.1253143]},"properties":{"urltitle:moreinfo":"Fujikura Electronics","url:moreinfo":"www.fujikura-electronics.co.th","description":"(+665) 358-1002-8","address":"Moo 4, Super Highway Road, Tambol Banklang, Amphur Muang Lamphun, Lamphun, Thailand.","placename":"Lamphun, Thailand","title":"VCM Coil"}},{"type":"Feature","geometry":{"type":"Point","coordinates":[100.6647101,14.003391299996]},"properties":{"urltitle:moreinfo":"beltontechnology","url:moreinfo":"www.beltontechnology.com\/en\/CI_milestones.html","description":"084-4453444, 02-5297300 # 1213","address":"Moo 20, T.Khlong Nueng, A. Klongluang, Pathum Thani, Thailand.","placename":"Pathum Thani, Thailand","title":"VCM Coil"}},{"type":"Feature","geometry":{"type":"Point","coordinates":[101.2523792,13.201746099996]},"properties":{"urltitle:moreinfo":"San \u2013 Ei Electronic","url:moreinfo":"http:\/\/www.sanei.co.th\/san-ei-network\/","description":"(66)-38-717114","address":"700\/443 Moo 5 T.Donhuaroh, A.Muang Chonburi, Chonburi, Thailand.","placename":"Chon Buri, Thailand","title":"Arm Coil"}},{"type":"Feature","geometry":{"type":"Point","coordinates":[98.924534300002,18.1253143]},"properties":{"urltitle:moreinfo":"Fujikura Electronics","url:moreinfo":"www.fujikura-electronics.co.th","description":"(+665) 358-1002-8","address":"Moo 4, Super Highway Road, Tambol Banklang, Amphur Muang Lamphun, Lamphun, Thailand.","placename":"Lamphun, Thailand","title":"Arm Coil"}},{"type":"Feature","geometry":{"type":"Point","coordinates":[113.9172945,22.583491899998]},"properties":{"urltitle:moreinfo":"beltontechnology","url:moreinfo":"www.beltontechnology.com\/en\/CI_milestones.html","description":"(86-755) 3368 0688","address":"61 Liu Xian Road 2, Baoan District 71 Shenzhen, Guangdong, China.","placename":"Liuxian 3rd Rd & Liuxian 2nd Road 3rd Alley, Bao'an, Shenzhen, Guangdong, China","title":"Arm Coil"}},{"type":"Feature","geometry":{"type":"Point","coordinates":[100.6647101,14.003391299996]},"properties":{"urltitle:moreinfo":"beltontechnology","url:moreinfo":"www.beltontechnology.com\/en\/CI_milestones.html","description":"084-4453444, 02-5297300 # 1213","address":"Moo 20, T.Khlong Nueng ,A. Klongluang, Pathum Thani, Thailand.","placename":"Pathum Thani, Thailand","title":"Arm Coil"}},{"type":"Feature","geometry":{"type":"Point","coordinates":[100.5971361,14.258557799996]},"properties":{"urltitle:moreinfo":"Driving Directions - IntriPlex Thailand","url:moreinfo":"http:\/\/www.intri-plex.com","description":"\u00a0035351707-10","address":"Moo 1 Banlen Sub Dist, Tumbol Banlen Amphoe Bang Pa-In, Ayutthaya, Thailand","placename":"Bang Pa-in, Phra Nakhon Si Ayutthaya, Thailand","title":"Head Stack Arm"}},{"type":"Feature","geometry":{"type":"Point","coordinates":[100.52961148601,14.330434998047]},"properties":{"youtube:link":"","water":"0","energy":"0","co2e":"0","weight":"0","urltitle:moreinfo":"compart group","url:moreinfo":"www.compart-grp.com\/","description":"","address":"Phra Nakhon Si Ayutthaya, Thailand","title":"Head Stack Arm"}},{"type":"Feature","geometry":{"type":"Point","coordinates":[113.9172945,22.583491899998]},"properties":{"urltitle:moreinfo":"compart group","url:moreinfo":"www.compart-grp.com\/","description":"(86-755) 3368 0688","address":"61 Liu Xian Road 2, Baoan District 71 Shenzhen, Guangdong Province, China","placename":"Liuxian 3rd Rd & Liuxian 2nd Road 3rd Alley, Bao'an, Shenzhen, Guangdong, China","title":"Head Stack Arm"}},{"type":"Feature","geometry":{"type":"Point","coordinates":[139.7300357,35.620174799997]},"properties":{"urltitle:moreinfo":"NSK","url:moreinfo":"http:\/\/www.nsk.com\/contactus.html","description":"(+81)-3-3779-7111","address":"Nissei Bldg., 1-6-3 Ohsaki, Shinagawa-ku. Tokyo 141-8560, Japan.","placename":"\uff11\u4e01\u76ee-\uff16 Osaki, Shinagawa, Tokyo 141-8560, Japan","title":"Pivot"}},{"type":"Feature","geometry":{"type":"Point","coordinates":[101.2523792,13.201746099996]},"properties":{"urltitle:moreinfo":"NSK","url:moreinfo":"http:\/\/www.nsk.co.th\/company2.php","description":"(038) 454010-6 Ext.323","address":"Moo 6 Soi Km. 57, Bang Na - Trat Rd., Khlong Tamru, Muang Chon Buri, Chonburi, Thailand.","placename":"Chon Buri, Thailand","title":"Pivot"}},{"type":"Feature","geometry":{"type":"Point","coordinates":[100.5971361,14.258557799996]},"properties":{"urltitle:moreinfo":"NMB-Minebea","url:moreinfo":"http:\/\/www.minebea.co.th\/minebea\/TH\/","description":"(66) 3536142939","address":"KM.51, Bang, Pa-In, Phra Nakhon Si Ayutthaya, Thailand.","placename":"Bang Pa-in, Phra Nakhon Si Ayutthaya, Thailand","title":"Pivot"}},{"type":"Feature","geometry":{"type":"Point","coordinates":[138.506529,36.318111299997]},"properties":{"urltitle:moreinfo":"NMB Electro Precision, Inc.","url:moreinfo":"NMB Electro Precision, Inc.","description":"81-267-32-2200","address":"4106-73 Oaza Miyota, Miyota-machi, Kitasaku-gun, Nagano, Japan.","placename":"Miyota, Kitasaku District, Nagano Prefecture, Japan","title":"Pivot"}},{"type":"Feature","geometry":{"type":"Point","coordinates":[103.9741079,1.3754077999973]},"properties":{"urltitle:moreinfo":"Nidec","url:moreinfo":"http:\/\/www.nidec.com.sg\/","description":"6546 1111","address":"36 Loyang Way  Singapore, Singapore.","placename":"36 Loyang Way, Singapore 508771","title":"Pivot"}},{"type":"Feature","geometry":{"type":"Point","coordinates":[101.758028,3.0205269999968]},"properties":{"urltitle:moreinfo":"Micro Precision","url:moreinfo":"http:\/\/www.microprecision.com\/","description":"03-8961 3960","address":"Jalan Taming Lima Taman Taming Jaya 43300 Balakong Selangor Darul Ehsan, Malaysia.","placename":"Surau Darul Amin, Jalan 16\/3, Taman Cheras Jaya, 43300 Cheras, Selangor, Malaysia","title":"Pivot"}},{"type":"Feature","geometry":{"type":"Point","coordinates":[103.799804,1.4553500000036]},"properties":{"urltitle:moreinfo":"MMI Technology","url:moreinfo":"http:\/\/www.mmitechnologies.com\/","description":"(+65)--67670345","address":"29 Woodlands Industrial Park E1, Singapore.","placename":"29 Woodlands Industrial Park E1, Singapore 757716","title":"T-ring"}},{"type":"Feature","geometry":{"type":"Point","coordinates":[100.7061111,13.605833300003]},"properties":{"urltitle:moreinfo":"Hagemeyer","url:moreinfo":"http:\/\/www.hagemeyerasia.com\/ContactUs.html","description":"02-325 0055","address":"Bangplee-Tamlu Road, Bang, Phli, Samut Prakan, Thailand.","placename":"Bang Phli, Samut Prakan 10540, Thailand","title":"T-ring"}},{"type":"Feature","geometry":{"type":"Point","coordinates":[103.8489154,1.3903731999997]},"properties":{"urltitle:moreinfo":"Hagemeyer","url:moreinfo":"http:\/\/www.hagemeyerasia.com\/ContactUs.html","description":"\u00a0+65.65545180","address":"12 Ang Mo Kio Street 65 #06-01 Ang Mo Kio North-East Singapore, Singapore.","placename":"12 Ang Mo Kio Street 65, Singapore 569060","title":"T-ring"}},{"type":"Feature","geometry":{"type":"Point","coordinates":[113.544202,22.201874]},"properties":{"urltitle:moreinfo":"beltontechnology","url:moreinfo":"http:\/\/www.beltontechnology.com\/en\/CI_milestones.html","description":"6747 2878","address":"Offshore Ltd Rm I L 19 F Dynastyplaza Bldg 392 438 Avenida Sir Andres Ljungstedt Macau Macau, China.","placename":"Macau","title":"T-ring"}},{"type":"Feature","geometry":{"type":"Point","coordinates":[121.5114973,25.042233299999]},"properties":{"urltitle:moreinfo":"FINPO","url:moreinfo":"http:\/\/www.pcbfinpo.com\/","description":"886-2-23131385","address":"Hengyang Rd. Zhongzheng District, Taipei","placename":"H\u00e9ngy\u00e1ng Rd, Zhongzheng District, Taipei City, Taiwan 100","title":"Flex Plastic Bracket"}},{"type":"Feature","geometry":{"type":"Point","coordinates":[98.924534300002,18.1253143]},"properties":{"urltitle:moreinfo":"Fujikura Electronics","url:moreinfo":"www.fujikura-electronics.co.th","description":"(+665) 358-1002-8","address":"Moo 4 Northern Region Industrial Estate, Super Highway Road, Tambol Banklang, Amphur Muang Lamphun, Lamphun, Thailand.","placename":"Lamphun, Thailand","title":"Flex Plastic Bracket"}},{"type":"Feature","geometry":{"type":"Point","coordinates":[113.543873,22.198745000002]},"properties":{"urltitle:moreinfo":"beltontechnology","url:moreinfo":"http:\/\/www.beltontechnology.com\/en\/CI_milestones.html","description":"(864) 226-8799","address":"Offshore Ltd Rm I L 19 F Dynastyplaza Bldg 392 438 Avenida Sir Andres Ljungstedt Macau, China.","placename":"Macau","title":"Flex Plastic Bracket"}},{"type":"Feature","geometry":{"type":"Point","coordinates":[101.2523792,13.201746099996]},"properties":{"urltitle:moreinfo":"San \u2013 Ei","url:moreinfo":"http:\/\/www.sanei.co.th\/san-ei-network\/","description":"(66)-38-717114","address":"Moo 5 T.Donhuaroh, A.Muang Chonburi, Thailand","placename":"Chon Buri, Thailand","title":"PCCa"}},{"type":"Feature","geometry":{"type":"Point","coordinates":[100.52961148601,14.330434998047]},"properties":{"youtube:link":"","water":"0","energy":"0","co2e":"0","weight":"0","urltitle:moreinfo":"MEKTEC","url:moreinfo":"http:\/\/www.mektec.co.th\/mektec\/","description":"886-7-872-7777.","address":"Phra Nakhon Si Ayutthaya, Thailand","title":"PCCa"}},{"type":"Feature","geometry":{"type":"Point","coordinates":[113.9172945,22.583491899998]},"properties":{"urltitle:moreinfo":"compart group","url:moreinfo":"www.compart-grp.com\/","description":"(86-755) 3368 0688","address":"61 Liu Xian Road 2, Baoan District 71 Shenzhen, Guangdong Province, China.","placename":"Liuxian 3rd Rd & Liuxian 2nd Road 3rd Alley, Bao'an, Shenzhen, Guangdong, China","title":"PCCa"}},{"type":"Feature","geometry":{"type":"Point","coordinates":[101.608192,3.0882150000031]},"properties":{"urltitle:moreinfo":"Western\u00a0Digital","url:moreinfo":"http:\/\/wdc.com\/th\/","description":"60-378776777","address":"Lot 3 Jalan SS 8\/6 Sungei Way Free Industrial Zone, Petaling Jaya, Selangor Malaysia, Malaysia.","placename":"Jalan SS 8\/6, Sungai Way, 47300 Petaling Jaya, Selangor, Malaysia","title":"Head Stack Flex Circuit"}},{"type":"Feature","geometry":{"type":"Point","coordinates":[105.8525154,21.1231639]},"properties":{"urltitle:moreinfo":"Sumitomo","url:moreinfo":"http:\/\/www.sumitomocorp.co.jp\/english\/","description":"88 4 3881 1531","address":"C6 - Thang Long Industrial Park - Dong Anh - Hanoi, Vietnam","placename":"\u0110\u00f4ng Anh, Hanoi, Vietnam","title":"Head Stack Flex Circuit"}},{"type":"Feature","geometry":{"type":"Point","coordinates":[100.5971361,14.258557799996]},"properties":{"urltitle:moreinfo":"Sumitomo","url:moreinfo":"http:\/\/www.sumitomocorp.co.jp\/english\/","description":"35314420, 035729100","address":"Moo 1 Hi-Tech Industrial Estate, Banlen Sub Dist, Tumbol Banlen, Amphoe Bang Pa-In, Ayutthaya, Thailand.","placename":"Bang Pa-in, Phra Nakhon Si Ayutthaya, Thailand","title":"Head Stack Flex Circuit"}},{"type":"Feature","geometry":{"type":"Point","coordinates":[121.28222218311,25.044999996735]},"properties":{"youtube:link":"","water":"0","energy":"0","co2e":"0","weight":"0","urltitle:moreinfo":"Global Locations","url:moreinfo":"http:\/\/www.minaik.com.tw\/en\/about_04.htm","description":"66 3-5741544 #128","address":"\u6843\u5712\u5927\u5733\u7b2c\u4e00\u652f\u7dda, Luzhu Township, Taoyuan County, Taiwan 338","title":"Head Stack Flex Circuit"}},{"type":"Feature","geometry":{"type":"Point","coordinates":[100.6715365,14.362761400001]},"properties":{"urltitle:moreinfo":"Global Locations","url:moreinfo":"http:\/\/www.minaik.com.tw\/en\/about_04.htm","description":"06-3851268","address":"Moo 5, Rojana Industrial Park, Uthai, Uthai, Phra Nakhon Si Ayutthaya, Thailand.","placename":"Uthai, Phra Nakhon Si Ayutthaya 13210, Thailand","title":"Head Stack Flex Circuit"}},{"type":"Feature","geometry":{"type":"Point","coordinates":[102.107786,2.3503880000007]},"properties":{"urltitle:moreinfo":"Global Locations","url:moreinfo":"http:\/\/www.minaik.com.tw\/en\/about_04.htm","description":"06-3851268","address":"St 814, Kawasan Perindustrian Masjid Tanah, Masjid Tanah, Melaka, Malaysia.","placename":"Masjid Tanah, Melaka, Malaysia","title":"Head Stack Flex Circuit"}},{"type":"Feature","geometry":{"type":"Point","coordinates":[100.5971361,14.258557799996]},"properties":{"urltitle:moreinfo":"Driving Directions - IntriPlex Thailand","url:moreinfo":"http:\/\/www.intri-plex.com","description":"\u00a0035351707-10","address":"Moo 1 Banlen Sub Dist, Tumbol Banlen, Amphoe Bang Pa-In Ayutthaya, Thailand.","placename":"Bang Pa-in, Phra Nakhon Si Ayutthaya, Thailand","title":"Head Stack Flex Circuit"}},{"type":"Feature","geometry":{"type":"Point","coordinates":[100.52961148601,14.330434998047]},"properties":{"youtube:link":"","water":"0","energy":"0","co2e":"0","weight":"0","urltitle:moreinfo":"compart group","url:moreinfo":"www.compart-grp.com\/","description":"","address":"Phra Nakhon Si Ayutthaya, Thailand","title":"Head Stack Flex Circuit"}},{"type":"Feature","geometry":{"type":"Point","coordinates":[113.9172945,22.583491899998]},"properties":{"urltitle:moreinfo":"compart group","url:moreinfo":"www.compart-grp.com\/","description":"(86-755) 3368 0688","address":"61 Liu Xian Road 2, Baoan District 71 Shenzhen, Guangdong Province, China.","placename":"Liuxian 3rd Rd & Liuxian 2nd Road 3rd Alley, Bao'an, Shenzhen, Guangdong, China","title":"Head Stack Flex Circuit"}},{"type":"Feature","geometry":{"type":"Point","coordinates":[100.6647101,14.003391299996]},"properties":{"urltitle:moreinfo":"beltontechnology","url:moreinfo":"www.beltontechnology.com\/en\/CI_milestones.html","description":"084-4453444, 02-5297300 # 1213","address":"Moo20 , T.Khlong Nueng ,A. Klongluang, Pathum Thani, Thailand.","placename":"Pathum Thani, Thailand","title":"Head Stack Flex Circuit"}},{"type":"Feature","geometry":{"type":"Point","coordinates":[103.8905769,1.3287820000012]},"properties":{"urltitle:moreinfo":"beltontechnology","url:moreinfo":"http:\/\/www.beltontechnology.com\/en\/CI_milestones.html","description":"6747 2878","address":"152 Paya Lebar Road, Singapore.","placename":"152 Paya Lebar Rd, Singapore 409020","title":"Head Stack Flex Circuit"}},{"type":"Feature","geometry":{"type":"Point","coordinates":[100.5971361,14.258557799996]},"properties":{"urltitle:moreinfo":"Western\u00a0Digital","url:moreinfo":"http:\/\/wdc.com\/th\/","description":"035-277000","address":"140 MOO 2, KLONGJIG, Bang Pa-in, Phra Nakhon Si Ayutthaya, Thailand.","placename":"Bang Pa-in, Phra Nakhon Si Ayutthaya, Thailand","title":"Head Stack Assembly"}},{"type":"Feature","geometry":{"type":"Point","coordinates":[101.608192,3.0882150000031]},"properties":{"urltitle:moreinfo":"Western\u00a0Digital","url:moreinfo":"http:\/\/www.wdc.com\/en\/","description":"60-378776777","address":"Lot 3 Jalan SS 8\/6 Sungei Way Free Industrial Zone, Petaling Jaya, Selangor, Malaysia.","placename":"Jalan SS 8\/6, Sungai Way, 47300 Petaling Jaya, Selangor, Malaysia","title":"Head Stack Assembly"}},{"type":"Feature","geometry":{"type":"Point","coordinates":[100.7548851,13.633574100002]},"properties":{"urltitle:moreinfo":"Seagate\u00a0Profile","url:moreinfo":"http:\/\/www.seagate.com\/as\/en\/","description":"(02) 7152969","address":"1627 Moo 7, Teparuk Rd, Tambol Teparuk, Amphur Muang, Samutprakarn, Thailand.","placename":"Samut Prakan, Thailand","title":"Head Stack Assembly"}},{"type":"Feature","geometry":{"type":"Point","coordinates":[103.872842,1.3776840000041]},"properties":{"urltitle:moreinfo":"Seagate\u00a0Profile","url:moreinfo":"http:\/\/www.seagate.com\/as\/en\/","description":"6483 3888","address":"7000 Ang Mo Kio Avenue 5, Singapore.","placename":"7000 Ang Mo Kio Avenue 5, Singapore 569877","title":"Head Stack Assembly"}},{"type":"Feature","geometry":{"type":"Point","coordinates":[103.65347,1.5781849999981]},"properties":{"urltitle:moreinfo":"Seagate\u00a0Profile","url:moreinfo":"http:\/\/www.seagate.com\/as\/en\/","description":"60 04 157000","address":"PLO 55, Jalan Persiaran Teknologi Taman, Teknologi Johor Senai, Malaysia.","placename":"Jalan Teknologi 5, Taman Teknologi Johor, 81400 Senai, Johor, Malaysia","title":"Head Stack Assembly"}},{"type":"Feature","geometry":{"type":"Point","coordinates":[100.6715365,14.362761400001]},"properties":{"urltitle:moreinfo":"Global Locations","url:moreinfo":"http:\/\/www.minaik.com.tw\/en\/about_04.htm","description":"66 3-5741544 #128","address":"Moo 5, Rojana Industrial Park, Uthai, Uthai, Phra Nakhon Si Ayutthaya, Thailand.","placename":"Uthai, Phra Nakhon Si Ayutthaya 13210, Thailand","title":"Head Stack Assembly"}},{"type":"Feature","geometry":{"type":"Point","coordinates":[102.107786,2.3503880000007]},"properties":{"urltitle:moreinfo":"Global Locations","url:moreinfo":"http:\/\/www.minaik.com.tw\/en\/about_04.htm","description":"06-3851268","address":"St 814, Masjid Tanah, Melaka, Malaysia.","placename":"Masjid Tanah, Melaka, Malaysia","title":"Head Stack Assembly"}},{"type":"Feature","geometry":{"type":"Point","coordinates":[100.5971361,14.258557799996]},"properties":{"urltitle:moreinfo":"IntriPlex Thailand","url:moreinfo":"http:\/\/www.intri-plex.com","description":"\u00a0035351707-10","address":"160 Moo 1, Tumbol Banlen, Amphoe Bang Pa-In Ayutthaya, Thailand.","placename":"Bang Pa-in, Phra Nakhon Si Ayutthaya, Thailand","title":"Head Stack Assembly"}},{"type":"Feature","geometry":{"type":"Point","coordinates":[100.52961148601,14.330434998047]},"properties":{"youtube:link":"","water":"0","energy":"0","co2e":"0","weight":"0","urltitle:moreinfo":"compart group","url:moreinfo":"www.compart-grp.com\/","description":"(+66)-35-315-600","address":"Phra Nakhon Si Ayutthaya, Thailand","title":"Head Stack Assembly"}},{"type":"Feature","geometry":{"type":"Point","coordinates":[113.9172945,22.583491899998]},"properties":{"urltitle:moreinfo":"compart group","url:moreinfo":"www.compart-grp.com\/","description":"(86-755) 3368 0688","address":"61 Liu Xian Road 2, Baoan District 71 Shenzhen, Guangdong Province, China.","placename":"Liuxian 3rd Rd & Liuxian 2nd Road 3rd Alley, Bao'an, Shenzhen, Guangdong, China","title":"Head Stack Assembly"}},{"type":"Feature","geometry":{"type":"Point","coordinates":[120.311143,31.490636999998]},"properties":{"urltitle:moreinfo":"compart group","url:moreinfo":"www.compart-grp.com\/","description":"+86\u00a051085330533","address":"No.108, Xixie Road, High-Tech Industry Development Zone Wuxi, Jiangsu, China.","placename":"Wuxi, Jiangsu, China","title":"Head Stack Assembly"}},{"type":"Feature","geometry":{"type":"Point","coordinates":[100.6647101,14.003391299996]},"properties":{"urltitle:moreinfo":"beltontechnology","url:moreinfo":"www.beltontechnology.com\/en\/CI_milestones.html","description":"084-4453444, 02-5297300 # 1213","address":"Moo20, T.Khlong Nueng, A. Klongluang, Pathum Thani, Thailand","placename":"Pathum Thani, Thailand","title":"Head Stack Assembly"}},{"type":"Feature","geometry":{"type":"Point","coordinates":[103.8905769,1.3287820000012]},"properties":{"urltitle:moreinfo":"beltontechnology","url:moreinfo":"http:\/\/www.beltontechnology.com\/en\/CI_milestones.html","description":"6747 2878","address":"152 Paya Lebar Road, Singapore","placename":"152 Paya Lebar Rd, Singapore 409020","title":"Head Stack Assembly"}},{"type":"Feature","geometry":{"type":"Point","coordinates":[100.5296115,14.330435000001]},"properties":{"url:moreinfo":"","description":"","address":"Ayuthaya, Thailand","placename":"Phra Nakhon Si Ayutthaya, Thailand","title":"HDD"}},{"type":"Feature","geometry":{"type":"LineString","coordinates":[[103.8905769,1.3287820000012],[100.5296115,14.330435000001]]},"properties":{"title":"Head Stack Assembly to HDD","distance":"1492.164036"}},{"type":"Feature","geometry":{"type":"LineString","coordinates":[[100.6647101,14.003391299996],[100.5296115,14.330435000001]]},"properties":{"title":"Head Stack Assembly to HDD","distance":"39.174063"}},{"type":"Feature","geometry":{"type":"LineString","coordinates":[[120.311143,31.490636999998],[100.5296115,14.330435000001]]},"properties":{"distance":"2773.503880","title":"Head Stack Assembly to HDD"}},{"type":"Feature","geometry":{"type":"LineString","coordinates":[[113.9172945,22.583491899998],[100.5296115,14.330435000001]]},"properties":{"title":"Head Stack Assembly to HDD","distance":"1682.434923"}},{"type":"Feature","geometry":{"type":"LineString","coordinates":[[100.52961148601,14.330434998047],[100.5296115,14.330435000001]]},"properties":{"distance":"11141.555218","title":"Head Stack Assembly to HDD"}},{"type":"Feature","geometry":{"type":"LineString","coordinates":[[100.5971361,14.258557799996],[100.5296115,14.330435000001]]},"properties":{"title":"Head Stack Assembly to HDD","distance":"10.808204"}},{"type":"Feature","geometry":{"type":"LineString","coordinates":[[102.107786,2.3503880000007],[100.5296115,14.330435000001]]},"properties":{"distance":"1343.344654","title":"Head Stack Assembly to HDD"}},{"type":"Feature","geometry":{"type":"LineString","coordinates":[[100.6715365,14.362761400001],[100.5296115,14.330435000001]]},"properties":{"distance":"15.706050","title":"Head Stack Assembly to HDD"}},{"type":"Feature","geometry":{"type":"LineString","coordinates":[[103.65347,1.5781849999981],[100.5296115,14.330435000001]]},"properties":{"distance":"1458.941766","title":"Head Stack Assembly to HDD"}},{"type":"Feature","geometry":{"type":"LineString","coordinates":[[103.872842,1.3776840000041],[100.5296115,14.330435000001]]},"properties":{"distance":"1486.409347","title":"Head Stack Assembly to HDD"}},{"type":"Feature","geometry":{"type":"LineString","coordinates":[[100.7548851,13.633574100002],[100.5296115,14.330435000001]]},"properties":{"title":"Head Stack Assembly to HDD","distance":"81.210367"}},{"type":"Feature","geometry":{"type":"LineString","coordinates":[[101.608192,3.0882150000031],[100.5296115,14.330435000001]]},"properties":{"title":"Head Stack Assembly to HDD","distance":"1255.667277"}},{"type":"Feature","geometry":{"type":"LineString","coordinates":[[100.5971361,14.258557799996],[100.5296115,14.330435000001]]},"properties":{"distance":"10.808204","title":"Head Stack Assembly to HDD"}},{"type":"Feature","geometry":{"type":"LineString","coordinates":[[103.8905769,1.3287820000012],[100.5971361,14.258557799996]]},"properties":{"distance":"1482.602296","title":"Head Stack Flex Circuit to Head Stack Assembly"}},{"type":"Feature","geometry":{"type":"LineString","coordinates":[[100.6647101,14.003391299996],[100.5971361,14.258557799996]]},"properties":{"distance":"29.293905","title":"Head Stack Flex Circuit to Head Stack Assembly"}},{"type":"Feature","geometry":{"type":"LineString","coordinates":[[113.9172945,22.583491899998],[100.5971361,14.258557799996]]},"properties":{"distance":"1681.092984","title":"Head Stack Flex Circuit to Head Stack Assembly"}},{"type":"Feature","geometry":{"type":"LineString","coordinates":[[100.52961148601,14.330434998047],[100.5971361,14.258557799996]]},"properties":{"distance":"11149.191055","title":"Head Stack Flex Circuit to Head Stack Assembly"}},{"type":"Feature","geometry":{"type":"LineString","coordinates":[[100.5971361,14.258557799996],[100.5971361,14.258557799996]]},"properties":{"title":"Head Stack Flex Circuit to Head Stack Assembly","distance":"0"}},{"type":"Feature","geometry":{"type":"LineString","coordinates":[[102.107786,2.3503880000007],[100.5971361,14.258557799996]]},"properties":{"title":"Head Stack Flex Circuit to Head Stack Assembly","distance":"1334.479946"}},{"type":"Feature","geometry":{"type":"LineString","coordinates":[[100.6715365,14.362761400001],[100.5971361,14.258557799996]]},"properties":{"distance":"14.089589","title":"Head Stack Flex Circuit to Head Stack Assembly"}},{"type":"Feature","geometry":{"type":"LineString","coordinates":[[121.28222218311,25.044999996735],[100.5971361,14.258557799996]]},"properties":{"distance":"11149.191055","title":"Head Stack Flex Circuit to Head Stack Assembly"}},{"type":"Feature","geometry":{"type":"LineString","coordinates":[[100.5971361,14.258557799996],[100.5971361,14.258557799996]]},"properties":{"title":"Head Stack Flex Circuit to Head Stack Assembly","distance":"0"}},{"type":"Feature","geometry":{"type":"LineString","coordinates":[[105.8525154,21.1231639],[100.5971361,14.258557799996]]},"properties":{"title":"Head Stack Flex Circuit to Head Stack Assembly","distance":"944.506470"}},{"type":"Feature","geometry":{"type":"LineString","coordinates":[[101.608192,3.0882150000031],[100.5971361,14.258557799996]]},"properties":{"title":"Head Stack Flex Circuit to Head Stack Assembly","distance":"1247.030936"}},{"type":"Feature","geometry":{"type":"LineString","coordinates":[[113.9172945,22.583491899998],[101.608192,3.0882150000031]]},"properties":{"title":"PCCa to Head Stack Flex Circuit","distance":"2541.630204"}},{"type":"Feature","geometry":{"type":"LineString","coordinates":[[100.52961148601,14.330434998047],[101.608192,3.0882150000031]]},"properties":{"distance":"11296.414945","title":"PCCa to Head Stack Flex Circuit"}},{"type":"Feature","geometry":{"type":"LineString","coordinates":[[101.2523792,13.201746099996],[101.608192,3.0882150000031]]},"properties":{"title":"PCCa to Head Stack Flex Circuit","distance":"1125.253270"}},{"type":"Feature","geometry":{"type":"LineString","coordinates":[[113.543873,22.198745000002],[101.608192,3.0882150000031]]},"properties":{"distance":"2484.830409","title":"Flex Plastic Bracket to Head Stack Flex Circuit"}},{"type":"Feature","geometry":{"type":"LineString","coordinates":[[98.924534300002,18.1253143],[101.608192,3.0882150000031]]},"properties":{"title":"Flex Plastic Bracket to Head Stack Flex Circuit","distance":"1697.419269"}},{"type":"Feature","geometry":{"type":"LineString","coordinates":[[121.5114973,25.042233299999],[101.608192,3.0882150000031]]},"properties":{"distance":"3240.039811","title":"Flex Plastic Bracket to Head Stack Flex Circuit"}},{"type":"Feature","geometry":{"type":"LineString","coordinates":[[113.544202,22.201874],[101.608192,3.0882150000031]]},"properties":{"title":"T-ring to Head Stack Flex Circuit","distance":"2485.140943"}},{"type":"Feature","geometry":{"type":"LineString","coordinates":[[103.8489154,1.3903731999997],[101.608192,3.0882150000031]]},"properties":{"title":"T-ring to Head Stack Flex Circuit","distance":"312.445343"}},{"type":"Feature","geometry":{"type":"LineString","coordinates":[[100.7061111,13.605833300003],[101.608192,3.0882150000031]]},"properties":{"title":"T-ring to Head Stack Flex Circuit","distance":"1173.696622"}},{"type":"Feature","geometry":{"type":"LineString","coordinates":[[103.799804,1.4553500000036],[101.608192,3.0882150000031]]},"properties":{"distance":"303.737994","title":"T-ring to Head Stack Flex Circuit"}},{"type":"Feature","geometry":{"type":"LineString","coordinates":[[101.758028,3.0205269999968],[101.608192,3.0882150000031]]},"properties":{"distance":"18.260614","title":"Pivot to Head Stack Flex Circuit"}},{"type":"Feature","geometry":{"type":"LineString","coordinates":[[103.9741079,1.3754077999973],[101.608192,3.0882150000031]]},"properties":{"title":"Pivot to Head Stack Flex Circuit","distance":"324.612223"}},{"type":"Feature","geometry":{"type":"LineString","coordinates":[[138.506529,36.318111299997],[101.608192,3.0882150000031]]},"properties":{"title":"Pivot to Head Stack Flex Circuit","distance":"5284.053852"}},{"type":"Feature","geometry":{"type":"LineString","coordinates":[[100.5971361,14.258557799996],[101.608192,3.0882150000031]]},"properties":{"distance":"1247.030936","title":"Pivot to Head Stack Flex Circuit"}},{"type":"Feature","geometry":{"type":"LineString","coordinates":[[101.2523792,13.201746099996],[101.608192,3.0882150000031]]},