{"type":"FeatureCollection","features":[{"type":"Feature","geometry":{"type":"Point","coordinates":[139.4962477,36.317952399999]},"properties":{"address":"\u6803\u6728\u770c\u8db3\u5229\u5e02\u516b\u691a\u753a\uff11\uff10\uff15\u2010\uff14","placename":"105-4 Yatsukunugicho, Ashikaga, Tochigi Prefecture, Japan","title":"\uff2c\uff30\u3000\u9577\u306d\u304e\u3000\uff2c\uff11\u672c\uff20\u25cb\u25cb\u5e97\u8217"}},{"type":"Feature","geometry":{"type":"Point","coordinates":[139.6650276,35.577387600003]},"properties":{"address":"\u795e\u5948\u5ddd\u770c\u5ddd\u5d0e\u5e02\u4e2d\u539f\u533a\u4e0a\u4e38\u5b50\u5c71\u738b\u753a\uff11\u2010\uff11\uff13\uff19\uff10","placename":"1-1390 Kamimarukosannocho, Nakahara Ward, Kawasaki, Kanagawa Prefecture, Japan","title":"\u25cb\u25cb\u30d5\u30a1\u30fc\u30e0\u3000\u7389\u8471\uff20\u25cb\u25cb\u5e97\u8217"}},{"type":"Feature","geometry":{"type":"Point","coordinates":[139.6650276,35.577387600003]},"properties":{"address":"\u795e\u5948\u5ddd\u770c\u5ddd\u5d0e\u5e02\u4e2d\u539f\u533a\u4e0a\u4e38\u5b50\u5c71\u738b\u753a\uff11\u2010\uff11\uff13\uff19\uff10","placename":"1-1390 Kamimarukosannocho, Nakahara Ward, Kawasaki, Kanagawa Prefecture, Japan","title":"\u25cb\u25cb\u30d5\u30a1\u30fc\u30e0\u5c0f\u677e\u83dc\u3000\uff11\u888b\uff20\u25cb\u25cb\u5e97\u8217"}},{"type":"Feature","geometry":{"type":"Point","coordinates":[139.6699226,35.675480200002]},"properties":{"address":"\u6771\u4eac\u90fd\u6e0b\u8c37\u533a\u7b39\u585a\uff12\u2010\uff14\u2010\uff13","placename":"2-4-3 Sasazuka, Shibuya, Tokyo, Japan","title":"\u713c\u304d\u5e72\u3057\u828b\uff20\u25cb\u25cb\u5e97\u8217"}},{"type":"Feature","geometry":{"type":"Point","coordinates":[139.6699226,35.675480200002]},"properties":{"address":"\u6771\u4eac\u90fd\u6e0b\u8c37\u533a\u7b39\u585a\uff12\u2010\uff14\u2010\uff13","placename":"2-4-3 Sasazuka, Shibuya, Tokyo, Japan","title":"\u9752\u30cd\u30ae\u30b9\u30e9\u30a4\u30b9\u3000\uff13\uff10\uff47\uff20\u25cb\u25cb\u5e97\u8217"}},{"type":"Feature","geometry":{"type":"Point","coordinates":[139.5959152,35.580192900002]},"properties":{"address":"\u795e\u5948\u5ddd\u770c\u5ddd\u5d0e\u5e02\u5bae\u524d\u533a\u99ac\u7d79\uff11\uff13\uff16\uff12\u2010\uff15","placename":"1362-5 Maginu, Miyamae Ward, Kawasaki, Kanagawa Prefecture, Japan","title":"\u25cb\u25cb\u30d5\u30a1\u30fc\u30e0\u306b\u3093\u3058\u3093\u3000\u3000\u3000\uff11\uff14\uff18\u5186\uff20\u25cb\u25cb\u5e97\u8217"}},{"type":"Feature","geometry":{"type":"Point","coordinates":[139.5959152,35.580192900002]},"properties":{"address":"\u795e\u5948\u5ddd\u770c\u5ddd\u5d0e\u5e02\u5bae\u524d\u533a\u99ac\u7d79\uff11\uff13\uff16\uff12\u2010\uff15","placename":"1362-5 Maginu, Miyamae Ward, Kawasaki, Kanagawa Prefecture, Japan","title":"\u9752\u30cd\u30ae\u30b9\u30e9\u30a4\u30b9\u3000\uff13\uff10\uff47\uff20\u25cb\u25cb\u5e97\u8217"}},{"type":"Feature","geometry":{"type":"Point","coordinates":[139.9752591,35.846129800001]},"properties":{"address":"\u5343\u8449\u770c\u67cf\u5e02\u540d\u6238\u30b1\u8c37\uff11\u2010\uff17\u2010\uff13\uff15","placename":"1-7 Nadogaya, Kashiwa, Chiba Prefecture, Japan","title":"\u30c8\u30de\u30c8\u3000\uff11\u500b\uff20\u25cb\u25cb\u5e97\u8217"}},{"type":"Feature","geometry":{"type":"Point","coordinates":[139.9752591,35.846129800001]},"properties":{"address":"\u5343\u8449\u770c\u67cf\u5e02\u540d\u6238\u30b1\u8c37\uff11\u2010\uff17\u2010\uff13\uff15","placename":"1-7 Nadogaya, Kashiwa, Chiba Prefecture, Japan","title":"\u25cb\u25cb\u30d5\u30a1\u30fc\u30e0\u3000\u7389\u8471\uff20\u25cb\u25cb\u5e97\u8217"}},{"type":"Feature","geometry":{"type":"Point","coordinates":[139.9752591,35.846129800001]},"properties":{"address":"\u5343\u8449\u770c\u67cf\u5e02\u540d\u6238\u30b1\u8c37\uff11\u2010\uff17\u2010\uff13\uff15","placename":"1-7 Nadogaya, Kashiwa, Chiba Prefecture, Japan","title":"\u9032\u5316\u578b\u30bb\u30ed\u30ea\u3000\u3000\u3000\u3000\u3000\u3000\u3000\u3000\u3000\uff11\uff10\uff15\u5186\uff20\u25cb\u25cb\u5e97\u8217"}},{"type":"Feature","geometry":{"type":"Point","coordinates":[139.9752591,35.846129800001]},"properties":{"address":"\u5343\u8449\u770c\u67cf\u5e02\u540d\u6238\u30b1\u8c37\uff11\u2010\uff17\u2010\uff13\uff15","placename":"1-7 Nadogaya, Kashiwa, Chiba Prefecture, Japan","title":"\u9032\u5316\u578b\u3000\u306b\u3093\u306b\u304f\uff20\u25cb\u25cb\u5e97\u8217"}},{"type":"Feature","geometry":{"type":"Point","coordinates":[139.6587651,35.835829099999]},"properties":{"address":"\u57fc\u7389\u770c\u3055\u3044\u305f\u307e\u5e02\u5357\u533a\u8fbb\uff15\u2010\uff11\uff18\uff17\uff18","placename":"5 Tsuji, Minami Ward, Saitama, Saitama Prefecture, Japan","title":"\u25cb\u25cb\u30d5\u30a1\u30fc\u30e0\u306b\u3093\u3058\u3093\u3000\u3000\u3000\uff11\uff14\uff18\u5186\uff20\u25cb\u25cb\u5e97\u8217"}},{"type":"Feature","geometry":{"type":"Point","coordinates":[139.6587651,35.835829099999]},"properties":{"address":"\u57fc\u7389\u770c\u3055\u3044\u305f\u307e\u5e02\u5357\u533a\u8fbb\uff15\u2010\uff11\uff18\uff17\uff18","placename":"5 Tsuji, Minami Ward, Saitama, Saitama Prefecture, Japan","title":"\u8304\u5b50\u3000\uff12\u500b\uff20\u25cb\u25cb\u5e97\u8217"}},{"type":"Feature","geometry":{"type":"Point","coordinates":[139.6587651,35.835829099999]},"properties":{"address":"\u57fc\u7389\u770c\u3055\u3044\u305f\u307e\u5e02\u5357\u533a\u8fbb\uff15\u2010\uff11\uff18\uff17\uff18","placename":"5 Tsuji, Minami Ward, Saitama, Saitama Prefecture, Japan","title":"\u30c8\u30de\u30c8\u3000\uff11\u500b\uff20\u25cb\u25cb\u5e97\u8217"}},{"type":"Feature","geometry":{"type":"Point","coordinates":[139.6587651,35.835829099999]},"properties":{"address":"\u57fc\u7389\u770c\u3055\u3044\u305f\u307e\u5e02\u5357\u533a\u8fbb\uff15\u2010\uff11\uff18\uff17\uff18","placename":"5 Tsuji, Minami Ward, Saitama, Saitama Prefecture, Japan","title":"\u25cb\u25cb\u30d5\u30a1\u30fc\u30e0\u5317\u6d77\u3053\u304c\u306d\u3000\u3000\uff11\u888b\uff20\u25cb\u25cb\u5e97\u8217"}},{"type":"Feature","geometry":{"type":"Point","coordinates":[139.6587651,35.835829099999]},"properties":{"address":"\u57fc\u7389\u770c\u3055\u3044\u305f\u307e\u5e02\u5357\u533a\u8fbb\uff15\u2010\uff11\uff18\uff17\uff18","placename":"5 Tsuji, Minami Ward, Saitama, Saitama Prefecture, Japan","title":"\u9032\u5316\u578b\u3000\u5357\u74dc\uff11\uff0f\uff14\u30ab\u30c3\u30c8\uff20\u25cb\u25cb\u5e97\u8217"}},{"type":"Feature","geometry":{"type":"Point","coordinates":[139.5168697,35.409608100003]},"properties":{"address":"\u795e\u5948\u5ddd\u770c\u6a2a\u6d5c\u5e02\u6cc9\u533a\u4e2d\u7530\u6771\uff11\u2010\uff11\uff14\uff10\uff16\u2010\uff12","placename":"1 Nakatahigashi, Izumi Ward, Yokohama, Kanagawa Prefecture, Japan","title":"\u30c8\u30de\u30c8\u3000\uff11\u500b\uff20\u25cb\u25cb\u5e97\u8217"}},{"type":"Feature","geometry":{"type":"Point","coordinates":[139.5168697,35.409608100003]},"properties":{"address":"\u795e\u5948\u5ddd\u770c\u6a2a\u6d5c\u5e02\u6cc9\u533a\u4e2d\u7530\u6771\uff11\u2010\uff11\uff14\uff10\uff16\u2010\uff12","placename":"1 Nakatahigashi, Izumi Ward, Yokohama, Kanagawa Prefecture, Japan","title":"\u25cb\u25cb\u30d5\u30a1\u30fc\u30e0\u3000\u7389\u8471\uff20\u25cb\u25cb\u5e97\u8217"}},{"type":"Feature","geometry":{"type":"Point","coordinates":[139.5168697,35.409608100003]},"properties":{"address":"\u795e\u5948\u5ddd\u770c\u6a2a\u6d5c\u5e02\u6cc9\u533a\u4e2d\u7530\u6771\uff11\u2010\uff11\uff14\uff10\uff16\u2010\uff12","placename":"1 Nakatahigashi, Izumi Ward, Yokohama, Kanagawa Prefecture, Japan","title":"\u25cb\u25cb\u30d5\u30a1\u30fc\u30e0\u307b\u3046\u308c\u3093\u8349\u3000\u3000\uff11\u888b\uff20\u25cb\u25cb\u5e97\u8217"}},{"type":"Feature","geometry":{"type":"Point","coordinates":[139.5168697,35.409608100003]},"properties":{"address":"\u795e\u5948\u5ddd\u770c\u6a2a\u6d5c\u5e02\u6cc9\u533a\u4e2d\u7530\u6771\uff11\u2010\uff11\uff14\uff10\uff16\u2010\uff12","placename":"1 Nakatahigashi, Izumi Ward, Yokohama, Kanagawa Prefecture, Japan","title":"\u9032\u5316\u578b\u3000\u8c46\u82d7\uff20\u25cb\u25cb\u5e97\u8217"}},{"type":"Feature","geometry":{"type":"Point","coordinates":[139.6688734,35.589219000002]},"properties":{"address":"\u6771\u4eac\u90fd\u5927\u7530\u533a\u7530\u5712\u8abf\u5e03\uff11\u2010\uff15\uff13\u2010\uff18","placename":"1-53-8 Denenchofu, Ota, Tokyo, Japan","title":"\u25cb\u25cb\u30d5\u30a1\u30fc\u30e0\u306b\u3093\u3058\u3093\u3000\u3000\u3000\uff11\uff14\uff18\u5186\uff20\u25cb\u25cb\u5e97\u8217"}},{"type":"Feature","geometry":{"type":"Point","coordinates":[139.6688734,35.589219000002]},"properties":{"address":"\u6771\u4eac\u90fd\u5927\u7530\u533a\u7530\u5712\u8abf\u5e03\uff11\u2010\uff15\uff13\u2010\uff18","placename":"1-53-8 Denenchofu, Ota, Tokyo, Japan","title":"\u30df\u30cb\u30c8\u30de\u30c8\u3000\uff11\uff10\uff10\uff47\uff20\u25cb\u25cb\u5e97\u8217"}},{"type":"Feature","geometry":{"type":"Point","coordinates":[139.6688734,35.589219000002]},"properties":{"address":"\u6771\u4eac\u90fd\u5927\u7530\u533a\u7530\u5712\u8abf\u5e03\uff11\u2010\uff15\uff13\u2010\uff18","placename":"1-53-8 Denenchofu, Ota, Tokyo, Japan","title":"\u30c8\u30de\u30c8\u3000\uff11\u500b\uff20\u25cb\u25cb\u5e97\u8217"}},{"type":"Feature","geometry":{"type":"Point","coordinates":[139.6688734,35.589219000002]},"properties":{"address":"\u6771\u4eac\u90fd\u5927\u7530\u533a\u7530\u5712\u8abf\u5e03\uff11\u2010\uff15\uff13\u2010\uff18","placename":"1-53-8 Denenchofu, Ota, Tokyo, Japan","title":"\u25cb\u25cb\u30d5\u30a1\u30fc\u30e0\u3000\u7537\u7235\u828b\uff20\u25cb\u25cb\u5e97\u8217"}},{"type":"Feature","geometry":{"type":"Point","coordinates":[139.6688734,35.589219000002]},"properties":{"address":"\u6771\u4eac\u90fd\u5927\u7530\u533a\u7530\u5712\u8abf\u5e03\uff11\u2010\uff15\uff13\u2010\uff18","placename":"1-53-8 Denenchofu, Ota, Tokyo, Japan","title":"\u25cb\u25cb\u30d5\u30a1\u30fc\u30e0\u5c0f\u677e\u83dc\u3000\uff11\u888b\uff20\u25cb\u25cb\u5e97\u8217"}},{"type":"Feature","geometry":{"type":"Point","coordinates":[139.6688734,35.589219000002]},"properties":{"address":"\u6771\u4eac\u90fd\u5927\u7530\u533a\u7530\u5712\u8abf\u5e03\uff11\u2010\uff15\uff13\u2010\uff18","placename":"1-53-8 Denenchofu, Ota, Tokyo, Japan","title":"\u9032\u5316\u578b\u3000\u30b4\u30dc\u30a6\uff20\u25cb\u25cb\u5e97\u8217"}},{"type":"Feature","geometry":{"type":"Point","coordinates":[139.6688734,35.589219000002]},"properties":{"address":"\u6771\u4eac\u90fd\u5927\u7530\u533a\u7530\u5712\u8abf\u5e03\uff11\u2010\uff15\uff13\u2010\uff18","placename":"1-53-8 Denenchofu, Ota, Tokyo, Japan","title":"\u9032\u5316\u578b\u3000\u3076\u306a\u3057\u3081\u3058\uff20\u25cb\u25cb\u5e97\u8217"}},{"type":"Feature","geometry":{"type":"Point","coordinates":[139.6688734,35.589219000002]},"properties":{"address":"\u6771\u4eac\u90fd\u5927\u7530\u533a\u7530\u5712\u8abf\u5e03\uff11\u2010\uff15\uff13\u2010\uff18","placename":"1-53-8 Denenchofu, Ota, Tokyo, Japan","title":"\u9032\u5316\u578b\u3000\u30a8\u30ce\u30ad\uff20\u25cb\u25cb\u5e97\u8217"}},{"type":"Feature","geometry":{"type":"Point","coordinates":[139.6688734,35.589219000002]},"properties":{"address":"\u6771\u4eac\u90fd\u5927\u7530\u533a\u7530\u5712\u8abf\u5e03\uff11\u2010\uff15\uff13\u2010\uff18","placename":"1-53-8 Denenchofu, Ota, Tokyo, Japan","title":"\u9032\u5316\u578b\u3000\u9577\u306d\u304e\uff20\u25cb\u25cb\u5e97\u8217"}},{"type":"Feature","geometry":{"type":"Point","coordinates":[139.6688734,35.589219000002]},"properties":{"address":"\u6771\u4eac\u90fd\u5927\u7530\u533a\u7530\u5712\u8abf\u5e03\uff11\u2010\uff15\uff13\u2010\uff18","placename":"1-53-8 Denenchofu, Ota, Tokyo, Japan","title":"\u9032\u5316\u578b\u3000\u751f\u690e\u8338\uff20\u25cb\u25cb\u5e97\u8217"}},{"type":"Feature","geometry":{"type":"Point","coordinates":[139.4587345,36.1323746]},"properties":{"address":"\u57fc\u7389\u770c\u884c\u7530\u5e02\u4f50\u9593\uff11\u2010\uff12\uff14\uff15\uff14\u2010\uff11","placename":"1-2454-1 Sama, Gyoda, Saitama Prefecture, Japan","title":"\u8304\u5b50\u3000\uff12\u500b\uff20\u25cb\u25cb\u5e97\u8217"}},{"type":"Feature","geometry":{"type":"Point","coordinates":[139.4587345,36.1323746]},"properties":{"address":"\u57fc\u7389\u770c\u884c\u7530\u5e02\u4f50\u9593\uff11\u2010\uff12\uff14\uff15\uff14\u2010\uff11","placename":"1-2454-1 Sama, Gyoda, Saitama Prefecture, Japan","title":"\u9032\u5316\u578b\u3000\u307e\u3044\u305f\u3051\uff20\u25cb\u25cb\u5e97\u8217"}},{"type":"Feature","geometry":{"type":"Point","coordinates":[139.4587345,36.1323746]},"properties":{"address":"\u57fc\u7389\u770c\u884c\u7530\u5e02\u4f50\u9593\uff11\u2010\uff12\uff14\uff15\uff14\u2010\uff11","placename":"1-2454-1 Sama, Gyoda, Saitama Prefecture, Japan","title":"\u9032\u5316\u578b\u3000\u30a8\u30ce\u30ad\uff20\u25cb\u25cb\u5e97\u8217"}},{"type":"Feature","geometry":{"type":"Point","coordinates":[139.2806669,36.187305700003]},"properties":{"address":"\u57fc\u7389\u770c\u6df1\u8c37\u5e02\u4e0a\u91ce\u53f0\uff12\uff15\uff18\u2010\uff11","placename":"Uwanodai, Fukaya, Saitama Prefecture, Japan","title":"\u8304\u5b50\u3000\uff12\u500b\uff20\u25cb\u25cb\u5e97\u8217"}},{"type":"Feature","geometry":{"type":"Point","coordinates":[139.5789984,35.400332499998]},"properties":{"address":"\u795e\u5948\u5ddd\u770c\u6a2a\u6d5c\u5e02\u6e2f\u5357\u533a\u65e5\u91ce\uff12\u2010\uff14\uff16\u2010\uff13","placename":"2-46-3 Hino, Konan Ward, Yokohama, Kanagawa Prefecture, Japan","title":"\u25cb\u25cb\u30d5\u30a1\u30fc\u30e0\u306b\u3093\u3058\u3093\u3000\u3000\u3000\uff11\uff14\uff18\u5186\uff20\u25cb\u25cb\u5e97\u8217"}},{"type":"Feature","geometry":{"type":"Point","coordinates":[139.5789984,35.400332499998]},"properties":{"address":"\u795e\u5948\u5ddd\u770c\u6a2a\u6d5c\u5e02\u6e2f\u5357\u533a\u65e5\u91ce\uff12\u2010\uff14\uff16\u2010\uff13","placename":"2-46-3 Hino, Konan Ward, Yokohama, Kanagawa Prefecture, Japan","title":"\u8304\u5b50\u3000\uff12\u500b\uff20\u25cb\u25cb\u5e97\u8217"}},{"type":"Feature","geometry":{"type":"Point","coordinates":[139.5789984,35.400332499998]},"properties":{"address":"\u795e\u5948\u5ddd\u770c\u6a2a\u6d5c\u5e02\u6e2f\u5357\u533a\u65e5\u91ce\uff12\u2010\uff14\uff16\u2010\uff13","placename":"2-46-3 Hino, Konan Ward, Yokohama, Kanagawa Prefecture, Japan","title":"\u25cb\u25cb\u30d5\u30a1\u30fc\u30e0\u3000\u7537\u7235\u828b\uff20\u25cb\u25cb\u5e97\u8217"}},{"type":"Feature","geometry":{"type":"Point","coordinates":[139.574294,35.536149099999]},"properties":{"address":"\u795e\u5948\u5ddd\u770c\u6a2a\u6d5c\u5e02\u90fd\u7b51\u533a\u5e73\u53f0\uff11\u2010\uff12\uff10","placename":"1-20 Hiradai, Tsuzuki Ward, Yokohama, Kanagawa Prefecture, Japan","title":"\u25cb\u25cb\u30d5\u30a1\u30fc\u30e0\u306b\u3093\u3058\u3093\u3000\u3000\u3000\uff11\uff14\uff18\u5186\uff20\u25cb\u25cb\u5e97\u8217"}},{"type":"Feature","geometry":{"type":"Point","coordinates":[139.574294,35.536149099999]},"properties":{"address":"\u795e\u5948\u5ddd\u770c\u6a2a\u6d5c\u5e02\u90fd\u7b51\u533a\u5e73\u53f0\uff11\u2010\uff12\uff10","placename":"1-20 Hiradai, Tsuzuki Ward, Yokohama, Kanagawa Prefecture, Japan","title":"\u30df\u30cb\u30c8\u30de\u30c8\u3000\uff11\uff10\uff10\uff47\uff20\u25cb\u25cb\u5e97\u8217"}},{"type":"Feature","geometry":{"type":"Point","coordinates":[139.574294,35.536149099999]},"properties":{"address":"\u795e\u5948\u5ddd\u770c\u6a2a\u6d5c\u5e02\u90fd\u7b51\u533a\u5e73\u53f0\uff11\u2010\uff12\uff10","placename":"1-20 Hiradai, Tsuzuki Ward, Yokohama, Kanagawa Prefecture, Japan","title":"\u30c8\u30de\u30c8\u3000\uff11\u500b\uff20\u25cb\u25cb\u5e97\u8217"}},{"type":"Feature","geometry":{"type":"Point","coordinates":[139.574294,35.536149099999]},"properties":{"address":"\u795e\u5948\u5ddd\u770c\u6a2a\u6d5c\u5e02\u90fd\u7b51\u533a\u5e73\u53f0\uff11\u2010\uff12\uff10","placename":"1-20 Hiradai, Tsuzuki Ward, Yokohama, Kanagawa Prefecture, Japan","title":"\u9032\u5316\u578b\u3000\u751f\u59dc\uff20\u25cb\u25cb\u5e97\u8217"}},{"type":"Feature","geometry":{"type":"Point","coordinates":[139.574294,35.536149099999]},"properties":{"address":"\u795e\u5948\u5ddd\u770c\u6a2a\u6d5c\u5e02\u90fd\u7b51\u533a\u5e73\u53f0\uff11\u2010\uff12\uff10","placename":"1-20 Hiradai, Tsuzuki Ward, Yokohama, Kanagawa Prefecture, Japan","title":"\u9032\u5316\u578b\u3000\u9577\u306d\u304e\uff20\u25cb\u25cb\u5e97\u8217"}},{"type":"Feature","geometry":{"type":"Point","coordinates":[139.7912021,35.658435499997]},"properties":{"address":"\u6771\u4eac\u90fd\u6c5f\u6771\u533a\u8c4a\u6d32\uff12\u2010\uff15\u2010\uff11","placename":"2-5-1 Toyosu, Koto, Tokyo, Japan","title":"\u25cb\u25cb\u30d5\u30a1\u30fc\u30e0\u306b\u3093\u3058\u3093\u3000\u3000\u3000\uff11\uff14\uff18\u5186\uff20\u25cb\u25cb\u5e97\u8217"}},{"type":"Feature","geometry":{"type":"Point","coordinates":[139.7912021,35.658435499997]},"properties":{"address":"\u6771\u4eac\u90fd\u6c5f\u6771\u533a\u8c4a\u6d32\uff12\u2010\uff15\u2010\uff11","placename":"2-5-1 Toyosu, Koto, Tokyo, Japan","title":"\u6c34\u83dc\u3000\uff11\uff10\uff10\uff47\uff20\u25cb\u25cb\u5e97\u8217"}},{"type":"Feature","geometry":{"type":"Point","coordinates":[139.7912021,35.658435499997]},"properties":{"address":"\u6771\u4eac\u90fd\u6c5f\u6771\u533a\u8c4a\u6d32\uff12\u2010\uff15\u2010\uff11","placename":"2-5-1 Toyosu, Koto, Tokyo, Japan","title":"\u30df\u30cb\u30c8\u30de\u30c8\u3000\uff11\uff10\uff10\uff47\uff20\u25cb\u25cb\u5e97\u8217"}},{"type":"Feature","geometry":{"type":"Point","coordinates":[139.7912021,35.658435499997]},"properties":{"address":"\u6771\u4eac\u90fd\u6c5f\u6771\u533a\u8c4a\u6d32\uff12\u2010\uff15\u2010\uff11","placename":"2-5-1 Toyosu, Koto, Tokyo, Japan","title":"\u30c8\u30de\u30c8\u3000\uff11\u500b\uff20\u25cb\u25cb\u5e97\u8217"}},{"type":"Feature","geometry":{"type":"Point","coordinates":[139.7912021,35.658435499997]},"properties":{"address":"\u6771\u4eac\u90fd\u6c5f\u6771\u533a\u8c4a\u6d32\uff12\u2010\uff15\u2010\uff11","placename":"2-5-1 Toyosu, Koto, Tokyo, Japan","title":"\u25cb\u25cb\u30d5\u30a1\u30fc\u30e0\u3000\u5927\u6839\uff11\uff0f\uff12\uff20\u25cb\u25cb\u5e97\u8217"}},{"type":"Feature","geometry":{"type":"Point","coordinates":[139.7912021,35.658435499997]},"properties":{"address":"\u6771\u4eac\u90fd\u6c5f\u6771\u533a\u8c4a\u6d32\uff12\u2010\uff15\u2010\uff11","placename":"2-5-1 Toyosu, Koto, Tokyo, Japan","title":"\u9752\u30cd\u30ae\u30b9\u30e9\u30a4\u30b9\u3000\uff13\uff10\uff47\uff20\u25cb\u25cb\u5e97\u8217"}},{"type":"Feature","geometry":{"type":"Point","coordinates":[139.7912021,35.658435499997]},"properties":{"address":"\u6771\u4eac\u90fd\u6c5f\u6771\u533a\u8c4a\u6d32\uff12\u2010\uff15\u2010\uff11","placename":"2-5-1 Toyosu, Koto, Tokyo, Japan","title":"\u9032\u5316\u578b\u3000\u30b4\u30dc\u30a6\uff20\u25cb\u25cb\u5e97\u8217"}},{"type":"Feature","geometry":{"type":"Point","coordinates":[139.7912021,35.658435499997]},"properties":{"address":"\u6771\u4eac\u90fd\u6c5f\u6771\u533a\u8c4a\u6d32\uff12\u2010\uff15\u2010\uff11","placename":"2-5-1 Toyosu, Koto, Tokyo, Japan","title":"\u9032\u5316\u578b\u3000\u3076\u306a\u3057\u3081\u3058\uff20\u25cb\u25cb\u5e97\u8217"}},{"type":"Feature","geometry":{"type":"Point","coordinates":[139.7912021,35.658435499997]},"properties":{"address":"\u6771\u4eac\u90fd\u6c5f\u6771\u533a\u8c4a\u6d32\uff12\u2010\uff15\u2010\uff11","placename":"2-5-1 Toyosu, Koto, Tokyo, Japan","title":"\u9032\u5316\u578b\u3000\u751f\u59dc\uff20\u25cb\u25cb\u5e97\u8217"}},{"type":"Feature","geometry":{"type":"Point","coordinates":[139.7912021,35.658435499997]},"properties":{"address":"\u6771\u4eac\u90fd\u6c5f\u6771\u533a\u8c4a\u6d32\uff12\u2010\uff15\u2010\uff11","placename":"2-5-1 Toyosu, Koto, Tokyo, Japan","title":"\u9032\u5316\u578b\u3000\u307e\u3044\u305f\u3051\uff20\u25cb\u25cb\u5e97\u8217"}},{"type":"Feature","geometry":{"type":"Point","coordinates":[139.1588147,35.257131600001]},"properties":{"address":"\u795e\u5948\u5ddd\u770c\u5c0f\u7530\u539f\u5e02\u6804\u753a\uff12\u2010\uff15\u2010\uff12\uff13","placename":"2-5-23 Sakaecho, Odawara, Kanagawa Prefecture, Japan","title":"\u25cb\u25cb\u30d5\u30a1\u30fc\u30e0\u3000\u5927\u6839\uff11\uff0f\uff12\uff20\u25cb\u25cb\u5e97\u8217"}},{"type":"Feature","geometry":{"type":"Point","coordinates":[139.1588147,35.257131600001]},"properties":{"address":"\u795e\u5948\u5ddd\u770c\u5c0f\u7530\u539f\u5e02\u6804\u753a\uff12\u2010\uff15\u2010\uff12\uff13","placename":"2-5-23 Sakaecho, Odawara, Kanagawa Prefecture, Japan","title":"\u9752\u30cd\u30ae\u30b9\u30e9\u30a4\u30b9\u3000\uff13\uff10\uff47\uff20\u25cb\u25cb\u5e97\u8217"}},{"type":"Feature","geometry":{"type":"Point","coordinates":[139.1588147,35.257131600001]},"properties":{"address":"\u795e\u5948\u5ddd\u770c\u5c0f\u7530\u539f\u5e02\u6804\u753a\uff12\u2010\uff15\u2010\uff12\uff13","placename":"2-5-23 Sakaecho, Odawara, Kanagawa Prefecture, Japan","title":"\u9032\u5316\u578b\u3000\u30a8\u30ce\u30ad\uff20\u25cb\u25cb\u5e97\u8217"}},{"type":"Feature","geometry":{"type":"Point","coordinates":[139.5358211,35.385936700002]},"properties":{"address":"\u795e\u5948\u5ddd\u770c\u6a2a\u6d5c\u5e02\u6238\u585a\u533a\u4e0b\u5009\u7530\u753a\uff11\uff17\uff19\u2010\uff11","placename":"179-1 Shimokuratacho, Totsuka Ward, Yokohama, Kanagawa Prefecture, Japan","title":"\u8304\u5b50\u3000\uff12\u500b\uff20\u25cb\u25cb\u5e97\u8217"}},{"type":"Feature","geometry":{"type":"Point","coordinates":[139.5358211,35.385936700002]},"properties":{"address":"\u795e\u5948\u5ddd\u770c\u6a2a\u6d5c\u5e02\u6238\u585a\u533a\u4e0b\u5009\u7530\u753a\uff11\uff17\uff19\u2010\uff11","placename":"179-1 Shimokuratacho, Totsuka Ward, Yokohama, Kanagawa Prefecture, Japan","title":"\u25cb\u25cb\u30d5\u30a1\u30fc\u30e0\u3000\u5927\u6839\uff11\uff0f\uff12\uff20\u25cb\u25cb\u5e97\u8217"}},{"type":"Feature","geometry":{"type":"Point","coordinates":[139.6603181,35.825836200001]},"properties":{"address":"\u57fc\u7389\u770c\u6238\u7530\u5e02\u65b0\u66fd\uff12\uff11\uff16\uff16","placename":"2166 Niizo, Toda, Saitama Prefecture, Japan","title":"\u25cb\u25cb\u30d5\u30a1\u30fc\u30e0\u306b\u3093\u3058\u3093\u3000\u3000\u3000\uff11\uff14\uff18\u5186\uff20\u25cb\u25cb\u5e97\u8217"}},{"type":"Feature","geometry":{"type":"Point","coordinates":[139.5056076,35.606551800001]},"properties":{"address":"\u795e\u5948\u5ddd\u770c\u5ddd\u5d0e\u5e02\u9ebb\u751f\u533a\u4e07\u798f\u5bfa\uff16\u2010\uff17\u2010\uff12","placename":"6-7-2 Manpukuji, Asao Ward, Kawasaki, Kanagawa Prefecture, Japan","title":"\u25cb\u25cb\u30d5\u30a1\u30fc\u30e0\u3000\u7389\u8471\uff20\u25cb\u25cb\u5e97\u8217"}},{"type":"Feature","geometry":{"type":"Point","coordinates":[139.5056076,35.606551800001]},"properties":{"address":"\u795e\u5948\u5ddd\u770c\u5ddd\u5d0e\u5e02\u9ebb\u751f\u533a\u4e07\u798f\u5bfa\uff16\u2010\uff17\u2010\uff12","placename":"6-7-2 Manpukuji, Asao Ward, Kawasaki, Kanagawa Prefecture, Japan","title":"\u25cb\u25cb\u30d5\u30a1\u30fc\u30e0\u307b\u3046\u308c\u3093\u8349\u3000\u3000\uff11\u888b\uff20\u25cb\u25cb\u5e97\u8217"}},{"type":"Feature","geometry":{"type":"Point","coordinates":[139.5056076,35.606551800001]},"properties":{"address":"\u795e\u5948\u5ddd\u770c\u5ddd\u5d0e\u5e02\u9ebb\u751f\u533a\u4e07\u798f\u5bfa\uff16\u2010\uff17\u2010\uff12","placename":"6-7-2 Manpukuji, Asao Ward, Kawasaki, Kanagawa Prefecture, Japan","title":"\u9752\u30cd\u30ae\u30b9\u30e9\u30a4\u30b9\u3000\uff13\uff10\uff47\uff20\u25cb\u25cb\u5e97\u8217"}},{"type":"Feature","geometry":{"type":"Point","coordinates":[139.5056076,35.606551800001]},"properties":{"address":"\u795e\u5948\u5ddd\u770c\u5ddd\u5d0e\u5e02\u9ebb\u751f\u533a\u4e07\u798f\u5bfa\uff16\u2010\uff17\u2010\uff12","placename":"6-7-2 Manpukuji, Asao Ward, Kawasaki, Kanagawa Prefecture, Japan","title":"\u767d\u30cd\u30ae\u30b9\u30e9\u30a4\u30b9\u3000\uff13\uff10\uff47\uff20\u25cb\u25cb\u5e97\u8217"}},{"type":"Feature","geometry":{"type":"Point","coordinates":[139.5056076,35.606551800001]},"properties":{"address":"\u795e\u5948\u5ddd\u770c\u5ddd\u5d0e\u5e02\u9ebb\u751f\u533a\u4e07\u798f\u5bfa\uff16\u2010\uff17\u2010\uff12","placename":"6-7-2 Manpukuji, Asao Ward, Kawasaki, Kanagawa Prefecture, Japan","title":"\u9032\u5316\u578b\u3000\u9577\u306d\u304e\uff20\u25cb\u25cb\u5e97\u8217"}},{"type":"Feature","geometry":{"type":"Point","coordinates":[139.5056076,35.606551800001]},"properties":{"address":"\u795e\u5948\u5ddd\u770c\u5ddd\u5d0e\u5e02\u9ebb\u751f\u533a\u4e07\u798f\u5bfa\uff16\u2010\uff17\u2010\uff12","placename":"6-7-2 Manpukuji, Asao Ward, Kawasaki, Kanagawa Prefecture, Japan","title":"\u9032\u5316\u578b\u3000\u30d4\u30fc\u30de\u30f3\u3000\u3000\u3000\u3000\u3000\u3000\u3000\uff11\uff13\uff10\uff47\uff20\u25cb\u25cb\u5e97\u8217"}},{"type":"Feature","geometry":{"type":"Point","coordinates":[139.7334097,35.530042200001]},"properties":{"address":"\u795e\u5948\u5ddd\u770c\u5ddd\u5d0e\u5e02\u5ddd\u5d0e\u533a\u53f0\u753a\uff11\uff13\u2010\uff11","placename":"13-1 Daimachi, Kawasaki Ward, Kawasaki, Kanagawa Prefecture, Japan","title":"\u6c34\u83dc\u3000\uff11\uff10\uff10\uff47\uff20\u25cb\u25cb\u5e97\u8217"}},{"type":"Feature","geometry":{"type":"Point","coordinates":[139.7334097,35.530042200001]},"properties":{"address":"\u795e\u5948\u5ddd\u770c\u5ddd\u5d0e\u5e02\u5ddd\u5d0e\u533a\u53f0\u753a\uff11\uff13\u2010\uff11","placename":"13-1 Daimachi, Kawasaki Ward, Kawasaki, Kanagawa Prefecture, Japan","title":"\u30df\u30cb\u30c8\u30de\u30c8\u3000\uff11\uff10\uff10\uff47\uff20\u25cb\u25cb\u5e97\u8217"}},{"type":"Feature","geometry":{"type":"Point","coordinates":[139.7334097,35.530042200001]},"properties":{"address":"\u795e\u5948\u5ddd\u770c\u5ddd\u5d0e\u5e02\u5ddd\u5d0e\u533a\u53f0\u753a\uff11\uff13\u2010\uff11","placename":"13-1 Daimachi, Kawasaki Ward, Kawasaki, Kanagawa Prefecture, Japan","title":"\u9752\u30cd\u30ae\u30b9\u30e9\u30a4\u30b9\u3000\uff13\uff10\uff47\uff20\u25cb\u25cb\u5e97\u8217"}},{"type":"Feature","geometry":{"type":"Point","coordinates":[139.7334097,35.530042200001]},"properties":{"address":"\u795e\u5948\u5ddd\u770c\u5ddd\u5d0e\u5e02\u5ddd\u5d0e\u533a\u53f0\u753a\uff11\uff13\u2010\uff11","placename":"13-1 Daimachi, Kawasaki Ward, Kawasaki, Kanagawa Prefecture, Japan","title":"\u9032\u5316\u578b\u3000\u30a8\u30ce\u30ad\uff20\u25cb\u25cb\u5e97\u8217"}},{"type":"Feature","geometry":{"type":"Point","coordinates":[140.8567573,35.715712300003]},"properties":{"address":"\u5343\u8449\u770c\u929a\u5b50\u5e02\u5c0f\u7551\u753a\uff17\uff13\uff14\uff12","placename":"7342 Kobatakemachi, Choshi, Chiba Prefecture, Japan","title":"\u25cb\u25cb\u30d5\u30a1\u30fc\u30e0\u306b\u3093\u3058\u3093\u3000\u3000\u3000\uff11\uff14\uff18\u5186\uff20\u25cb\u25cb\u5e97\u8217"}},{"type":"Feature","geometry":{"type":"Point","coordinates":[140.8567573,35.715712300003]},"properties":{"address":"\u5343\u8449\u770c\u929a\u5b50\u5e02\u5c0f\u7551\u753a\uff17\uff13\uff14\uff12","placename":"7342 Kobatakemachi, Choshi, Chiba Prefecture, Japan","title":"\u25cb\u25cb\u30d5\u30a1\u30fc\u30e0\u3000\u7537\u7235\u828b\uff20\u25cb\u25cb\u5e97\u8217"}},{"type":"Feature","geometry":{"type":"Point","coordinates":[140.8567573,35.715712300003]},"properties":{"address":"\u5343\u8449\u770c\u929a\u5b50\u5e02\u5c0f\u7551\u753a\uff17\uff13\uff14\uff12","placename":"7342 Kobatakemachi, Choshi, Chiba Prefecture, Japan","title":"\u9032\u5316\u578b\u3000\u307e\u3044\u305f\u3051\uff20\u25cb\u25cb\u5e97\u8217"}},{"type":"Feature","geometry":{"type":"Point","coordinates":[140.8567573,35.715712300003]},"properties":{"address":"\u5343\u8449\u770c\u929a\u5b50\u5e02\u5c0f\u7551\u753a\uff17\uff13\uff14\uff12","placename":"7342 Kobatakemachi, Choshi, Chiba Prefecture, Japan","title":"\u9032\u5316\u578b\u3000\u767d\u83dc\u3000\u3000\u3000\u3000\u3000\u3000\u3000\u3000\u3000\uff11\uff0f\uff14\u30ab\u30c3\u30c8\uff20\u25cb\u25cb\u5e97\u8217"}},{"type":"Feature","geometry":{"type":"Point","coordinates":[139.6689233,36.015440299997]},"properties":{"address":"\u57fc\u7389\u770c\u767d\u5ca1\u5e02\u5343\u99c4\u91ce\u5b57\u4e0b\u6cbc\uff11\uff11\uff14\uff13\u2010\uff11","placename":"Sendano, Shiraoka, Minamisaitama District, Saitama Prefecture, Japan","title":"\u25cb\u25cb\u30d5\u30a1\u30fc\u30e0\u3000\u7389\u8471\uff20\u25cb\u25cb\u5e97\u8217"}},{"type":"Feature","geometry":{"type":"Point","coordinates":[139.8670932,36.581661599999]},"properties":{"address":"\u6803\u6728\u770c\u5b87\u90fd\u5bae\u5e02\u4e2d\u6238\u796d\uff11\u2010\uff19\u2010\uff12\uff18","placename":"1-9 Nakatomatsuri, Utsunomiya, Tochigi Prefecture, Japan","title":"\u30df\u30cb\u30c8\u30de\u30c8\u3000\uff11\uff10\uff10\uff47\uff20\u25cb\u25cb\u5e97\u8217"}},{"type":"Feature","geometry":{"type":"Point","coordinates":[139.8670932,36.581661599999]},"properties":{"address":"\u6803\u6728\u770c\u5b87\u90fd\u5bae\u5e02\u4e2d\u6238\u796d\uff11\u2010\uff19\u2010\uff12\uff18","placename":"1-9 Nakatomatsuri, Utsunomiya, Tochigi Prefecture, Japan","title":"\u30c8\u30de\u30c8\u3000\uff11\u500b\uff20\u25cb\u25cb\u5e97\u8217"}},{"type":"Feature","geometry":{"type":"Point","coordinates":[139.8670932,36.581661599999]},"properties":{"address":"\u6803\u6728\u770c\u5b87\u90fd\u5bae\u5e02\u4e2d\u6238\u796d\uff11\u2010\uff19\u2010\uff12\uff18","placename":"1-9 Nakatomatsuri, Utsunomiya, Tochigi Prefecture, Japan","title":"\u25cb\u25cb\u30d5\u30a1\u30fc\u30e0\u5317\u6d77\u3053\u304c\u306d\u3000\u3000\uff11\u888b\uff20\u25cb\u25cb\u5e97\u8217"}},{"type":"Feature","geometry":{"type":"Point","coordinates":[139.8670932,36.581661599999]},"properties":{"address":"\u6803\u6728\u770c\u5b87\u90fd\u5bae\u5e02\u4e2d\u6238\u796d\uff11\u2010\uff19\u2010\uff12\uff18","placename":"1-9 Nakatomatsuri, Utsunomiya, Tochigi Prefecture, Japan","title":"\u25cb\u25cb\u30d5\u30a1\u30fc\u30e0\u5c0f\u677e\u83dc\u3000\uff11\u888b\uff20\u25cb\u25cb\u5e97\u8217"}},{"type":"Feature","geometry":{"type":"Point","coordinates":[139.8670932,36.581661599999]},"properties":{"address":"\u6803\u6728\u770c\u5b87\u90fd\u5bae\u5e02\u4e2d\u6238\u796d\uff11\u2010\uff19\u2010\uff12\uff18","placename":"1-9 Nakatomatsuri, Utsunomiya, Tochigi Prefecture, Japan","title":"\u25cb\u25cb\u30d5\u30a1\u30fc\u30e0\u307b\u3046\u308c\u3093\u8349\u3000\u3000\uff11\u888b\uff20\u25cb\u25cb\u5e97\u8217"}},{"type":"Feature","geometry":{"type":"Point","coordinates":[139.8670932,36.581661599999]},"properties":{"address":"\u6803\u6728\u770c\u5b87\u90fd\u5bae\u5e02\u4e2d\u6238\u796d\uff11\u2010\uff19\u2010\uff12\uff18","placename":"1-9 Nakatomatsuri, Utsunomiya, Tochigi Prefecture, Japan","title":"\u9032\u5316\u578b\u3000\u30b4\u30dc\u30a6\uff20\u25cb\u25cb\u5e97\u8217"}},{"type":"Feature","geometry":{"type":"Point","coordinates":[139.8670932,36.581661599999]},"properties":{"address":"\u6803\u6728\u770c\u5b87\u90fd\u5bae\u5e02\u4e2d\u6238\u796d\uff11\u2010\uff19\u2010\uff12\uff18","placename":"1-9 Nakatomatsuri, Utsunomiya, Tochigi Prefecture, Japan","title":"\u9032\u5316\u578b\u3000\u3076\u306a\u3057\u3081\u3058\uff20\u25cb\u25cb\u5e97\u8217"}},{"type":"Feature","geometry":{"type":"Point","coordinates":[139.8670932,36.581661599999]},"properties":{"address":"\u6803\u6728\u770c\u5b87\u90fd\u5bae\u5e02\u4e2d\u6238\u796d\uff11\u2010\uff19\u2010\uff12\uff18","placename":"1-9 Nakatomatsuri, Utsunomiya, Tochigi Prefecture, Japan","title":"\u9032\u5316\u578b\u3000\u9577\u306d\u304e\uff20\u25cb\u25cb\u5e97\u8217"}},{"type":"Feature","geometry":{"type":"Point","coordinates":[139.8670932,36.581661599999]},"properties":{"address":"\u6803\u6728\u770c\u5b87\u90fd\u5bae\u5e02\u4e2d\u6238\u796d\uff11\u2010\uff19\u2010\uff12\uff18","placename":"1-9 Nakatomatsuri, Utsunomiya, Tochigi Prefecture, Japan","title":"\u9032\u5316\u578b\u3000\u306b\u3089\uff20\u25cb\u25cb\u5e97\u8217"}},{"type":"Feature","geometry":{"type":"Point","coordinates":[139.8670932,36.581661599999]},"properties":{"address":"\u6803\u6728\u770c\u5b87\u90fd\u5bae\u5e02\u4e2d\u6238\u796d\uff11\u2010\uff19\u2010\uff12\uff18","placename":"1-9 Nakatomatsuri, Utsunomiya, Tochigi Prefecture, Japan","title":"\u9032\u5316\u578b\u3000\u5c0f\u306d\u304e\uff20\u25cb\u25cb\u5e97\u8217"}},{"type":"Feature","geometry":{"type":"Point","coordinates":[139.4173262,35.543992499996]},"properties":{"address":"\u795e\u5948\u5ddd\u770c\u76f8\u6a21\u539f\u5e02\u5357\u533a\u897f\u5927\u6cbc\uff12\u2010\uff12\uff11\u2010\uff12\uff15","placename":"2-21-25 Nishionuma, Minami Ward, Sagamihara, Kanagawa Prefecture, Japan","title":"\u30df\u30cb\u30c8\u30de\u30c8\u3000\uff11\uff10\uff10\uff47\uff20\u25cb\u25cb\u5e97\u8217"}},{"type":"Feature","geometry":{"type":"Point","coordinates":[139.4173262,35.543992499996]},"properties":{"address":"\u795e\u5948\u5ddd\u770c\u76f8\u6a21\u539f\u5e02\u5357\u533a\u897f\u5927\u6cbc\uff12\u2010\uff12\uff11\u2010\uff12\uff15","placename":"2-21-25 Nishionuma, Minami Ward, Sagamihara, Kanagawa Prefecture, Japan","title":"\u25cb\u25cb\u30d5\u30a1\u30fc\u30e0\u5317\u6d77\u3053\u304c\u306d\u3000\u3000\uff11\u888b\uff20\u25cb\u25cb\u5e97\u8217"}},{"type":"Feature","geometry":{"type":"Point","coordinates":[139.4173262,35.543992499996]},"properties":{"address":"\u795e\u5948\u5ddd\u770c\u76f8\u6a21\u539f\u5e02\u5357\u533a\u897f\u5927\u6cbc\uff12\u2010\uff12\uff11\u2010\uff12\uff15","placename":"2-21-25 Nishionuma, Minami Ward, Sagamihara, Kanagawa Prefecture, Japan","title":"\u25cb\u25cb\u30d5\u30a1\u30fc\u30e0\u3000\u5927\u6839\uff11\uff0f\uff12\uff20\u25cb\u25cb\u5e97\u8217"}},{"type":"Feature","geometry":{"type":"Point","coordinates":[139.4173262,35.543992499996]},"properties":{"address":"\u795e\u5948\u5ddd\u770c\u76f8\u6a21\u539f\u5e02\u5357\u533a\u897f\u5927\u6cbc\uff12\u2010\uff12\uff11\u2010\uff12\uff15","placename":"2-21-25 Nishionuma, Minami Ward, Sagamihara, Kanagawa Prefecture, Japan","title":"\u9032\u5316\u578b\u3000\u9577\u306d\u304e\uff20\u25cb\u25cb\u5e97\u8217"}},{"type":"Feature","geometry":{"type":"Point","coordinates":[139.6819563,35.6294055]},"properties":{"address":"\u6771\u4eac\u90fd\u76ee\u9ed2\u533a\u9df9\u756a\uff13\u2010\uff12\uff10\u2010\uff11\uff13","placename":"3-20-13 Takaban, Meguro, Tokyo, Japan","title":"\u25cb\u25cb\u30d5\u30a1\u30fc\u30e0\u3000\u7389\u8471\uff20\u25cb\u25cb\u5e97\u8217"}},{"type":"Feature","geometry":{"type":"Point","coordinates":[139.6819563,35.6294055]},"properties":{"address":"\u6771\u4eac\u90fd\u76ee\u9ed2\u533a\u9df9\u756a\uff13\u2010\uff12\uff10\u2010\uff11\uff13","placename":"3-20-13 Takaban, Meguro, Tokyo, Japan","title":"\u9752\u30cd\u30ae\u30b9\u30e9\u30a4\u30b9\u3000\uff13\uff10\uff47\uff20\u25cb\u25cb\u5e97\u8217"}},{"type":"Feature","geometry":{"type":"Point","coordinates":[139.6819563,35.6294055]},"properties":{"address":"\u6771\u4eac\u90fd\u76ee\u9ed2\u533a\u9df9\u756a\uff13\u2010\uff12\uff10\u2010\uff11\uff13","placename":"3-20-13 Takaban, Meguro, Tokyo, Japan","title":"\u9032\u5316\u578b\u3000\u30d4\u30fc\u30de\u30f3\u3000\u3000\u3000\u3000\u3000\u3000\u3000\uff11\uff13\uff10\uff47\uff20\u25cb\u25cb\u5e97\u8217"}},{"type":"Feature","geometry":{"type":"Point","coordinates":[139.6819563,35.6294055]},"properties":{"address":"\u6771\u4eac\u90fd\u76ee\u9ed2\u533a\u9df9\u756a\uff13\u2010\uff12\uff10\u2010\uff11\uff13","placename":"3-20-13 Takaban, Meguro, Tokyo, Japan","title":"\u9032\u5316\u578b\u30ec\u30bf\u30b9\u3000\uff11\uff10\uff15\u5186\uff20\u25cb\u25cb\u5e97\u8217"}},{"type":"Feature","geometry":{"type":"Point","coordinates":[139.4199033,35.801934499998]},"properties":{"address":"\u57fc\u7389\u770c\u6240\u6ca2\u5e02\u82e5\u72ed\uff13\u2010\uff12\uff15\uff16\uff15\u2010\uff11\uff13","placename":"3-2565 Wakasa, Tokorozawa, Saitama Prefecture, Japan","title":"\u9032\u5316\u578b\u3000\u307e\u3044\u305f\u3051\uff20\u25cb\u25cb\u5e97\u8217"}},{"type":"Feature","geometry":{"type":"Point","coordinates":[139.4199033,35.801934499998]},"properties":{"address":"\u57fc\u7389\u770c\u6240\u6ca2\u5e02\u82e5\u72ed\uff13\u2010\uff12\uff15\uff16\uff15\u2010\uff11\uff13","placename":"3-2565 Wakasa, Tokorozawa, Saitama Prefecture, Japan","title":"\u9032\u5316\u578b\u304d\u3085\u3046\u308a\uff20\u25cb\u25cb\u5e97\u8217"}},{"type":"Feature","geometry":{"type":"Point","coordinates":[139.8833097,36.5613283]},"properties":{"address":"\u6803\u6728\u770c\u5b87\u90fd\u5bae\u5e02\u6c60\u4e0a\u753a\uff11\u2010\uff13","placename":"1-3 Ikegamicho, Utsunomiya, Tochigi Prefecture, Japan","title":"\u9032\u5316\u578b\u3000\u751f\u59dc\uff20\u25cb\u25cb\u5e97\u8217"}},{"type":"Feature","geometry":{"type":"Point","coordinates":[139.5277868,35.847156299998]},"properties":{"address":"\u57fc\u7389\u770c\u5165\u9593\u90e1\u4e09\u82b3\u753a\u85e4\u4e45\u4fdd\u5b57\u6771\uff17\uff17\uff16\u2010\uff11","placename":"Fujikubo, Miyoshi, Iruma District, Saitama Prefecture, Japan","title":"\u9032\u5316\u578b\u30ad\u30e3\u30d9\u30c4\u3000\uff11\uff0f\uff12\u30ab\u30c3\u30c8\u3000\uff11\uff12\uff18\u5186\uff20\u25cb\u25cb\u5e97\u8217"}},{"type":"Feature","geometry":{"type":"Point","coordinates":[139.6322947,35.460441900002]},"properties":{"address":"\u795e\u5948\u5ddd\u770c\u6a2a\u6d5c\u5e02\u897f\u533a\u307f\u306a\u3068\u307f\u3089\u3044\uff14\u2010\uff11\uff10","placename":"4-10 Minatomirai, Nishi Ward, Yokohama, Kanagawa Prefecture, Japan","title":"\u9752\u30cd\u30ae\u30b9\u30e9\u30a4\u30b9\u3000\uff13\uff10\uff47\uff20\u25cb\u25cb\u5e97\u8217"}},{"type":"Feature","geometry":{"type":"Point","coordinates":[139.6322947,35.460441900002]},"properties":{"address":"\u795e\u5948\u5ddd\u770c\u6a2a\u6d5c\u5e02\u897f\u533a\u307f\u306a\u3068\u307f\u3089\u3044\uff14\u2010\uff11\uff10","placename":"4-10 Minatomirai, Nishi Ward, Yokohama, Kanagawa Prefecture, Japan","title":"\uff2c\uff30\u3000\u3048\u306e\u304d\u8338\u3000\uff11\uff15\uff10\uff47\uff20\u25cb\u25cb\u5e97\u8217"}},{"type":"Feature","geometry":{"type":"Point","coordinates":[139.6322947,35.460441900002]},"properties":{"address":"\u795e\u5948\u5ddd\u770c\u6a2a\u6d5c\u5e02\u897f\u533a\u307f\u306a\u3068\u307f\u3089\u3044\uff14\u2010\uff11\uff10","placename":"4-10 Minatomirai, Nishi Ward, Yokohama, Kanagawa Prefecture, Japan","title":"\uff2c\uff30\u3000\u3076\u306a\u3057\u3081\u3058\uff20\u25cb\u25cb\u5e97\u8217"}},{"type":"Feature","geometry":{"type":"Point","coordinates":[139.6322947,35.460441900002]},"properties":{"address":"\u795e\u5948\u5ddd\u770c\u6a2a\u6d5c\u5e02\u897f\u533a\u307f\u306a\u3068\u307f\u3089\u3044\uff14\u2010\uff11\uff10","placename":"4-10 Minatomirai, Nishi Ward, Yokohama, Kanagawa Prefecture, Japan","title":"\u8304\u5b50\u3000\uff12\u500b\uff20\u25cb\u25cb\u5e97\u8217"}},{"type":"Feature","geometry":{"type":"Point","coordinates":[139.7445849,36.114057400003]},"properties":{"address":"\u8328\u57ce\u770c\u733f\u5cf6\u90e1\u4e94\u971e\u753a\u65b0\u5e78\u8c37\uff14\uff15\uff13","placename":"453 Shinkoya, Goka, Sashima District, Ibaraki Prefecture, Japan","title":"\uff2c\uff30\u3000\u9577\u306d\u304e\u3000\uff2c\uff11\u672c\uff20JA\u25cb\u25cb"}},{"type":"Feature","geometry":{"type":"Point","coordinates":[139.9277842,35.817851399997]},"properties":{"address":"\u5343\u8449\u770c\u677e\u6238\u5e02\u4e8c\u30c4\u6728 532-1","placename":"532-1 Futatsugi, Matsudo, Chiba Prefecture, Japan","title":"\uff2c\uff30\u3000\u9577\u306d\u304e\u3000\uff2c\uff11\u672c\uff20\u25cb\u25cb\u53d6\u5f15\u5148"}},{"type":"Feature","geometry":{"type":"Point","coordinates":[139.7984112,36.547225500002]},"properties":{"address":"\u6803\u6728\u770c\u9e7f\u6cbc\u5e02\u8302\u5442\uff16\uff15\uff12","placename":"652 Moro, Kanuma, Tochigi Prefecture, Japan","title":"\uff2c\uff30\u3000\u9577\u306d\u304e\u3000\uff2c\uff11\u672c\uff20\u25cb\u25cb\u30bb\u30f3\u30bf\u30fc"}},{"type":"Feature","geometry":{"type":"Point","coordinates":[140.4849822,35.836197900003]},"properties":{"address":"\u5343\u8449\u770c\u9999\u53d6\u5e02\u798f\u7530724\u756a\u57302","placename":"Fukuda, Katori, Chiba Prefecture, Japan","title":"\u25cb\u25cb\u30d5\u30a1\u30fc\u30e0\u3000\u7389\u8471\uff20\u25cb\u25cb\u30d5\u30a1\u30fc\u30e0\u5343\u8449"}},{"type":"Feature","geometry":{"type":"Point","coordinates":[140.4849822,35.836197900003]},"properties":{"address":"\u5343\u8449\u770c\u9999\u53d6\u5e02\u798f\u7530724\u756a\u57302","placename":"Fukuda, Katori, Chiba Prefecture, Japan","title":"\u25cb\u25cb\u30d5\u30a1\u30fc\u30e0\u5c0f\u677e\u83dc\u3000\uff11\u888b\uff20\u25cb\u25cb\u30d5\u30a1\u30fc\u30e0\u5343\u8449"}},{"type":"Feature","geometry":{"type":"Point","coordinates":[139.7445849,36.114057400003]},"properties":{"address":"\u8328\u57ce\u770c\u733f\u5cf6\u90e1\u4e94\u971e\u753a\u65b0\u5e78\u8c37\uff14\uff15\uff13","placename":"453 Shinkoya, Goka, Sashima District, Ibaraki Prefecture, Japan","title":"\u713c\u304d\u5e72\u3057\u828b\uff20JA\u25cb\u25cb"}},{"type":"Feature","geometry":{"type":"Point","coordinates":[139.9277842,35.817851399997]},"properties":{"address":"\u5343\u8449\u770c\u677e\u6238\u5e02\u4e8c\u30c4\u6728 532-1","placename":"532-1 Futatsugi, Matsudo, Chiba Prefecture, Japan","title":"\u713c\u304d\u5e72\u3057\u828b\uff20\u25cb\u25cb\u53d6\u5f15\u5148"}},{"type":"Feature","geometry":{"type":"Point","coordinates":[139.9310099,35.7219115]},"properties":{"address":"\u5343\u8449\u770c\u5e02\u5ddd\u5e02","placename":"Ichikawa, Chiba Prefecture, Japan","title":"\u713c\u304d\u5e72\u3057\u828b\uff20\u25cb\u25cb\u30bb\u30f3\u30bf\u30fc"}},{"type":"Feature","geometry":{"type":"Point","coordinates":[139.7445849,36.114057400003]},"properties":{"address":"\u8328\u57ce\u770c\u733f\u5cf6\u90e1\u4e94\u971e\u753a\u65b0\u5e78\u8c37\uff14\uff15\uff13","placename":"453 Shinkoya, Goka, Sashima District, Ibaraki Prefecture, Japan","title":"\u9752\u30cd\u30ae\u30b9\u30e9\u30a4\u30b9\u3000\uff13\uff10\uff47\uff20JA\u25cb\u25cb"}},{"type":"Feature","geometry":{"type":"Point","coordinates":[139.9277842,35.817851399997]},"properties":{"address":"\u5343\u8449\u770c\u677e\u6238\u5e02\u4e8c\u30c4\u6728 532-1","placename":"532-1 Futatsugi, Matsudo, Chiba Prefecture, Japan","title":"\u9752\u30cd\u30ae\u30b9\u30e9\u30a4\u30b9\u3000\uff13\uff10\uff47\uff20\u25cb\u25cb\u53d6\u5f15\u5148"}},{"type":"Feature","geometry":{"type":"Point","coordinates":[140.4849822,35.836197900003]},"properties":{"address":"\u5343\u8449\u770c\u9999\u53d6\u5e02\u798f\u7530724\u756a\u57302","placename":"Fukuda, Katori, Chiba Prefecture, Japan","title":"\u25cb\u25cb\u30d5\u30a1\u30fc\u30e0\u306b\u3093\u3058\u3093\u3000\u3000\u3000\uff11\uff14\uff18\u5186\uff20\u25cb\u25cb\u30d5\u30a1\u30fc\u30e0\u5343\u8449"}},{"type":"Feature","geometry":{"type":"Point","coordinates":[139.7445849,36.114057400003]},"properties":{"address":"\u8328\u57ce\u770c\u733f\u5cf6\u90e1\u4e94\u971e\u753a\u65b0\u5e78\u8c37\uff14\uff15\uff13","placename":"453 Shinkoya, Goka, Sashima District, Ibaraki Prefecture, Japan","title":"\u9752\u30cd\u30ae\u30b9\u30e9\u30a4\u30b9\u3000\uff13\uff10\uff47\uff20JA\u25cb\u25cb"}},{"type":"Feature","geometry":{"type":"Point","coordinates":[139.9277842,35.817851399997]},"properties":{"address":"\u5343\u8449\u770c\u677e\u6238\u5e02\u4e8c\u30c4\u6728 532-1","placename":"532-1 Futatsugi, Matsudo, Chiba Prefecture, Japan","title":"\u9752\u30cd\u30ae\u30b9\u30e9\u30a4\u30b9\u3000\uff13\uff10\uff47\uff20\u25cb\u25cb\u53d6\u5f15\u5148"}},{"type":"Feature","geometry":{"type":"Point","coordinates":[139.7445849,36.114057400003]},"properties":{"address":"\u8328\u57ce\u770c\u733f\u5cf6\u90e1\u4e94\u971e\u753a\u65b0\u5e78\u8c37\uff14\uff15\uff13","placename":"453 Shinkoya, Goka, Sashima District, Ibaraki Prefecture, Japan","title":"\u30c8\u30de\u30c8\u3000\uff11\u500b\uff20JA\u25cb\u25cb"}},{"type":"Feature","geometry":{"type":"Point","coordinates":[139.9277842,35.817851399997]},"properties":{"address":"\u5343\u8449\u770c\u677e\u6238\u5e02\u4e8c\u30c4\u6728 532-1","placename":"532-1 Futatsugi, Matsudo, Chiba Prefecture, Japan","title":"\u30c8\u30de\u30c8\u3000\uff11\u500b\uff20\u25cb\u25cb\u53d6\u5f15\u5148"}},{"type":"Feature","geometry":{"type":"Point","coordinates":[139.8118945,35.878425]},"properties":{"address":"\u57fc\u7389\u770c\u8d8a\u8c37\u5e02\u6d41\u901a\u56e3\u5730\uff12\u4e01\u76ee\uff13","placename":"Japan, Saitama Prefecture, Koshigaya, Ryutsudanchi, \uff12\u4e01\u76ee3","title":"\u30c8\u30de\u30c8\u3000\uff11\u500b\uff20\u25cb\u25cb\u30bb\u30f3\u30bf\u30fc"}},{"type":"Feature","geometry":{"type":"Point","coordinates":[140.4849822,35.836197900003]},"properties":{"address":"\u5343\u8449\u770c\u9999\u53d6\u5e02\u798f\u7530724\u756a\u57302","placename":"Fukuda, Katori, Chiba Prefecture, Japan","title":"\u25cb\u25cb\u30d5\u30a1\u30fc\u30e0\u3000\u7389\u8471\uff20\u25cb\u25cb\u30d5\u30a1\u30fc\u30e0\u5343\u8449"}},{"type":"Feature","geometry":{"type":"Point","coordinates":[139.7445849,36.114057400003]},"properties":{"address":"\u8328\u57ce\u770c\u733f\u5cf6\u90e1\u4e94\u971e\u753a\u65b0\u5e78\u8c37\uff14\uff15\uff13","placename":"453 Shinkoya, Goka, Sashima District, Ibaraki Prefecture, Japan","title":"\u9032\u5316\u578b\u30bb\u30ed\u30ea\u3000\u3000\u3000\u3000\u3000\u3000\u3000\u3000\u3000\uff11\uff10\uff15\u5186\uff20JA\u25cb\u25cb"}},{"type":"Feature","geometry":{"type":"Point","coordinates":[139.9277842,35.817851399997]},"properties":{"address":"\u5343\u8449\u770c\u677e\u6238\u5e02\u4e8c\u30c4\u6728 532-1","placename":"532-1 Futatsugi, Matsudo, Chiba Prefecture, Japan","title":"\u9032\u5316\u578b\u30bb\u30ed\u30ea\u3000\u3000\u3000\u3000\u3000\u3000\u3000\u3000\u3000\uff11\uff10\uff15\u5186\uff20\u25cb\u25cb\u53d6\u5f15\u5148"}},{"type":"Feature","geometry":{"type":"Point","coordinates":[139.8118945,35.878425]},"properties":{"address":"\u57fc\u7389\u770c\u8d8a\u8c37\u5e02\u6d41\u901a\u56e3\u5730\uff12\u4e01\u76ee\uff13","placename":"Japan, Saitama Prefecture, Koshigaya, Ryutsudanchi, \uff12\u4e01\u76ee3","title":"\u9032\u5316\u578b\u30bb\u30ed\u30ea\u3000\u3000\u3000\u3000\u3000\u3000\u3000\u3000\u3000\uff11\uff10\uff15\u5186\uff20\u25cb\u25cb\u30bb\u30f3\u30bf\u30fc"}},{"type":"Feature","geometry":{"type":"Point","coordinates":[139.7445849,36.114057400003]},"properties":{"address":"\u8328\u57ce\u770c\u733f\u5cf6\u90e1\u4e94\u971e\u753a\u65b0\u5e78\u8c37\uff14\uff15\uff13","placename":"453 Shinkoya, Goka, Sashima District, Ibaraki Prefecture, Japan","title":"\u9032\u5316\u578b\u3000\u306b\u3093\u306b\u304f\uff20JA\u25cb\u25cb"}},{"type":"Feature","geometry":{"type":"Point","coordinates":[139.9277842,35.817851399997]},"properties":{"address":"\u5343\u8449\u770c\u677e\u6238\u5e02\u4e8c\u30c4\u6728 532-1","placename":"532-1 Futatsugi, Matsudo, Chiba Prefecture, Japan","title":"\u9032\u5316\u578b\u3000\u306b\u3093\u306b\u304f\uff20\u25cb\u25cb\u53d6\u5f15\u5148"}},{"type":"Feature","geometry":{"type":"Point","coordinates":[139.8118945,35.878425]},"properties":{"address":"\u57fc\u7389\u770c\u8d8a\u8c37\u5e02\u6d41\u901a\u56e3\u5730\uff12\u4e01\u76ee\uff13","placename":"Japan, Saitama Prefecture, Koshigaya, Ryutsudanchi, \uff12\u4e01\u76ee3","title":"\u9032\u5316\u578b\u3000\u306b\u3093\u306b\u304f\uff20\u25cb\u25cb\u30bb\u30f3\u30bf\u30fc"}},{"type":"Feature","geometry":{"type":"Point","coordinates":[140.4849822,35.836197900003]},"properties":{"address":"\u5343\u8449\u770c\u9999\u53d6\u5e02\u798f\u7530724\u756a\u57302","placename":"Fukuda, Katori, Chiba Prefecture, Japan","title":"\u25cb\u25cb\u30d5\u30a1\u30fc\u30e0\u306b\u3093\u3058\u3093\u3000\u3000\u3000\uff11\uff14\uff18\u5186\uff20\u25cb\u25cb\u30d5\u30a1\u30fc\u30e0\u5343\u8449"}},{"type":"Feature","geometry":{"type":"Point","coordinates":[139.7445849,36.114057400003]},"properties":{"address":"\u8328\u57ce\u770c\u733f\u5cf6\u90e1\u4e94\u971e\u753a\u65b0\u5e78\u8c37\uff14\uff15\uff13","placename":"453 Shinkoya, Goka, Sashima District, Ibaraki Prefecture, Japan","title":"\u8304\u5b50\u3000\uff12\u500b\uff20JA\u25cb\u25cb"}},{"type":"Feature","geometry":{"type":"Point","coordinates":[139.9277842,35.817851399997]},"properties":{"address":"\u5343\u8449\u770c\u677e\u6238\u5e02\u4e8c\u30c4\u6728 532-1","placename":"532-1 Futatsugi, Matsudo, Chiba Prefecture, Japan","title":"\u8304\u5b50\u3000\uff12\u500b\uff20\u25cb\u25cb\u53d6\u5f15\u5148"}},{"type":"Feature","geometry":{"type":"Point","coordinates":[139.4656511,35.831500799997]},"properties":{"address":"\u57fc\u7389\u770c\u6240\u6ca2\u5e02\u5927\u5b57\u4e0b\u5bcc\uff17\uff13\uff19\uff0d\uff11\uff12","placename":"739-12 Shimotomi, Tokorozawa, Saitama Prefecture, Japan","title":"\u8304\u5b50\u3000\uff12\u500b\uff20\u25cb\u25cb\u30bb\u30f3\u30bf\u30fc"}},{"type":"Feature","geometry":{"type":"Point","coordinates":[139.7445849,36.114057400003]},"properties":{"address":"\u8328\u57ce\u770c\u733f\u5cf6\u90e1\u4e94\u971e\u753a\u65b0\u5e78\u8c37\uff14\uff15\uff13","placename":"453 Shinkoya, Goka, Sashima District, Ibaraki Prefecture, Japan","title":"\u30c8\u30de\u30c8\u3000\uff11\u500b\uff20JA\u25cb\u25cb"}},{"type":"Feature","geometry":{"type":"Point","coordinates":[139.9277842,35.817851399997]},"properties":{"address":"\u5343\u8449\u770c\u677e\u6238\u5e02\u4e8c\u30c4\u6728 532-1","placename":"532-1 Futatsugi, Matsudo, Chiba Prefecture, Japan","title":"\u30c8\u30de\u30c8\u3000\uff11\u500b\uff20\u25cb\u25cb\u53d6\u5f15\u5148"}},{"type":"Feature","geometry":{"type":"Point","coordinates":[139.4656511,35.831500799997]},"properties":{"address":"\u57fc\u7389\u770c\u6240\u6ca2\u5e02\u5927\u5b57\u4e0b\u5bcc\uff17\uff13\uff19\uff0d\uff11\uff12","placename":"739-12 Shimotomi, Tokorozawa, Saitama Prefecture, Japan","title":"\u30c8\u30de\u30c8\u3000\uff11\u500b\uff20\u25cb\u25cb\u30bb\u30f3\u30bf\u30fc"}},{"type":"Feature","geometry":{"type":"Point","coordinates":[140.4849822,35.836197900003]},"properties":{"address":"\u5343\u8449\u770c\u9999\u53d6\u5e02\u798f\u7530724\u756a\u57302","placename":"Fukuda, Katori, Chiba Prefecture, Japan","title":"\u25cb\u25cb\u30d5\u30a1\u30fc\u30e0\u5317\u6d77\u3053\u304c\u306d\u3000\u3000\uff11\u888b\uff20\u25cb\u25cb\u30d5\u30a1\u30fc\u30e0\u5343\u8449"}},{"type":"Feature","geometry":{"type":"Point","coordinates":[139.4656511,35.831500799997]},"properties":{"address":"\u57fc\u7389\u770c\u6240\u6ca2\u5e02\u5927\u5b57\u4e0b\u5bcc\uff17\uff13\uff19\uff0d\uff11\uff12","placename":"739-12 Shimotomi, Tokorozawa, Saitama Prefecture, Japan","title":"\u25cb\u25cb\u30d5\u30a1\u30fc\u30e0\u5317\u6d77\u3053\u304c\u306d\u3000\u3000\uff11\u888b\uff20\u25cb\u25cb\u30bb\u30f3\u30bf\u30fc"}},{"type":"Feature","geometry":{"type":"Point","coordinates":[139.7445849,36.114057400003]},"properties":{"address":"\u8328\u57ce\u770c\u733f\u5cf6\u90e1\u4e94\u971e\u753a\u65b0\u5e78\u8c37\uff14\uff15\uff13","placename":"453 Shinkoya, Goka, Sashima District, Ibaraki Prefecture, Japan","title":"\u9032\u5316\u578b\u3000\u5357\u74dc\uff11\uff0f\uff14\u30ab\u30c3\u30c8\uff20JA\u25cb\u25cb"}},{"type":"Feature","geometry":{"type":"Point","coordinates":[139.9277842,35.817851399997]},"properties":{"address":"\u5343\u8449\u770c\u677e\u6238\u5e02\u4e8c\u30c4\u6728 532-1","placename":"532-1 Futatsugi, Matsudo, Chiba Prefecture, Japan","title":"\u9032\u5316\u578b\u3000\u5357\u74dc\uff11\uff0f\uff14\u30ab\u30c3\u30c8\uff20\u25cb\u25cb\u53d6\u5f15\u5148"}},{"type":"Feature","geometry":{"type":"Point","coordinates":[139.4656511,35.831500799997]},"properties":{"address":"\u57fc\u7389\u770c\u6240\u6ca2\u5e02\u5927\u5b57\u4e0b\u5bcc\uff17\uff13\uff19\uff0d\uff11\uff12","placename":"739-12 Shimotomi, Tokorozawa, Saitama Prefecture, Japan","title":"\u9032\u5316\u578b\u3000\u5357\u74dc\uff11\uff0f\uff14\u30ab\u30c3\u30c8\uff20\u25cb\u25cb\u30bb\u30f3\u30bf\u30fc"}},{"type":"Feature","geometry":{"type":"Point","coordinates":[139.7445849,36.114057400003]},"properties":{"address":"\u8328\u57ce\u770c\u733f\u5cf6\u90e1\u4e94\u971e\u753a\u65b0\u5e78\u8c37\uff14\uff15\uff13","placename":"453 Shinkoya, Goka, Sashima District, Ibaraki Prefecture, Japan","title":"\u30c8\u30de\u30c8\u3000\uff11\u500b\uff20JA\u25cb\u25cb"}},{"type":"Feature","geometry":{"type":"Point","coordinates":[139.9277842,35.817851399997]},"properties":{"address":"\u5343\u8449\u770c\u677e\u6238\u5e02\u4e8c\u30c4\u6728 532-1","placename":"532-1 Futatsugi, Matsudo, Chiba Prefecture, Japan","title":"\u30c8\u30de\u30c8\u3000\uff11\u500b\uff20\u25cb\u25cb\u53d6\u5f15\u5148"}},{"type":"Feature","geometry":{"type":"Point","coordinates":[139.6512586,35.3471075]},"properties":{"address":"\u795e\u5948\u5ddd\u770c\u6a2a\u6d5c\u5e02\u91d1\u6ca2\u533a\u798f\u6d662\u4e01\u76ee9-7","placename":"Japan, Kanagawa Prefecture, Yokohama, Kanazawa Ward, Fukuura, \uff12\u4e01\u76ee9","title":"\u30c8\u30de\u30c8\u3000\uff11\u500b\uff20\u25cb\u25cb\u30bb\u30f3\u30bf\u30fc"}},{"type":"Feature","geometry":{"type":"Point","coordinates":[140.4849822,35.836197900003]},"properties":{"address":"\u5343\u8449\u770c\u9999\u53d6\u5e02\u798f\u7530724\u756a\u57302","placename":"Fukuda, Katori, Chiba Prefecture, Japan","title":"\u25cb\u25cb\u30d5\u30a1\u30fc\u30e0\u3000\u7389\u8471\uff20\u25cb\u25cb\u30d5\u30a1\u30fc\u30e0\u5343\u8449"}},{"type":"Feature","geometry":{"type":"Point","coordinates":[139.6512586,35.3471075]},"properties":{"address":"\u795e\u5948\u5ddd\u770c\u6a2a\u6d5c\u5e02\u91d1\u6ca2\u533a\u798f\u6d662\u4e01\u76ee9-7","placename":"Japan, Kanagawa Prefecture, Yokohama, Kanazawa Ward, Fukuura, \uff12\u4e01\u76ee9","title":"\u25cb\u25cb\u30d5\u30a1\u30fc\u30e0\u3000\u7389\u8471\uff20\u25cb\u25cb\u30bb\u30f3\u30bf\u30fc"}},{"type":"Feature","geometry":{"type":"Point","coordinates":[140.4849822,35.836197900003]},"properties":{"address":"\u5343\u8449\u770c\u9999\u53d6\u5e02\u798f\u7530724\u756a\u57302","placename":"Fukuda, Katori, Chiba Prefecture, Japan","title":"\u25cb\u25cb\u30d5\u30a1\u30fc\u30e0\u307b\u3046\u308c\u3093\u8349\u3000\u3000\uff11\u888b\uff20\u25cb\u25cb\u30d5\u30a1\u30fc\u30e0\u5343\u8449"}},{"type":"Feature","geometry":{"type":"Point","coordinates":[139.6512586,35.3471075]},"properties":{"address":"\u795e\u5948\u5ddd\u770c\u6a2a\u6d5c\u5e02\u91d1\u6ca2\u533a\u798f\u6d662\u4e01\u76ee9-7","placename":"Japan, Kanagawa Prefecture, Yokohama, Kanazawa Ward, Fukuura, \uff12\u4e01\u76ee9","title":"\u25cb\u25cb\u30d5\u30a1\u30fc\u30e0\u307b\u3046\u308c\u3093\u8349\u3000\u3000\uff11\u888b\uff20\u25cb\u25cb\u30bb\u30f3\u30bf\u30fc"}},{"type":"Feature","geometry":{"type":"Point","coordinates":[139.7445849,36.114057400003]},"properties":{"address":"\u8328\u57ce\u770c\u733f\u5cf6\u90e1\u4e94\u971e\u753a\u65b0\u5e78\u8c37\uff14\uff15\uff13","placename":"453 Shinkoya, Goka, Sashima District, Ibaraki Prefecture, Japan","title":"\u9032\u5316\u578b\u3000\u8c46\u82d7\uff20JA\u25cb\u25cb"}},{"type":"Feature","geometry":{"type":"Point","coordinates":[139.9277842,35.817851399997]},"properties":{"address":"\u5343\u8449\u770c\u677e\u6238\u5e02\u4e8c\u30c4\u6728 532-1","placename":"532-1 Futatsugi, Matsudo, Chiba Prefecture, Japan","title":"\u9032\u5316\u578b\u3000\u8c46\u82d7\uff20\u25cb\u25cb\u53d6\u5f15\u5148"}},{"type":"Feature","geometry":{"type":"Point","coordinates":[139.6512586,35.3471075]},"properties":{"address":"\u795e\u5948\u5ddd\u770c\u6a2a\u6d5c\u5e02\u91d1\u6ca2\u533a\u798f\u6d662\u4e01\u76ee9-7","placename":"Japan, Kanagawa Prefecture, Yokohama, Kanazawa Ward, Fukuura, \uff12\u4e01\u76ee9","title":"\u9032\u5316\u578b\u3000\u8c46\u82d7\uff20\u25cb\u25cb\u30bb\u30f3\u30bf\u30fc"}},{"type":"Feature","geometry":{"type":"Point","coordinates":[140.4849822,35.836197900003]},"properties":{"address":"\u5343\u8449\u770c\u9999\u53d6\u5e02\u798f\u7530724\u756a\u57302","placename":"Fukuda, Katori, Chiba Prefecture, Japan","title":"\u25cb\u25cb\u30d5\u30a1\u30fc\u30e0\u306b\u3093\u3058\u3093\u3000\u3000\u3000\uff11\uff14\uff18\u5186\uff20\u25cb\u25cb\u30d5\u30a1\u30fc\u30e0\u5343\u8449"}},{"type":"Feature","geometry":{"type":"Point","coordinates":[139.7445849,36.114057400003]},"properties":{"address":"\u8328\u57ce\u770c\u733f\u5cf6\u90e1\u4e94\u971e\u753a\u65b0\u5e78\u8c37\uff14\uff15\uff13","placename":"453 Shinkoya, Goka, Sashima District, Ibaraki Prefecture, Japan","title":"\u30df\u30cb\u30c8\u30de\u30c8\u3000\uff11\uff10\uff10\uff47\uff20JA\u25cb\u25cb"}},{"type":"Feature","geometry":{"type":"Point","coordinates":[139.9277842,35.817851399997]},"properties":{"address":"\u5343\u8449\u770c\u677e\u6238\u5e02\u4e8c\u30c4\u6728 532-1","placename":"532-1 Futatsugi, Matsudo, Chiba Prefecture, Japan","title":"\u30df\u30cb\u30c8\u30de\u30c8\u3000\uff11\uff10\uff10\uff47\uff20\u25cb\u25cb\u53d6\u5f15\u5148"}},{"type":"Feature","geometry":{"type":"Point","coordinates":[139.7445849,36.114057400003]},"properties":{"address":"\u8328\u57ce\u770c\u733f\u5cf6\u90e1\u4e94\u971e\u753a\u65b0\u5e78\u8c37\uff14\uff15\uff13","placename":"453 Shinkoya, Goka, Sashima District, Ibaraki Prefecture, Japan","title":"\u30c8\u30de\u30c8\u3000\uff11\u500b\uff20JA\u25cb\u25cb"}},{"type":"Feature","geometry":{"type":"Point","coordinates":[139.9277842,35.817851399997]},"properties":{"address":"\u5343\u8449\u770c\u677e\u6238\u5e02\u4e8c\u30c4\u6728 532-1","placename":"532-1 Futatsugi, Matsudo, Chiba Prefecture, Japan","title":"\u30c8\u30de\u30c8\u3000\uff11\u500b\uff20\u25cb\u25cb\u53d6\u5f15\u5148"}},{"type":"Feature","geometry":{"type":"Point","coordinates":[140.4849822,35.836197900003]},"properties":{"address":"\u5343\u8449\u770c\u9999\u53d6\u5e02\u798f\u7530724\u756a\u57302","placename":"Fukuda, Katori, Chiba Prefecture, Japan","title":"\u25cb\u25cb\u30d5\u30a1\u30fc\u30e0\u3000\u7537\u7235\u828b\uff20\u25cb\u25cb\u30d5\u30a1\u30fc\u30e0\u5343\u8449"}},{"type":"Feature","geometry":{"type":"Point","coordinates":[139.634354,35.599225800003]},"properties":{"address":"\u795e\u5948\u5ddd\u770c\u5ddd\u5d0e\u5e02\u9ad8\u6d25\u533a\u5317\u898b\u65b9\uff13\u4e01\u76ee\uff11\uff14\uff0d\uff11","placename":"Japan, Kanagawa Prefecture, Kawasaki, Takatsu Ward, Kitamigata, \uff13\u4e01\u76ee14\u22121","title":"\u25cb\u25cb\u30d5\u30a1\u30fc\u30e0\u3000\u7537\u7235\u828b\uff20\u25cb\u25cb\u30bb\u30f3\u30bf\u30fc"}},{"type":"Feature","geometry":{"type":"Point","coordinates":[140.4849822,35.836197900003]},"properties":{"address":"\u5343\u8449\u770c\u9999\u53d6\u5e02\u798f\u7530724\u756a\u57302","placename":"Fukuda, Katori, Chiba Prefecture, Japan","title":"\u25cb\u25cb\u30d5\u30a1\u30fc\u30e0\u5c0f\u677e\u83dc\u3000\uff11\u888b\uff20\u25cb\u25cb\u30d5\u30a1\u30fc\u30e0\u5343\u8449"}},{"type":"Feature","geometry":{"type":"Point","coordinates":[139.634354,35.599225800003]},"properties":{"address":"\u795e\u5948\u5ddd\u770c\u5ddd\u5d0e\u5e02\u9ad8\u6d25\u533a\u5317\u898b\u65b9\uff13\u4e01\u76ee\uff11\uff14\uff0d\uff11","placename":"Japan, Kanagawa Prefecture, Kawasaki, Takatsu Ward, Kitamigata, \uff13\u4e01\u76ee14\u22121","title":"\u25cb\u25cb\u30d5\u30a1\u30fc\u30e0\u5c0f\u677e\u83dc\u3000\uff11\u888b\uff20\u25cb\u25cb\u30bb\u30f3\u30bf\u30fc"}},{"type":"Feature","geometry":{"type":"Point","coordinates":[139.7445849,36.114057400003]},"properties":{"address":"\u8328\u57ce\u770c\u733f\u5cf6\u90e1\u4e94\u971e\u753a\u65b0\u5e78\u8c37\uff14\uff15\uff13","placename":"453 Shinkoya, Goka, Sashima District, Ibaraki Prefecture, Japan","title":"\u9032\u5316\u578b\u3000\u30b4\u30dc\u30a6\uff20JA\u25cb\u25cb"}},{"type":"Feature","geometry":{"type":"Point","coordinates":[139.9277842,35.817851399997]},"properties":{"address":"\u5343\u8449\u770c\u677e\u6238\u5e02\u4e8c\u30c4\u6728 532-1","placename":"532-1 Futatsugi, Matsudo, Chiba Prefecture, Japan","title":"\u9032\u5316\u578b\u3000\u30b4\u30dc\u30a6\uff20\u25cb\u25cb\u53d6\u5f15\u5148"}},{"type":"Feature","geometry":{"type":"Point","coordinates":[139.634354,35.599225800003]},"properties":{"address":"\u795e\u5948\u5ddd\u770c\u5ddd\u5d0e\u5e02\u9ad8\u6d25\u533a\u5317\u898b\u65b9\uff13\u4e01\u76ee\uff11\uff14\uff0d\uff11","placename":"Japan, Kanagawa Prefecture, Kawasaki, Takatsu Ward, Kitamigata, \uff13\u4e01\u76ee14\u22121","title":"\u9032\u5316\u578b\u3000\u30b4\u30dc\u30a6\uff20\u25cb\u25cb\u30bb\u30f3\u30bf\u30fc"}},{"type":"Feature","geometry":{"type":"Point","coordinates":[139.7445849,36.114057400003]},"properties":{"address":"\u8328\u57ce\u770c\u733f\u5cf6\u90e1\u4e94\u971e\u753a\u65b0\u5e78\u8c37\uff14\uff15\uff13","placename":"453 Shinkoya, Goka, Sashima District, Ibaraki Prefecture, Japan","title":"\u9032\u5316\u578b\u3000\u3076\u306a\u3057\u3081\u3058\uff20JA\u25cb\u25cb"}},{"type":"Feature","geometry":{"type":"Point","coordinates":[139.9277842,35.817851399997]},"properties":{"address":"\u5343\u8449\u770c\u677e\u6238\u5e02\u4e8c\u30c4\u6728 532-1","placename":"532-1 Futatsugi, Matsudo, Chiba Prefecture, Japan","title":"\u9032\u5316\u578b\u3000\u3076\u306a\u3057\u3081\u3058\uff20\u25cb\u25cb\u53d6\u5f15\u5148"}},{"type":"Feature","geometry":{"type":"Point","coordinates":[139.634354,35.599225800003]},"properties":{"address":"\u795e\u5948\u5ddd\u770c\u5ddd\u5d0e\u5e02\u9ad8\u6d25\u533a\u5317\u898b\u65b9\uff13\u4e01\u76ee\uff11\uff14\uff0d\uff11","placename":"Japan, Kanagawa Prefecture, Kawasaki, Takatsu Ward, Kitamigata, \uff13\u4e01\u76ee14\u22121","title":"\u9032\u5316\u578b\u3000\u3076\u306a\u3057\u3081\u3058\uff20\u25cb\u25cb\u30bb\u30f3\u30bf\u30fc"}},{"type":"Feature","geometry":{"type":"Point","coordinates":[139.7445849,36.114057400003]},"properties":{"address":"\u8328\u57ce\u770c\u733f\u5cf6\u90e1\u4e94\u971e\u753a\u65b0\u5e78\u8c37\uff14\uff15\uff13","placename":"453 Shinkoya, Goka, Sashima District, Ibaraki Prefecture, Japan","title":"\u9032\u5316\u578b\u3000\u30a8\u30ce\u30ad\uff20JA\u25cb\u25cb"}},{"type":"Feature","geometry":{"type":"Point","coordinates":[139.9277842,35.817851399997]},"properties":{"address":"\u5343\u8449\u770c\u677e\u6238\u5e02\u4e8c\u30c4\u6728 532-1","placename":"532-1 Futatsugi, Matsudo, Chiba Prefecture, Japan","title":"\u9032\u5316\u578b\u3000\u30a8\u30ce\u30ad\uff20\u25cb\u25cb\u53d6\u5f15\u5148"}},{"type":"Feature","geometry":{"type":"Point","coordinates":[139.634354,35.599225800003]},"properties":{"address":"\u795e\u5948\u5ddd\u770c\u5ddd\u5d0e\u5e02\u9ad8\u6d25\u533a\u5317\u898b\u65b9\uff13\u4e01\u76ee\uff11\uff14\uff0d\uff11","placename":"Japan, Kanagawa Prefecture, Kawasaki, Takatsu Ward, Kitamigata, \uff13\u4e01\u76ee14\u22121","title":"\u9032\u5316\u578b\u3000\u30a8\u30ce\u30ad\uff20\u25cb\u25cb\u30bb\u30f3\u30bf\u30fc"}},{"type":"Feature","geometry":{"type":"Point","coordinates":[139.7445849,36.114057400003]},"properties":{"address":"\u8328\u57ce\u770c\u733f\u5cf6\u90e1\u4e94\u971e\u753a\u65b0\u5e78\u8c37\uff14\uff15\uff13","placename":"453 Shinkoya, Goka, Sashima District, Ibaraki Prefecture, Japan","title":"\u9032\u5316\u578b\u3000\u9577\u306d\u304e\uff20JA\u25cb\u25cb"}},{"type":"Feature","geometry":{"type":"Point","coordinates":[139.9277842,35.817851399997]},"properties":{"address":"\u5343\u8449\u770c\u677e\u6238\u5e02\u4e8c\u30c4\u6728 532-1","placename":"532-1 Futatsugi, Matsudo, Chiba Prefecture, Japan","title":"\u9032\u5316\u578b\u3000\u9577\u306d\u304e\uff20\u25cb\u25cb\u53d6\u5f15\u5148"}},{"type":"Feature","geometry":{"type":"Point","coordinates":[139.7445849,36.114057400003]},"properties":{"address":"\u8328\u57ce\u770c\u733f\u5cf6\u90e1\u4e94\u971e\u753a\u65b0\u5e78\u8c37\uff14\uff15\uff13","placename":"453 Shinkoya, Goka, Sashima District, Ibaraki Prefecture, Japan","title":"\u9032\u5316\u578b\u3000\u751f\u690e\u8338\uff20JA\u25cb\u25cb"}},{"type":"Feature","geometry":{"type":"Point","coordinates":[139.9277842,35.817851399997]},"properties":{"address":"\u5343\u8449\u770c\u677e\u6238\u5e02\u4e8c\u30c4\u6728 532-1","placename":"532-1 Futatsugi, Matsudo, Chiba Prefecture, Japan","title":"\u9032\u5316\u578b\u3000\u751f\u690e\u8338\uff20\u25cb\u25cb\u53d6\u5f15\u5148"}},{"type":"Feature","geometry":{"type":"Point","coordinates":[139.634354,35.599225800003]},"properties":{"address":"\u795e\u5948\u5ddd\u770c\u5ddd\u5d0e\u5e02\u9ad8\u6d25\u533a\u5317\u898b\u65b9\uff13\u4e01\u76ee\uff11\uff14\uff0d\uff11","placename":"Japan, Kanagawa Prefecture, Kawasaki, Takatsu Ward, Kitamigata, \uff13\u4e01\u76ee14\u22121","title":"\u9032\u5316\u578b\u3000\u751f\u690e\u8338\uff20\u25cb\u25cb\u30bb\u30f3\u30bf\u30fc"}},{"type":"Feature","geometry":{"type":"Point","coordinates":[139.7445849,36.114057400003]},"properties":{"address":"\u8328\u57ce\u770c\u733f\u5cf6\u90e1\u4e94\u971e\u753a\u65b0\u5e78\u8c37\uff14\uff15\uff13","placename":"453 Shinkoya, Goka, Sashima District, Ibaraki Prefecture, Japan","title":"\u8304\u5b50\u3000\uff12\u500b\uff20JA\u25cb\u25cb"}},{"type":"Feature","geometry":{"type":"Point","coordinates":[139.9277842,35.817851399997]},"properties":{"address":"\u5343\u8449\u770c\u677e\u6238\u5e02\u4e8c\u30c4\u6728 532-1","placename":"532-1 Futatsugi, Matsudo, Chiba Prefecture, Japan","title":"\u8304\u5b50\u3000\uff12\u500b\uff20\u25cb\u25cb\u53d6\u5f15\u5148"}},{"type":"Feature","geometry":{"type":"Point","coordinates":[139.7445849,36.114057400003]},"properties":{"address":"\u8328\u57ce\u770c\u733f\u5cf6\u90e1\u4e94\u971e\u753a\u65b0\u5e78\u8c37\uff14\uff15\uff13","placename":"453 Shinkoya, Goka, Sashima District, Ibaraki Prefecture, Japan","title":"\u9032\u5316\u578b\u3000\u307e\u3044\u305f\u3051\uff20JA\u25cb\u25cb"}},{"type":"Feature","geometry":{"type":"Point","coordinates":[139.9277842,35.817851399997]},"properties":{"address":"\u5343\u8449\u770c\u677e\u6238\u5e02\u4e8c\u30c4\u6728 532-1","placename":"532-1 Futatsugi, Matsudo, Chiba Prefecture, Japan","title":"\u9032\u5316\u578b\u3000\u307e\u3044\u305f\u3051\uff20\u25cb\u25cb\u53d6\u5f15\u5148"}},{"type":"Feature","geometry":{"type":"Point","coordinates":[139.2193063,36.302101799998]},"properties":{"address":"\u7fa4\u99ac\u770c\u4f0a\u52e2\u5d0e\u5e02\u5317\u5343\u6728\u753a\uff11\uff14\uff13\uff15","placename":"1435 Kitasengicho, Isesaki, Gunma Prefecture, Japan","title":"\u9032\u5316\u578b\u3000\u307e\u3044\u305f\u3051\uff20\u25cb\u25cb\u30bb\u30f3\u30bf\u30fc"}},{"type":"Feature","geometry":{"type":"Point","coordinates":[139.7445849,36.114057400003]},"properties":{"address":"\u8328\u57ce\u770c\u733f\u5cf6\u90e1\u4e94\u971e\u753a\u65b0\u5e78\u8c37\uff14\uff15\uff13","placename":"453 Shinkoya, Goka, Sashima District, Ibaraki Prefecture, Japan","title":"\u9032\u5316\u578b\u3000\u30a8\u30ce\u30ad\uff20JA\u25cb\u25cb"}},{"type":"Feature","geometry":{"type":"Point","coordinates":[139.9277842,35.817851399997]},"properties":{"address":"\u5343\u8449\u770c\u677e\u6238\u5e02\u4e8c\u30c4\u6728 532-1","placename":"532-1 Futatsugi, Matsudo, Chiba Prefecture, Japan","title":"\u9032\u5316\u578b\u3000\u30a8\u30ce\u30ad\uff20\u25cb\u25cb\u53d6\u5f15\u5148"}},{"type":"Feature","geometry":{"type":"Point","coordinates":[139.2193063,36.302101799998]},"properties":{"address":"\u7fa4\u99ac\u770c\u4f0a\u52e2\u5d0e\u5e02\u5317\u5343\u6728\u753a\uff11\uff14\uff13\uff15","placename":"1435 Kitasengicho, Isesaki, Gunma Prefecture, Japan","title":"\u9032\u5316\u578b\u3000\u30a8\u30ce\u30ad\uff20\u25cb\u25cb\u30bb\u30f3\u30bf\u30fc"}},{"type":"Feature","geometry":{"type":"Point","coordinates":[139.7445849,36.114057400003]},"properties":{"address":"\u8328\u57ce\u770c\u733f\u5cf6\u90e1\u4e94\u971e\u753a\u65b0\u5e78\u8c37\uff14\uff15\uff13","placename":"453 Shinkoya, Goka, Sashima District, Ibaraki Prefecture, Japan","title":"\u8304\u5b50\u3000\uff12\u500b\uff20JA\u25cb\u25cb"}},{"type":"Feature","geometry":{"type":"Point","coordinates":[139.9277842,35.817851399997]},"properties":{"address":"\u5343\u8449\u770c\u677e\u6238\u5e02\u4e8c\u30c4\u6728 532-1","placename":"532-1 Futatsugi, Matsudo, Chiba Prefecture, Japan","title":"\u8304\u5b50\u3000\uff12\u500b\uff20\u25cb\u25cb\u53d6\u5f15\u5148"}},{"type":"Feature","geometry":{"type":"Point","coordinates":[139.2193063,36.302101799998]},"properties":{"address":"\u7fa4\u99ac\u770c\u4f0a\u52e2\u5d0e\u5e02\u5317\u5343\u6728\u753a\uff11\uff14\uff13\uff15","placename":"1435 Kitasengicho, Isesaki, Gunma Prefecture, Japan","title":"\u8304\u5b50\u3000\uff12\u500b\uff20\u25cb\u25cb\u30bb\u30f3\u30bf\u30fc"}},{"type":"Feature","geometry":{"type":"Point","coordinates":[140.4849822,35.836197900003]},"properties":{"address":"\u5343\u8449\u770c\u9999\u53d6\u5e02\u798f\u7530724\u756a\u57302","placename":"Fukuda, Katori, Chiba Prefecture, Japan","title":"\u25cb\u25cb\u30d5\u30a1\u30fc\u30e0\u306b\u3093\u3058\u3093\u3000\u3000\u3000\uff11\uff14\uff18\u5186\uff20\u25cb\u25cb\u30d5\u30a1\u30fc\u30e0\u5343\u8449"}},{"type":"Feature","geometry":{"type":"Point","coordinates":[139.6512586,35.3471075]},"properties":{"address":"\u795e\u5948\u5ddd\u770c\u6a2a\u6d5c\u5e02\u91d1\u6ca2\u533a\u798f\u6d662\u4e01\u76ee9-7","placename":"Japan, Kanagawa Prefecture, Yokohama, Kanazawa Ward, Fukuura, \uff12\u4e01\u76ee9","title":"\u25cb\u25cb\u30d5\u30a1\u30fc\u30e0\u306b\u3093\u3058\u3093\u3000\u3000\u3000\uff11\uff14\uff18\u5186\uff20\u25cb\u25cb\u30bb\u30f3\u30bf\u30fc"}},{"type":"Feature","geometry":{"type":"Point","coordinates":[139.7445849,36.114057400003]},"properties":{"address":"\u8328\u57ce\u770c\u733f\u5cf6\u90e1\u4e94\u971e\u753a\u65b0\u5e78\u8c37\uff14\uff15\uff13","placename":"453 Shinkoya, Goka, Sashima District, Ibaraki Prefecture, Japan","title":"\u8304\u5b50\u3000\uff12\u500b\uff20JA\u25cb\u25cb"}},{"type":"Feature","geometry":{"type":"Point","coordinates":[139.9277842,35.817851399997]},"properties":{"address":"\u5343\u8449\u770c\u677e\u6238\u5e02\u4e8c\u30c4\u6728 532-1","placename":"532-1 Futatsugi, Matsudo, Chiba Prefecture, Japan","title":"\u8304\u5b50\u3000\uff12\u500b\uff20\u25cb\u25cb\u53d6\u5f15\u5148"}},{"type":"Feature","geometry":{"type":"Point","coordinates":[140.4849822,35.836197900003]},"properties":{"address":"\u5343\u8449\u770c\u9999\u53d6\u5e02\u798f\u7530724\u756a\u57302","placename":"Fukuda, Katori, Chiba Prefecture, Japan","title":"\u25cb\u25cb\u30d5\u30a1\u30fc\u30e0\u3000\u7537\u7235\u828b\uff20\u25cb\u25cb\u30d5\u30a1\u30fc\u30e0\u5343\u8449"}},{"type":"Feature","geometry":{"type":"Point","coordinates":[139.6512586,35.3471075]},"properties":{"address":"\u795e\u5948\u5ddd\u770c\u6a2a\u6d5c\u5e02\u91d1\u6ca2\u533a\u798f\u6d662\u4e01\u76ee9-7","placename":"Japan, Kanagawa Prefecture, Yokohama, Kanazawa Ward, Fukuura, \uff12\u4e01\u76ee9","title":"\u25cb\u25cb\u30d5\u30a1\u30fc\u30e0\u3000\u7537\u7235\u828b\uff20\u25cb\u25cb\u30bb\u30f3\u30bf\u30fc"}},{"type":"Feature","geometry":{"type":"Point","coordinates":[140.4849822,35.836197900003]},"properties":{"address":"\u5343\u8449\u770c\u9999\u53d6\u5e02\u798f\u7530724\u756a\u57302","placename":"Fukuda, Katori, Chiba Prefecture, Japan","title":"\u25cb\u25cb\u30d5\u30a1\u30fc\u30e0\u306b\u3093\u3058\u3093\u3000\u3000\u3000\uff11\uff14\uff18\u5186\uff20\u25cb\u25cb\u30d5\u30a1\u30fc\u30e0\u5343\u8449"}},{"type":"Feature","geometry":{"type":"Point","coordinates":[139.634354,35.599225800003]},"properties":{"address":"\u795e\u5948\u5ddd\u770c\u5ddd\u5d0e\u5e02\u9ad8\u6d25\u533a\u5317\u898b\u65b9\uff13\u4e01\u76ee\uff11\uff14\uff0d\uff11","placename":"Japan, Kanagawa Prefecture, Kawasaki, Takatsu Ward, Kitamigata, \uff13\u4e01\u76ee14\u22121","title":"\u25cb\u25cb\u30d5\u30a1\u30fc\u30e0\u306b\u3093\u3058\u3093\u3000\u3000\u3000\uff11\uff14\uff18\u5186\uff20\u25cb\u25cb\u30bb\u30f3\u30bf\u30fc"}},{"type":"Feature","geometry":{"type":"Point","coordinates":[139.7445849,36.114057400003]},"properties":{"address":"\u8328\u57ce\u770c\u733f\u5cf6\u90e1\u4e94\u971e\u753a\u65b0\u5e78\u8c37\uff14\uff15\uff13","placename":"453 Shinkoya, Goka, Sashima District, Ibaraki Prefecture, Japan","title":"\u30df\u30cb\u30c8\u30de\u30c8\u3000\uff11\uff10\uff10\uff47\uff20JA\u25cb\u25cb"}},{"type":"Feature","geometry":{"type":"Point","coordinates":[139.9277842,35.817851399997]},"properties":{"address":"\u5343\u8449\u770c\u677e\u6238\u5e02\u4e8c\u30c4\u6728 532-1","placename":"532-1 Futatsugi, Matsudo, Chiba Prefecture, Japan","title":"\u30df\u30cb\u30c8\u30de\u30c8\u3000\uff11\uff10\uff10\uff47\uff20\u25cb\u25cb\u53d6\u5f15\u5148"}},{"type":"Feature","geometry":{"type":"Point","coordinates":[139.634354,35.599225800003]},"properties":{"address":"\u795e\u5948\u5ddd\u770c\u5ddd\u5d0e\u5e02\u9ad8\u6d25\u533a\u5317\u898b\u65b9\uff13\u4e01\u76ee\uff11\uff14\uff0d\uff11","placename":"Japan, Kanagawa Prefecture, Kawasaki, Takatsu Ward, Kitamigata, \uff13\u4e01\u76ee14\u22121","title":"\u30df\u30cb\u30c8\u30de\u30c8\u3000\uff11\uff10\uff10\uff47\uff20\u25cb\u25cb\u30bb\u30f3\u30bf\u30fc"}},{"type":"Feature","geometry":{"type":"Point","coordinates":[139.7445849,36.114057400003]},"properties":{"address":"\u8328\u57ce\u770c\u733f\u5cf6\u90e1\u4e94\u971e\u753a\u65b0\u5e78\u8c37\uff14\uff15\uff13","placename":"453 Shinkoya, Goka, Sashima District, Ibaraki Prefecture, Japan","title":"\u30c8\u30de\u30c8\u3000\uff11\u500b\uff20JA\u25cb\u25cb"}},{"type":"Feature","geometry":{"type":"Point","coordinates":[139.9277842,35.817851399997]},"properties":{"address":"\u5343\u8449\u770c\u677e\u6238\u5e02\u4e8c\u30c4\u6728 532-1","placename":"532-1 Futatsugi, Matsudo, Chiba Prefecture, Japan","title":"\u30c8\u30de\u30c8\u3000\uff11\u500b\uff20\u25cb\u25cb\u53d6\u5f15\u5148"}},{"type":"Feature","geometry":{"type":"Point","coordinates":[139.634354,35.599225800003]},"properties":{"address":"\u795e\u5948\u5ddd\u770c\u5ddd\u5d0e\u5e02\u9ad8\u6d25\u533a\u5317\u898b\u65b9\uff13\u4e01\u76ee\uff11\uff14\uff0d\uff11","placename":"Japan, Kanagawa Prefecture, Kawasaki, Takatsu Ward, Kitamigata, \uff13\u4e01\u76ee14\u22121","title":"\u30c8\u30de\u30c8\u3000\uff11\u500b\uff20\u25cb\u25cb\u30bb\u30f3\u30bf\u30fc"}},{"type":"Feature","geometry":{"type":"Point","coordinates":[139.7445849,36.114057400003]},"properties":{"address":"\u8328\u57ce\u770c\u733f\u5cf6\u90e1\u4e94\u971e\u753a\u65b0\u5e78\u8c37\uff14\uff15\uff13","placename":"453 Shinkoya, Goka, Sashima District, Ibaraki Prefecture, Japan","title":"\u9032\u5316\u578b\u3000\u751f\u59dc\uff20JA\u25cb\u25cb"}},{"type":"Feature","geometry":{"type":"Point","coordinates":[139.9277842,35.817851399997]},"properties":{"address":"\u5343\u8449\u770c\u677e\u6238\u5e02\u4e8c\u30c4\u6728 532-1","placename":"532-1 Futatsugi, Matsudo, Chiba Prefecture, Japan","title":"\u9032\u5316\u578b\u3000\u751f\u59dc\uff20\u25cb\u25cb\u53d6\u5f15\u5148"}},{"type":"Feature","geometry":{"type":"Point","coordinates":[139.634354,35.599225800003]},"properties":{"address":"\u795e\u5948\u5ddd\u770c\u5ddd\u5d0e\u5e02\u9ad8\u6d25\u533a\u5317\u898b\u65b9\uff13\u4e01\u76ee\uff11\uff14\uff0d\uff11","placename":"Japan, Kanagawa Prefecture, Kawasaki, Takatsu Ward, Kitamigata, \uff13\u4e01\u76ee14\u22121","title":"\u9032\u5316\u578b\u3000\u751f\u59dc\uff20\u25cb\u25cb\u30bb\u30f3\u30bf\u30fc"}},{"type":"Feature","geometry":{"type":"Point","coordinates":[139.7445849,36.114057400003]},"properties":{"address":"\u8328\u57ce\u770c\u733f\u5cf6\u90e1\u4e94\u971e\u753a\u65b0\u5e78\u8c37\uff14\uff15\uff13","placename":"453 Shinkoya, Goka, Sashima District, Ibaraki Prefecture, Japan","title":"\u9032\u5316\u578b\u3000\u9577\u306d\u304e\uff20JA\u25cb\u25cb"}},{"type":"Feature","geometry":{"type":"Point","coordinates":[139.9277842,35.817851399997]},"properties":{"address":"\u5343\u8449\u770c\u677e\u6238\u5e02\u4e8c\u30c4\u6728 532-1","placename":"532-1 Futatsugi, Matsudo, Chiba Prefecture, Japan","title":"\u9032\u5316\u578b\u3000\u9577\u306d\u304e\uff20\u25cb\u25cb\u53d6\u5f15\u5148"}},{"type":"Feature","geometry":{"type":"Point","coordinates":[140.4849822,35.836197900003]},"properties":{"address":"\u5343\u8449\u770c\u9999\u53d6\u5e02\u798f\u7530724\u756a\u57302","placename":"Fukuda, Katori, Chiba Prefecture, Japan","title":"\u25cb\u25cb\u30d5\u30a1\u30fc\u30e0\u306b\u3093\u3058\u3093\u3000\u3000\u3000\uff11\uff14\uff18\u5186\uff20\u25cb\u25cb\u30d5\u30a1\u30fc\u30e0\u5343\u8449"}},{"type":"Feature","geometry":{"type":"Point","coordinates":[139.9310099,35.7219115]},"properties":{"address":"\u5343\u8449\u770c\u5e02\u5ddd\u5e02","placename":"Ichikawa, Chiba Prefecture, Japan","title":"\u25cb\u25cb\u30d5\u30a1\u30fc\u30e0\u306b\u3093\u3058\u3093\u3000\u3000\u3000\uff11\uff14\uff18\u5186\uff20\u25cb\u25cb\u30bb\u30f3\u30bf\u30fc"}},{"type":"Feature","geometry":{"type":"Point","coordinates":[139.7445849,36.114057400003]},"properties":{"address":"\u8328\u57ce\u770c\u733f\u5cf6\u90e1\u4e94\u971e\u753a\u65b0\u5e78\u8c37\uff14\uff15\uff13","placename":"453 Shinkoya, Goka, Sashima District, Ibaraki Prefecture, Japan","title":"\u6c34\u83dc\u3000\uff11\uff10\uff10\uff47\uff20JA\u25cb\u25cb"}},{"type":"Feature","geometry":{"type":"Point","coordinates":[139.9277842,35.817851399997]},"properties":{"address":"\u5343\u8449\u770c\u677e\u6238\u5e02\u4e8c\u30c4\u6728 532-1","placename":"532-1 Futatsugi, Matsudo, Chiba Prefecture, Japan","title":"\u6c34\u83dc\u3000\uff11\uff10\uff10\uff47\uff20\u25cb\u25cb\u53d6\u5f15\u5148"}},{"type":"Feature","geometry":{"type":"Point","coordinates":[139.9310099,35.7219115]},"properties":{"address":"\u5343\u8449\u770c\u5e02\u5ddd\u5e02","placename":"Ichikawa, Chiba Prefecture, Japan","title":"\u6c34\u83dc\u3000\uff11\uff10\uff10\uff47\uff20\u25cb\u25cb\u30bb\u30f3\u30bf\u30fc"}},{"type":"Feature","geometry":{"type":"Point","coordinates":[139.7445849,36.114057400003]},"properties":{"address":"\u8328\u57ce\u770c\u733f\u5cf6\u90e1\u4e94\u971e\u753a\u65b0\u5e78\u8c37\uff14\uff15\uff13","placename":"453 Shinkoya, Goka, Sashima District, Ibaraki Prefecture, Japan","title":"\u30df\u30cb\u30c8\u30de\u30c8\u3000\uff11\uff10\uff10\uff47\uff20JA\u25cb\u25cb"}},{"type":"Feature","geometry":{"type":"Point","coordinates":[139.9277842,35.817851399997]},"properties":{"address":"\u5343\u8449\u770c\u677e\u6238\u5e02\u4e8c\u30c4\u6728 532-1","placename":"532-1 Futatsugi, Matsudo, Chiba Prefecture, Japan","title":"\u30df\u30cb\u30c8\u30de\u30c8\u3000\uff11\uff10\uff10\uff47\uff20\u25cb\u25cb\u53d6\u5f15\u5148"}},{"type":"Feature","geometry":{"type":"Point","coordinates":[139.9310099,35.7219115]},"properties":{"address":"\u5343\u8449\u770c\u5e02\u5ddd\u5e02","placename":"Ichikawa, Chiba Prefecture, Japan","title":"\u30df\u30cb\u30c8\u30de\u30c8\u3000\uff11\uff10\uff10\uff47\uff20\u25cb\u25cb\u30bb\u30f3\u30bf\u30fc"}},{"type":"Feature","geometry":{"type":"Point","coordinates":[139.7445849,36.114057400003]},"properties":{"address":"\u8328\u57ce\u770c\u733f\u5cf6\u90e1\u4e94\u971e\u753a\u65b0\u5e78\u8c37\uff14\uff15\uff13","placename":"453 Shinkoya, Goka, Sashima District, Ibaraki Prefecture, Japan","title":"\u30c8\u30de\u30c8\u3000\uff11\u500b\uff20JA\u25cb\u25cb"}},{"type":"Feature","geometry":{"type":"Point","coordinates":[139.9277842,35.817851399997]},"properties":{"address":"\u5343\u8449\u770c\u677e\u6238\u5e02\u4e8c\u30c4\u6728 532-1","placename":"532-1 Futatsugi, Matsudo, Chiba Prefecture, Japan","title":"\u30c8\u30de\u30c8\u3000\uff11\u500b\uff20\u25cb\u25cb\u53d6\u5f15\u5148"}},{"type":"Feature","geometry":{"type":"Point","coordinates":[139.9310099,35.7219115]},"properties":{"address":"\u5343\u8449\u770c\u5e02\u5ddd\u5e02","placename":"Ichikawa, Chiba Prefecture, Japan","title":"\u30c8\u30de\u30c8\u3000\uff11\u500b\uff20\u25cb\u25cb\u30bb\u30f3\u30bf\u30fc"}},{"type":"Feature","geometry":{"type":"Point","coordinates":[140.4849822,35.836197900003]},"properties":{"address":"\u5343\u8449\u770c\u9999\u53d6\u5e02\u798f\u7530724\u756a\u57302","placename":"Fukuda, Katori, Chiba Prefecture, Japan","title":"\u25cb\u25cb\u30d5\u30a1\u30fc\u30e0\u3000\u5927\u6839\uff11\uff0f\uff12\uff20\u25cb\u25cb\u30d5\u30a1\u30fc\u30e0\u5343\u8449"}},{"type":"Feature","geometry":{"type":"Point","coordinates":[139.9310099,35.7219115]},"properties":{"address":"\u5343\u8449\u770c\u5e02\u5ddd\u5e02","placename":"Ichikawa, Chiba Prefecture, Japan","title":"\u25cb\u25cb\u30d5\u30a1\u30fc\u30e0\u3000\u5927\u6839\uff11\uff0f\uff12\uff20\u25cb\u25cb\u30bb\u30f3\u30bf\u30fc"}},{"type":"Feature","geometry":{"type":"Point","coordinates":[139.7445849,36.114057400003]},"properties":{"address":"\u8328\u57ce\u770c\u733f\u5cf6\u90e1\u4e94\u971e\u753a\u65b0\u5e78\u8c37\uff14\uff15\uff13","placename":"453 Shinkoya, Goka, Sashima District, Ibaraki Prefecture, Japan","title":"\u9752\u30cd\u30ae\u30b9\u30e9\u30a4\u30b9\u3000\uff13\uff10\uff47\uff20JA\u25cb\u25cb"}},{"type":"Feature","geometry":{"type":"Point","coordinates":[139.9277842,35.817851399997]},"properties":{"address":"\u5343\u8449\u770c\u677e\u6238\u5e02\u4e8c\u30c4\u6728 532-1","placename":"532-1 Futatsugi, Matsudo, Chiba Prefecture, Japan","title":"\u9752\u30cd\u30ae\u30b9\u30e9\u30a4\u30b9\u3000\uff13\uff10\uff47\uff20\u25cb\u25cb\u53d6\u5f15\u5148"}},{"type":"Feature","geometry":{"type":"Point","coordinates":[139.9310099,35.7219115]},"properties":{"address":"\u5343\u8449\u770c\u5e02\u5ddd\u5e02","placename":"Ichikawa, Chiba Prefecture, Japan","title":"\u9752\u30cd\u30ae\u30b9\u30e9\u30a4\u30b9\u3000\uff13\uff10\uff47\uff20\u25cb\u25cb\u30bb\u30f3\u30bf\u30fc"}},{"type":"Feature","geometry":{"type":"Point","coordinates":[139.7445849,36.114057400003]},"properties":{"address":"\u8328\u57ce\u770c\u733f\u5cf6\u90e1\u4e94\u971e\u753a\u65b0\u5e78\u8c37\uff14\uff15\uff13","placename":"453 Shinkoya, Goka, Sashima District, Ibaraki Prefecture, Japan","title":"\u9032\u5316\u578b\u3000\u30b4\u30dc\u30a6\uff20JA\u25cb\u25cb"}},{"type":"Feature","geometry":{"type":"Point","coordinates":[139.9277842,35.817851399997]},"properties":{"address":"\u5343\u8449\u770c\u677e\u6238\u5e02\u4e8c\u30c4\u6728 532-1","placename":"532-1 Futatsugi, Matsudo, Chiba Prefecture, Japan","title":"\u9032\u5316\u578b\u3000\u30b4\u30dc\u30a6\uff20\u25cb\u25cb\u53d6\u5f15\u5148"}},{"type":"Feature","geometry":{"type":"Point","coordinates":[139.9310099,35.7219115]},"properties":{"address":"\u5343\u8449\u770c\u5e02\u5ddd\u5e02","placename":"Ichikawa, Chiba Prefecture, Japan","title":"\u9032\u5316\u578b\u3000\u30b4\u30dc\u30a6\uff20\u25cb\u25cb\u30bb\u30f3\u30bf\u30fc"}},{"type":"Feature","geometry":{"type":"Point","coordinates":[139.7445849,36.114057400003]},"properties":{"address":"\u8328\u57ce\u770c\u733f\u5cf6\u90e1\u4e94\u971e\u753a\u65b0\u5e78\u8c37\uff14\uff15\uff13","placename":"453 Shinkoya, Goka, Sashima District, Ibaraki Prefecture, Japan","title":"\u9032\u5316\u578b\u3000\u3076\u306a\u3057\u3081\u3058\uff20JA\u25cb\u25cb"}},{"type":"Feature","geometry":{"type":"Point","coordinates":[139.9277842,35.817851399997]},"properties":{"address":"\u5343\u8449\u770c\u677e\u6238\u5e02\u4e8c\u30c4\u6728 532-1","placename":"532-1 Futatsugi, Matsudo, Chiba Prefecture, Japan","title":"\u9032\u5316\u578b\u3000\u3076\u306a\u3057\u3081\u3058\uff20\u25cb\u25cb\u53d6\u5f15\u5148"}},{"type":"Feature","geometry":{"type":"Point","coordinates":[139.9310099,35.7219115]},"properties":{"address":"\u5343\u8449\u770c\u5e02\u5ddd\u5e02","placename":"Ichikawa, Chiba Prefecture, Japan","title":"\u9032\u5316\u578b\u3000\u3076\u306a\u3057\u3081\u3058\uff20\u25cb\u25cb\u30bb\u30f3\u30bf\u30fc"}},{"type":"Feature","geometry":{"type":"Point","coordinates":[139.7445849,36.114057400003]},"properties":{"address":"\u8328\u57ce\u770c\u733f\u5cf6\u90e1\u4e94\u971e\u753a\u65b0\u5e78\u8c37\uff14\uff15\uff13","placename":"453 Shinkoya, Goka, Sashima District, Ibaraki Prefecture, Japan","title":"\u9032\u5316\u578b\u3000\u751f\u59dc\uff20JA\u25cb\u25cb"}},{"type":"Feature","geometry":{"type":"Point","coordinates":[139.9277842,35.817851399997]},"properties":{"address":"\u5343\u8449\u770c\u677e\u6238\u5e02\u4e8c\u30c4\u6728 532-1","placename":"532-1 Futatsugi, Matsudo, Chiba Prefecture, Japan","title":"\u9032\u5316\u578b\u3000\u751f\u59dc\uff20\u25cb\u25cb\u53d6\u5f15\u5148"}},{"type":"Feature","geometry":{"type":"Point","coordinates":[139.9310099,35.7219115]},"properties":{"address":"\u5343\u8449\u770c\u5e02\u5ddd\u5e02","placename":"Ichikawa, Chiba Prefecture, Japan","title":"\u9032\u5316\u578b\u3000\u751f\u59dc\uff20\u25cb\u25cb\u30bb\u30f3\u30bf\u30fc"}},{"type":"Feature","geometry":{"type":"Point","coordinates":[139.7445849,36.114057400003]},"properties":{"address":"\u8328\u57ce\u770c\u733f\u5cf6\u90e1\u4e94\u971e\u753a\u65b0\u5e78\u8c37\uff14\uff15\uff13","placename":"453 Shinkoya, Goka, Sashima District, Ibaraki Prefecture, Japan","title":"\u9032\u5316\u578b\u3000\u307e\u3044\u305f\u3051\uff20JA\u25cb\u25cb"}},{"type":"Feature","geometry":{"type":"Point","coordinates":[139.9277842,35.817851399997]},"properties":{"address":"\u5343\u8449\u770c\u677e\u6238\u5e02\u4e8c\u30c4\u6728 532-1","placename":"532-1 Futatsugi, Matsudo, Chiba Prefecture, Japan","title":"\u9032\u5316\u578b\u3000\u307e\u3044\u305f\u3051\uff20\u25cb\u25cb\u53d6\u5f15\u5148"}},{"type":"Feature","geometry":{"type":"Point","coordinates":[139.9310099,35.7219115]},"properties":{"address":"\u5343\u8449\u770c\u5e02\u5ddd\u5e02","placename":"Ichikawa, Chiba Prefecture, Japan","title":"\u9032\u5316\u578b\u3000\u307e\u3044\u305f\u3051\uff20\u25cb\u25cb\u30bb\u30f3\u30bf\u30fc"}},{"type":"Feature","geometry":{"type":"Point","coordinates":[140.4849822,35.836197900003]},"properties":{"address":"\u5343\u8449\u770c\u9999\u53d6\u5e02\u798f\u7530724\u756a\u57302","placename":"Fukuda, Katori, Chiba Prefecture, Japan","title":"\u25cb\u25cb\u30d5\u30a1\u30fc\u30e0\u3000\u5927\u6839\uff11\uff0f\uff12\uff20\u25cb\u25cb\u30d5\u30a1\u30fc\u30e0\u5343\u8449"}},{"type":"Feature","geometry":{"type":"Point","coordinates":[139.7445849,36.114057400003]},"properties":{"address":"\u8328\u57ce\u770c\u733f\u5cf6\u90e1\u4e94\u971e\u753a\u65b0\u5e78\u8c37\uff14\uff15\uff13","placename":"453 Shinkoya, Goka, Sashima District, Ibaraki Prefecture, Japan","title":"\u9752\u30cd\u30ae\u30b9\u30e9\u30a4\u30b9\u3000\uff13\uff10\uff47\uff20JA\u25cb\u25cb"}},{"type":"Feature","geometry":{"type":"Point","coordinates":[139.9277842,35.817851399997]},"properties":{"address":"\u5343\u8449\u770c\u677e\u6238\u5e02\u4e8c\u30c4\u6728 532-1","placename":"532-1 Futatsugi, Matsudo, Chiba Prefecture, Japan","title":"\u9752\u30cd\u30ae\u30b9\u30e9\u30a4\u30b9\u3000\uff13\uff10\uff47\uff20\u25cb\u25cb\u53d6\u5f15\u5148"}},{"type":"Feature","geometry":{"type":"Point","coordinates":[139.3512781,35.514314400002]},"properties":{"address":"\u795e\u5948\u5ddd\u770c\u539a\u6728\u5e02\u4e0a\u4f9d\u77e5\uff13\uff10\uff12\uff13","placename":"3023 Kamiechi, Atsugi, Kanagawa Prefecture, Japan","title":"\u9752\u30cd\u30ae\u30b9\u30e9\u30a4\u30b9\u3000\uff13\uff10\uff47\uff20\u25cb\u25cb\u30bb\u30f3\u30bf\u30fc"}},{"type":"Feature","geometry":{"type":"Point","coordinates":[139.7445849,36.114057400003]},"properties":{"address":"\u8328\u57ce\u770c\u733f\u5cf6\u90e1\u4e94\u971e\u753a\u65b0\u5e78\u8c37\uff14\uff15\uff13","placename":"453 Shinkoya, Goka, Sashima District, Ibaraki Prefecture, Japan","title":"\u9032\u5316\u578b\u3000\u30a8\u30ce\u30ad\uff20JA\u25cb\u25cb"}},{"type":"Feature","geometry":{"type":"Point","coordinates":[139.9277842,35.817851399997]},"properties":{"address":"\u5343\u8449\u770c\u677e\u6238\u5e02\u4e8c\u30c4\u6728 532-1","placename":"532-1 Futatsugi, Matsudo, Chiba Prefecture, Japan","title":"\u9032\u5316\u578b\u3000\u30a8\u30ce\u30ad\uff20\u25cb\u25cb\u53d6\u5f15\u5148"}},{"type":"Feature","geometry":{"type":"Point","coordinates":[139.3512781,35.514314400002]},"properties":{"address":"\u795e\u5948\u5ddd\u770c\u539a\u6728\u5e02\u4e0a\u4f9d\u77e5\uff13\uff10\uff12\uff13","placename":"3023 Kamiechi, Atsugi, Kanagawa Prefecture, Japan","title":"\u9032\u5316\u578b\u3000\u30a8\u30ce\u30ad\uff20\u25cb\u25cb\u30bb\u30f3\u30bf\u30fc"}},{"type":"Feature","geometry":{"type":"Point","coordinates":[139.7445849,36.114057400003]},"properties":{"address":"\u8328\u57ce\u770c\u733f\u5cf6\u90e1\u4e94\u971e\u753a\u65b0\u5e78\u8c37\uff14\uff15\uff13","placename":"453 Shinkoya, Goka, Sashima District, Ibaraki Prefecture, Japan","title":"\u8304\u5b50\u3000\uff12\u500b\uff20JA\u25cb\u25cb"}},{"type":"Feature","geometry":{"type":"Point","coordinates":[139.9277842,35.817851399997]},"properties":{"address":"\u5343\u8449\u770c\u677e\u6238\u5e02\u4e8c\u30c4\u6728 532-1","placename":"532-1 Futatsugi, Matsudo, Chiba Prefecture, Japan","title":"\u8304\u5b50\u3000\uff12\u500b\uff20\u25cb\u25cb\u53d6\u5f15\u5148"}},{"type":"Feature","geometry":{"type":"Point","coordinates":[140.4849822,35.836197900003]},"properties":{"address":"\u5343\u8449\u770c\u9999\u53d6\u5e02\u798f\u7530724\u756a\u57302","placename":"Fukuda, Katori, Chiba Prefecture, Japan","title":"\u25cb\u25cb\u30d5\u30a1\u30fc\u30e0\u3000\u5927\u6839\uff11\uff0f\uff12\uff20\u25cb\u25cb\u30d5\u30a1\u30fc\u30e0\u5343\u8449"}},{"type":"Feature","geometry":{"type":"Point","coordinates":[139.6512586,35.3471075]},"properties":{"address":"\u795e\u5948\u5ddd\u770c\u6a2a\u6d5c\u5e02\u91d1\u6ca2\u533a\u798f\u6d662\u4e01\u76ee9-7","placename":"Japan, Kanagawa Prefecture, Yokohama, Kanazawa Ward, Fukuura, \uff12\u4e01\u76ee9","title":"\u25cb\u25cb\u30d5\u30a1\u30fc\u30e0\u3000\u5927\u6839\uff11\uff0f\uff12\uff20\u25cb\u25cb\u30bb\u30f3\u30bf\u30fc"}},{"type":"Feature","geometry":{"type":"Point","coordinates":[140.4849822,35.836197900003]},"properties":{"address":"\u5343\u8449\u770c\u9999\u53d6\u5e02\u798f\u7530724\u756a\u57302","placename":"Fukuda, Katori, Chiba Prefecture, Japan","title":"\u25cb\u25cb\u30d5\u30a1\u30fc\u30e0\u306b\u3093\u3058\u3093\u3000\u3000\u3000\uff11\uff14\uff18\u5186\uff20\u25cb\u25cb\u30d5\u30a1\u30fc\u30e0\u5343\u8449"}},{"type":"Feature","geometry":{"type":"Point","coordinates":[139.4656511,35.831500799997]},"properties":{"address":"\u57fc\u7389\u770c\u6240\u6ca2\u5e02\u5927\u5b57\u4e0b\u5bcc\uff17\uff13\uff19\uff0d\uff11\uff12","placename":"739-12 Shimotomi, Tokorozawa, Saitama Prefecture, Japan","title":"\u25cb\u25cb\u30d5\u30a1\u30fc\u30e0\u306b\u3093\u3058\u3093\u3000\u3000\u3000\uff11\uff14\uff18\u5186\uff20\u25cb\u25cb\u30bb\u30f3\u30bf\u30fc"}},{"type":"Feature","geometry":{"type":"Point","coordinates":[140.4849822,35.836197900003]},"properties":{"address":"\u5343\u8449\u770c\u9999\u53d6\u5e02\u798f\u7530724\u756a\u57302","placename":"Fukuda, Katori, Chiba Prefecture, Japan","title":"\u25cb\u25cb\u30d5\u30a1\u30fc\u30e0\u3000\u7389\u8471\uff20\u25cb\u25cb\u30d5\u30a1\u30fc\u30e0\u5343\u8449"}},{"type":"Feature","geometry":{"type":"Point","coordinates":[140.4849822,35.836197900003]},"properties":{"address":"\u5343\u8449\u770c\u9999\u53d6\u5e02\u798f\u7530724\u756a\u57302","placename":"Fukuda, Katori, Chiba Prefecture, Japan","title":"\u25cb\u25cb\u30d5\u30a1\u30fc\u30e0\u307b\u3046\u308c\u3093\u8349\u3000\u3000\uff11\u888b\uff20\u25cb\u25cb\u30d5\u30a1\u30fc\u30e0\u5343\u8449"}},{"type":"Feature","geometry":{"type":"Point","coordinates":[139.634354,35.599225800003]},"properties":{"address":"\u795e\u5948\u5ddd\u770c\u5ddd\u5d0e\u5e02\u9ad8\u6d25\u533a\u5317\u898b\u65b9\uff13\u4e01\u76ee\uff11\uff14\uff0d\uff11","placename":"Japan, Kanagawa Prefecture, Kawasaki, Takatsu Ward, Kitamigata, \uff13\u4e01\u76ee14\u22121","title":"\u25cb\u25cb\u30d5\u30a1\u30fc\u30e0\u307b\u3046\u308c\u3093\u8349\u3000\u3000\uff11\u888b\uff20\u25cb\u25cb\u30bb\u30f3\u30bf\u30fc"}},{"type":"Feature","geometry":{"type":"Point","coordinates":[139.7445849,36.114057400003]},"properties":{"address":"\u8328\u57ce\u770c\u733f\u5cf6\u90e1\u4e94\u971e\u753a\u65b0\u5e78\u8c37\uff14\uff15\uff13","placename":"453 Shinkoya, Goka, Sashima District, Ibaraki Prefecture, Japan","title":"\u9752\u30cd\u30ae\u30b9\u30e9\u30a4\u30b9\u3000\uff13\uff10\uff47\uff20JA\u25cb\u25cb"}},{"type":"Feature","geometry":{"type":"Point","coordinates":[139.9277842,35.817851399997]},"properties":{"address":"\u5343\u8449\u770c\u677e\u6238\u5e02\u4e8c\u30c4\u6728 532-1","placename":"532-1 Futatsugi, Matsudo, Chiba Prefecture, Japan","title":"\u9752\u30cd\u30ae\u30b9\u30e9\u30a4\u30b9\u3000\uff13\uff10\uff47\uff20\u25cb\u25cb\u53d6\u5f15\u5148"}},{"type":"Feature","geometry":{"type":"Point","coordinates":[139.7445849,36.114057400003]},"properties":{"address":"\u8328\u57ce\u770c\u733f\u5cf6\u90e1\u4e94\u971e\u753a\u65b0\u5e78\u8c37\uff14\uff15\uff13","placename":"453 Shinkoya, Goka, Sashima District, Ibaraki Prefecture, Japan","title":"\u767d\u30cd\u30ae\u30b9\u30e9\u30a4\u30b9\u3000\uff13\uff10\uff47\uff20JA\u25cb\u25cb"}},{"type":"Feature","geometry":{"type":"Point","coordinates":[139.9277842,35.817851399997]},"properties":{"address":"\u5343\u8449\u770c\u677e\u6238\u5e02\u4e8c\u30c4\u6728 532-1","placename":"532-1 Futatsugi, Matsudo, Chiba Prefecture, Japan","title":"\u767d\u30cd\u30ae\u30b9\u30e9\u30a4\u30b9\u3000\uff13\uff10\uff47\uff20\u25cb\u25cb\u53d6\u5f15\u5148"}},{"type":"Feature","geometry":{"type":"Point","coordinates":[139.634354,35.599225800003]},"properties":{"address":"\u795e\u5948\u5ddd\u770c\u5ddd\u5d0e\u5e02\u9ad8\u6d25\u533a\u5317\u898b\u65b9\uff13\u4e01\u76ee\uff11\uff14\uff0d\uff11","placename":"Japan, Kanagawa Prefecture, Kawasaki, Takatsu Ward, Kitamigata, \uff13\u4e01\u76ee14\u22121","title":"\u767d\u30cd\u30ae\u30b9\u30e9\u30a4\u30b9\u3000\uff13\uff10\uff47\uff20\u25cb\u25cb\u30bb\u30f3\u30bf\u30fc"}},{"type":"Feature","geometry":{"type":"Point","coordinates":[139.7445849,36.114057400003]},"properties":{"address":"\u8328\u57ce\u770c\u733f\u5cf6\u90e1\u4e94\u971e\u753a\u65b0\u5e78\u8c37\uff14\uff15\uff13","placename":"453 Shinkoya, Goka, Sashima District, Ibaraki Prefecture, Japan","title":"\u9032\u5316\u578b\u3000\u9577\u306d\u304e\uff20JA\u25cb\u25cb"}},{"type":"Feature","geometry":{"type":"Point","coordinates":[139.9277842,35.817851399997]},"properties":{"address":"\u5343\u8449\u770c\u677e\u6238\u5e02\u4e8c\u30c4\u6728 532-1","placename":"532-1 Futatsugi, Matsudo, Chiba Prefecture, Japan","title":"\u9032\u5316\u578b\u3000\u9577\u306d\u304e\uff20\u25cb\u25cb\u53d6\u5f15\u5148"}},{"type":"Feature","geometry":{"type":"Point","coordinates":[139.634354,35.599225800003]},"properties":{"address":"\u795e\u5948\u5ddd\u770c\u5ddd\u5d0e\u5e02\u9ad8\u6d25\u533a\u5317\u898b\u65b9\uff13\u4e01\u76ee\uff11\uff14\uff0d\uff11","placename":"Japan, Kanagawa Prefecture, Kawasaki, Takatsu Ward, Kitamigata, \uff13\u4e01\u76ee14\u22121","title":"\u9032\u5316\u578b\u3000\u9577\u306d\u304e\uff20\u25cb\u25cb\u30bb\u30f3\u30bf\u30fc"}},{"type":"Feature","geometry":{"type":"Point","coordinates":[139.7445849,36.114057400003]},"properties":{"address":"\u8328\u57ce\u770c\u733f\u5cf6\u90e1\u4e94\u971e\u753a\u65b0\u5e78\u8c37\uff14\uff15\uff13","placename":"453 Shinkoya, Goka, Sashima District, Ibaraki Prefecture, Japan","title":"\u9032\u5316\u578b\u3000\u30d4\u30fc\u30de\u30f3\u3000\u3000\u3000\u3000\u3000\u3000\u3000\uff11\uff13\uff10\uff47\uff20JA\u25cb\u25cb"}},{"type":"Feature","geometry":{"type":"Point","coordinates":[139.9277842,35.817851399997]},"properties":{"address":"\u5343\u8449\u770c\u677e\u6238\u5e02\u4e8c\u30c4\u6728 532-1","placename":"532-1 Futatsugi, Matsudo, Chiba Prefecture, Japan","title":"\u9032\u5316\u578b\u3000\u30d4\u30fc\u30de\u30f3\u3000\u3000\u3000\u3000\u3000\u3000\u3000\uff11\uff13\uff10\uff47\uff20\u25cb\u25cb\u53d6\u5f15\u5148"}},{"type":"Feature","geometry":{"type":"Point","coordinates":[139.7445849,36.114057400003]},"properties":{"address":"\u8328\u57ce\u770c\u733f\u5cf6\u90e1\u4e94\u971e\u753a\u65b0\u5e78\u8c37\uff14\uff15\uff13","placename":"453 Shinkoya, Goka, Sashima District, Ibaraki Prefecture, Japan","title":"\u6c34\u83dc\u3000\uff11\uff10\uff10\uff47\uff20JA\u25cb\u25cb"}},{"type":"Feature","geometry":{"type":"Point","coordinates":[139.9277842,35.817851399997]},"properties":{"address":"\u5343\u8449\u770c\u677e\u6238\u5e02\u4e8c\u30c4\u6728 532-1","placename":"532-1 Futatsugi, Matsudo, Chiba Prefecture, Japan","title":"\u6c34\u83dc\u3000\uff11\uff10\uff10\uff47\uff20\u25cb\u25cb\u53d6\u5f15\u5148"}},{"type":"Feature","geometry":{"type":"Point","coordinates":[139.6512586,35.3471075]},"properties":{"address":"\u795e\u5948\u5ddd\u770c\u6a2a\u6d5c\u5e02\u91d1\u6ca2\u533a\u798f\u6d662\u4e01\u76ee9-7","placename":"Japan, Kanagawa Prefecture, Yokohama, Kanazawa Ward, Fukuura, \uff12\u4e01\u76ee9","title":"\u6c34\u83dc\u3000\uff11\uff10\uff10\uff47\uff20\u25cb\u25cb\u30bb\u30f3\u30bf\u30fc"}},{"type":"Feature","geometry":{"type":"Point","coordinates":[139.7445849,36.114057400003]},"properties":{"address":"\u8328\u57ce\u770c\u733f\u5cf6\u90e1\u4e94\u971e\u753a\u65b0\u5e78\u8c37\uff14\uff15\uff13","placename":"453 Shinkoya, Goka, Sashima District, Ibaraki Prefecture, Japan","title":"\u30df\u30cb\u30c8\u30de\u30c8\u3000\uff11\uff10\uff10\uff47\uff20JA\u25cb\u25cb"}},{"type":"Feature","geometry":{"type":"Point","coordinates":[139.9277842,35.817851399997]},"properties":{"address":"\u5343\u8449\u770c\u677e\u6238\u5e02\u4e8c\u30c4\u6728 532-1","placename":"532-1 Futatsugi, Matsudo, Chiba Prefecture, Japan","title":"\u30df\u30cb\u30c8\u30de\u30c8\u3000\uff11\uff10\uff10\uff47\uff20\u25cb\u25cb\u53d6\u5f15\u5148"}},{"type":"Feature","geometry":{"type":"Point","coordinates":[139.6512586,35.3471075]},"properties":{"address":"\u795e\u5948\u5ddd\u770c\u6a2a\u6d5c\u5e02\u91d1\u6ca2\u533a\u798f\u6d662\u4e01\u76ee9-7","placename":"Japan, Kanagawa Prefecture, Yokohama, Kanazawa Ward, Fukuura, \uff12\u4e01\u76ee9","title":"\u30df\u30cb\u30c8\u30de\u30c8\u3000\uff11\uff10\uff10\uff47\uff20\u25cb\u25cb\u30bb\u30f3\u30bf\u30fc"}},{"type":"Feature","geometry":{"type":"Point","coordinates":[139.7445849,36.114057400003]},"properties":{"address":"\u8328\u57ce\u770c\u733f\u5cf6\u90e1\u4e94\u971e\u753a\u65b0\u5e78\u8c37\uff14\uff15\uff13","placename":"453 Shinkoya, Goka, Sashima District, Ibaraki Prefecture, Japan","title":"\u9752\u30cd\u30ae\u30b9\u30e9\u30a4\u30b9\u3000\uff13\uff10\uff47\uff20JA\u25cb\u25cb"}},{"type":"Feature","geometry":{"type":"Point","coordinates":[139.9277842,35.817851399997]},"properties":{"address":"\u5343\u8449\u770c\u677e\u6238\u5e02\u4e8c\u30c4\u6728 532-1","placename":"532-1 Futatsugi, Matsudo, Chiba Prefecture, Japan","title":"\u9752\u30cd\u30ae\u30b9\u30e9\u30a4\u30b9\u3000\uff13\uff10\uff47\uff20\u25cb\u25cb\u53d6\u5f15\u5148"}},{"type":"Feature","geometry":{"type":"Point","coordinates":[139.7445849,36.114057400003]},"properties":{"address":"\u8328\u57ce\u770c\u733f\u5cf6\u90e1\u4e94\u971e\u753a\u65b0\u5e78\u8c37\uff14\uff15\uff13","placename":"453 Shinkoya, Goka, Sashima District, Ibaraki Prefecture, Japan","title":"\u9032\u5316\u578b\u3000\u30a8\u30ce\u30ad\uff20JA\u25cb\u25cb"}},{"type":"Feature","geometry":{"type":"Point","coordinates":[139.9277842,35.817851399997]},"properties":{"address":"\u5343\u8449\u770c\u677e\u6238\u5e02\u4e8c\u30c4\u6728 532-1","placename":"532-1 Futatsugi, Matsudo, Chiba Prefecture, Japan","title":"\u9032\u5316\u578b\u3000\u30a8\u30ce\u30ad\uff20\u25cb\u25cb\u53d6\u5f15\u5148"}},{"type":"Feature","geometry":{"type":"Point","coordinates":[139.6512586,35.3471075]},"properties":{"address":"\u795e\u5948\u5ddd\u770c\u6a2a\u6d5c\u5e02\u91d1\u6ca2\u533a\u798f\u6d662\u4e01\u76ee9-7","placename":"Japan, Kanagawa Prefecture, Yokohama, Kanazawa Ward, Fukuura, \uff12\u4e01\u76ee9","title":"\u9032\u5316\u578b\u3000\u30a8\u30ce\u30ad\uff20\u25cb\u25cb\u30bb\u30f3\u30bf\u30fc"}},{"type":"Feature","geometry":{"type":"Point","coordinates":[140.4849822,35.836197900003]},"properties":{"address":"\u5343\u8449\u770c\u9999\u53d6\u5e02\u798f\u7530724\u756a\u57302","placename":"Fukuda, Katori, Chiba Prefecture, Japan","title":"\u25cb\u25cb\u30d5\u30a1\u30fc\u30e0\u306b\u3093\u3058\u3093\u3000\u3000\u3000\uff11\uff14\uff18\u5186\uff20\u25cb\u25cb\u30d5\u30a1\u30fc\u30e0\u5343\u8449"}},{"type":"Feature","geometry":{"type":"Point","coordinates":[140.1070832,35.636212099999]},"properties":{"address":"\u5343\u8449\u5e02\u7a32\u6bdb\u533a","placename":"Inage Ward, Chiba, Chiba Prefecture, Japan","title":"\u25cb\u25cb\u30d5\u30a1\u30fc\u30e0\u306b\u3093\u3058\u3093\u3000\u3000\u3000\uff11\uff14\uff18\u5186\uff20\u25cb\u25cb\u30bb\u30f3\u30bf\u30fc"}},{"type":"Feature","geometry":{"type":"Point","coordinates":[140.4849822,35.836197900003]},"properties":{"address":"\u5343\u8449\u770c\u9999\u53d6\u5e02\u798f\u7530724\u756a\u57302","placename":"Fukuda, Katori, Chiba Prefecture, Japan","title":"\u25cb\u25cb\u30d5\u30a1\u30fc\u30e0\u3000\u7537\u7235\u828b\uff20\u25cb\u25cb\u30d5\u30a1\u30fc\u30e0\u5343\u8449"}},{"type":"Feature","geometry":{"type":"Point","coordinates":[140.1070832,35.636212099999]},"properties":{"address":"\u5343\u8449\u5e02\u7a32\u6bdb\u533a","placename":"Inage Ward, Chiba, Chiba Prefecture, Japan","title":"\u25cb\u25cb\u30d5\u30a1\u30fc\u30e0\u3000\u7537\u7235\u828b\uff20\u25cb\u25cb\u30bb\u30f3\u30bf\u30fc"}},{"type":"Feature","geometry":{"type":"Point","coordinates":[139.7445849,36.114057400003]},