{"supplychain":{"category":null,"created":1355732249,"enable_comments":true,"flags":0,"id":4914,"modified":1357665279,"other_perms":1,"passcode":null,"user_featured":false,"usergroup_id":null,"usergroup_perms":0,"user_id":3707,"owner":{"id":3707,"name":"webwatcher","avatar":"http:\/\/prod-accountpics.s3-website-us-east-1.amazonaws.com\/webwatcher.jpg?AWSAccessKeyId=AKIAIDYFSB4C2GNEML7Q&Expires=1380254469&Signature=%2FOMHMM0k90TDquQLGDdEYLx4cqQ%3D","banner_url":null,"display_name":null},"taxonomy":null,"attributes":{"title":"Le lyc\u00e9e Ren\u00e9 Cassin dans la mondialisation","description":"On a report\u00e9 l'origine des parents des \u00e9l\u00e8ves de 4 premi\u00e8res et de 3 terminales.","tags":"","sm:ui:tileset":"satellite"},"stops":[{"local_stop_id":110,"id":110,"geometry":"POINT(315468.8615126 4366940.3177314)","attributes":{"supplychain_instance_id":"supplychain-1","stop_instance_id":"stop-3180","description":"","address":"Blida, Algeria","title":"Blida"}},{"local_stop_id":109,"id":109,"geometry":"POINT(1904357.8129015 6131160.5245842)","attributes":{"supplychain_instance_id":"supplychain-1","stop_instance_id":"stop-2743","description":"","address":"Bratislava, Slovakia","title":"Bratislava"}},{"local_stop_id":108,"id":108,"geometry":"POINT(4112291.5693309 4528901.4261234)","attributes":{"supplychain_instance_id":"supplychain-1","stop_instance_id":"stop-2310","description":"","address":"Kara G\u00f6l, Kahramanmara\u015f Province, Turkey","title":"Kara Maras"}},{"local_stop_id":107,"id":107,"geometry":"POINT(3855365.0268931 4411265.9096486)","attributes":{"supplychain_instance_id":"supplychain-1","stop_instance_id":"stop-1881","description":"","address":"Mersin, Turkey","title":"Mersin"}},{"local_stop_id":106,"id":106,"geometry":"POINT(1747035.720671 5619029.2006904)","attributes":{"supplychain_instance_id":"supplychain-1","stop_instance_id":"stop-1456","description":"","address":"Ponorac, 47245, Grabovac, Croatia","title":"Ponorac"}},{"local_stop_id":105,"id":105,"geometry":"POINT(4620480.4736128 4684966.8616929)","attributes":{"supplychain_instance_id":"supplychain-1","stop_instance_id":"stop-1035","description":"","address":"Mu\u015f\/Mu\u015f Province, Turkey","title":"Mus"}},{"local_stop_id":104,"id":104,"geometry":"POINT(16639.258245027 4142260.9798779)","attributes":{"supplychain_instance_id":"supplychain-1","stop_instance_id":"stop-618","description":"","address":"Saida, Algeria","title":"Sa\u00efda"}},{"local_stop_id":103,"id":103,"geometry":"POINT(734708.63913333 4348888.3206932)","attributes":{"supplychain_instance_id":"supplychain-1","stop_instance_id":"stop-205","description":"","address":"Constantine, Algeria","title":"Constantine"}},{"local_stop_id":102,"id":102,"geometry":"POINT(-597611.4504736 4242464.1173089)","attributes":{"supplychain_instance_id":"supplychain-1","stop_instance_id":"stop-4056","description":"","address":"Tetouan, Morocco","title":"Tetouan"}},{"local_stop_id":101,"id":101,"geometry":"POINT(4120811.4399534 4829340.6792286)","attributes":{"supplychain_instance_id":"supplychain-1","stop_instance_id":"stop-3576","description":"","address":"Sivas\/Sivas Province, Turkey","title":"Sivas"}},{"local_stop_id":100,"id":100,"geometry":"POINT(-1087560.5003444 3699559.9694765)","attributes":{"supplychain_instance_id":"supplychain-1","stop_instance_id":"stop-2818","description":"","address":"Essaouira, Morocco","title":"Essaouira"}},{"local_stop_id":99,"id":99,"geometry":"POINT(-760614.91102714 4030822.9176353)","attributes":{"supplychain_instance_id":"supplychain-1","stop_instance_id":"stop-2445","description":"","address":"Rabat, Morocco","title":"Rabat"}},{"local_stop_id":98,"id":98,"geometry":"POINT(915995.12379662 6235188.5595662)","attributes":{"supplychain_instance_id":"supplychain-1","stop_instance_id":"stop-1980","description":"","address":"Baden-Baden, Germany","title":"Baden Baden"}},{"local_stop_id":97,"id":97,"geometry":"POINT(-10026717.10921 3497261.3573862)","attributes":{"supplychain_instance_id":"supplychain-1","stop_instance_id":"stop-1611","description":"","address":"New Orleans, LA, USA","title":"New Orleans"}},{"local_stop_id":96,"id":96,"geometry":"POINT(3951338.6917211 4013857.3933254)","attributes":{"supplychain_instance_id":"supplychain-1","stop_instance_id":"stop-1246","description":"","address":"Beirut, Lebanon","title":"Beirut"}},{"local_stop_id":95,"id":95,"geometry":"POINT(-1044273.6491886 4772896.9437736)","attributes":{"supplychain_instance_id":"supplychain-1","stop_instance_id":"stop-885","description":"","address":"Peniche, Portugal","title":"Peniche"}},{"local_stop_id":94,"id":94,"geometry":"POINT(-1018577.3926461 4682399.0909397)","attributes":{"supplychain_instance_id":"supplychain-1","stop_instance_id":"stop-528","description":"","address":"Lisbon, Portugal","title":"Lisbonne"}},{"local_stop_id":93,"id":93,"geometry":"POINT(-708084.72387833 3807950.9202992)","attributes":{"supplychain_instance_id":"supplychain-1","stop_instance_id":"stop-175","description":"","address":"Beni Mellal, Morocco","title":"Beni-Mellal"}},{"local_stop_id":92,"id":92,"geometry":"POINT(972190.21574861 4323578.7526575)","attributes":{"supplychain_instance_id":"supplychain-1","stop_instance_id":"stop-16419","description":"","address":"Kudyat al Bayadah, Tunisia","title":"Bayada"}},{"local_stop_id":91,"id":91,"geometry":"POINT(450843.93765 4399687.0193752)","attributes":{"supplychain_instance_id":"supplychain-1","stop_instance_id":"stop-15813","description":"","address":"Tizi Ouzou, Algeria","title":"Tizi Ouzou"}},{"local_stop_id":90,"id":90,"geometry":"POINT(-479978.58609585 4156678.2695532)","attributes":{"supplychain_instance_id":"supplychain-1","stop_instance_id":"stop-15472","description":"","address":"Targuist, Morocco","title":"Tarquist"}},{"local_stop_id":89,"id":89,"geometry":"POINT(147575.13572919 4215436.1239088)","attributes":{"supplychain_instance_id":"supplychain-1","stop_instance_id":"stop-14796","description":"","address":"Tiaret, Algeria","title":"Tiaret"}},{"local_stop_id":88,"id":88,"geometry":"POINT(-180556.76313734 746102.48000419)","attributes":{"supplychain_instance_id":"supplychain-1","stop_instance_id":"stop-14463","description":"","address":"Kumasi, Ghana","title":"Kumasi"}},{"local_stop_id":87,"id":87,"geometry":"POINT(1205155.9391093 4270004.8388489)","attributes":{"supplychain_instance_id":"supplychain-1","stop_instance_id":"stop-14134","description":"","address":"Al Munast\u00eer, Tunisia","title":"Monastir"}},{"local_stop_id":86,"id":86,"geometry":"POINT(1704734.3141755 -482658.93456445)","attributes":{"supplychain_instance_id":"supplychain-1","stop_instance_id":"stop-13888","description":"","address":"Kinshasa, Democratic Republic of the Congo","title":"Kinshasa"}},{"local_stop_id":85,"id":85,"geometry":"POINT(4594155.3843989 4851421.174508)","attributes":{"supplychain_instance_id":"supplychain-1","stop_instance_id":"stop-13563","description":"","address":"Erzurum, Turkey","title":"Erzurum"}},{"local_stop_id":84,"id":84,"geometry":"POINT(4986333.72777 5117634.5194709)","attributes":{"supplychain_instance_id":"supplychain-1","stop_instance_id":"stop-13242","description":"","address":"Tbilisi, Georgia","title":"Tbilissi"}},{"local_stop_id":83,"id":83,"geometry":"POINT(484430.17460841 6594863.1046913)","attributes":{"supplychain_instance_id":"supplychain-1","stop_instance_id":"stop-12925","description":"","address":"City of Brussels, Belgium","title":"Bruxelles"}},{"local_stop_id":82,"id":82,"geometry":"POINT(15568.253424254 4218396.3664195)","attributes":{"supplychain_instance_id":"supplychain-1","stop_instance_id":"stop-12612","description":"","address":"Mascara, Algeria","title":"Mascara"}},{"local_stop_id":81,"id":81,"geometry":"POINT(-956930.59561254 4947491.3842393)","attributes":{"supplychain_instance_id":"supplychain-1","stop_instance_id":"stop-12303","description":"","address":"Verba, 3810, Portugal","title":"Verba"}},{"local_stop_id":80,"id":80,"geometry":"POINT(-1788238.2924731 1576470.5785321)","attributes":{"supplychain_instance_id":"supplychain-1","stop_instance_id":"stop-11466","description":"","address":"Kaolack, Senegal","title":"Kaolack"}},{"local_stop_id":79,"id":79,"geometry":"POINT(1878168.1438481 5029635.6431963)","attributes":{"supplychain_instance_id":"supplychain-1","stop_instance_id":"stop-11169","description":"","address":"Bari, Italy","title":"Bari"}},{"local_stop_id":78,"id":78,"geometry":"POINT(-906824.0007572 5039966.0045055)","attributes":{"supplychain_instance_id":"supplychain-1","stop_instance_id":"stop-10876","description":"","address":"Marco de Canaveses, Portugal","title":"Marco de Canaveses"}},{"local_stop_id":77,"id":77,"geometry":"POINT(-890555.92622222 1419773.5156869)","attributes":{"supplychain_instance_id":"supplychain-1","stop_instance_id":"stop-10587","description":"","address":"Bamako, Mali","title":"Bamako"}},{"local_stop_id":76,"id":76,"geometry":"POINT(1701332.8803431 -475402.74999274)","attributes":{"supplychain_instance_id":"supplychain-1","stop_instance_id":"stop-10021","description":"","address":"Brazzaville, Congo","title":"Brazzaville"}},{"local_stop_id":75,"id":75,"geometry":"POINT(-16650011.151238 -1983194.6052933)","attributes":{"supplychain_instance_id":"supplychain-1","stop_instance_id":"stop-9744","description":"","address":"Papeete, French Polynesia","title":"Papeete"}},{"local_stop_id":74,"id":74,"geometry":"POINT(3822340.2520503 5153284.7409197)","attributes":{"supplychain_instance_id":"supplychain-1","stop_instance_id":"stop-9264","description":"","address":"T\u00fcrkeli, Turkey","title":"Turkeli"}},{"local_stop_id":73,"id":73,"geometry":"POINT(2565914.2624278 5972050.2421839)","attributes":{"supplychain_instance_id":"supplychain-1","stop_instance_id":"stop-8995","description":"","address":"Zal\u0103u, Romania","title":"Zalau"}},{"local_stop_id":72,"id":72,"geometry":"POINT(7461529.6072099 2862654.3076393)","attributes":{"supplychain_instance_id":"supplychain-1","stop_instance_id":"stop-8730","description":"","address":"Karachi, Pakistan","title":"Karachi"}},{"local_stop_id":71,"id":71,"geometry":"POINT(602730.03197905 4326655.9820189)","attributes":{"supplychain_instance_id":"supplychain-1","stop_instance_id":"stop-8469","description":"","address":"Setif, Algeria","title":"S\u00e9tif"}},{"local_stop_id":70,"id":70,"geometry":"POINT(-21852.683956622 619431.01950593)","attributes":{"supplychain_instance_id":"supplychain-1","stop_instance_id":"stop-8212","description":"","address":"Accra, Ghana","title":"Accra"}},{"local_stop_id":69,"id":69,"geometry":"POINT(4905478.8973181 1068058.0939013)","attributes":{"supplychain_instance_id":"supplychain-1","stop_instance_id":"stop-7959","description":"","address":"Hargeisa, Somalia","title":"Hargeisa"}},{"local_stop_id":68,"id":68,"geometry":"POINT(5048338.9067722 226397.15418538)","attributes":{"supplychain_instance_id":"supplychain-1","stop_instance_id":"stop-7710","description":"","address":"Mogadishu, Somalia","title":"Mogadiscio"}},{"local_stop_id":67,"id":67,"geometry":"POINT(1778651.1239689 5750437.4911016)","attributes":{"supplychain_instance_id":"supplychain-1","stop_instance_id":"stop-7465","description":"","address":"Zagreb, Croatia","title":"Zagreb"}},{"local_stop_id":66,"id":66,"geometry":"POINT(4187663.5475077 7509053.4946521)","attributes":{"supplychain_instance_id":"supplychain-1","stop_instance_id":"stop-7224","description":"","address":"Moscow, Russia","title":"Moscou"}},{"local_stop_id":65,"id":65,"geometry":"POINT(1473251.6113348 -987804.12343368)","attributes":{"supplychain_instance_id":"supplychain-1","stop_instance_id":"stop-6987","description":"","address":"Luanda, Angola","title":"Luanda"}},{"local_stop_id":64,"id":64,"geometry":"POINT(-618348.84671602 4014711.7897581)","attributes":{"supplychain_instance_id":"supplychain-1","stop_instance_id":"stop-6754","description":"","address":"Meknes, Morocco","title":"Meknes"}},{"local_stop_id":63,"id":63,"geometry":"POINT(-973235.93991303 5101927.9616831)","attributes":{"supplychain_instance_id":"supplychain-1","stop_instance_id":"stop-6525","description":"","address":"4740 Forj\u00e3es, Portugal","title":"Forjaes"}},{"local_stop_id":62,"id":62,"geometry":"POINT(-1522680.3150191 1066593.9043532)","attributes":{"supplychain_instance_id":"supplychain-1","stop_instance_id":"stop-6300","description":"","address":"Conakry, Guinea","title":"Conakry"}},{"local_stop_id":61,"id":61,"geometry":"POINT(3467986.189971 4725402.1218767)","attributes":{"supplychain_instance_id":"supplychain-1","stop_instance_id":"stop-6079","description":"","address":"Emirda\u011f\/Afyonkarahisar Province, Turkey","title":"Emirdag"}},{"local_stop_id":60,"id":60,"geometry":"POINT(3374318.6976375 8386285.7971116)","attributes":{"supplychain_instance_id":"supplychain-1","stop_instance_id":"stop-5862","description":"","address":"St Petersburg, Russia","title":"Saint P\u00e9tersbourg"}},{"local_stop_id":59,"id":59,"geometry":"POINT(1022108.7140604 6236840.1027497)","attributes":{"supplychain_instance_id":"supplychain-1","stop_instance_id":"stop-5649","description":"","address":"Stuttgart, Germany","title":"Stuttgart"}},{"local_stop_id":58,"id":58,"geometry":"POINT(6410147.3402431 -2308604.1150775)","attributes":{"supplychain_instance_id":"supplychain-1","stop_instance_id":"stop-5440","description":"","address":"\u00cele Maurice, Mauritius","title":"Ile maurice"}},{"local_stop_id":57,"id":57,"geometry":"POINT(845201.32665726 6033538.7678687)","attributes":{"supplychain_instance_id":"supplychain-1","stop_instance_id":"stop-5235","description":"","address":"Basle, Switzerland","title":"B\u00e2le"}},{"local_stop_id":56,"id":56,"geometry":"POINT(1022638.2831419 5695097.7965024)","attributes":{"supplychain_instance_id":"supplychain-1","stop_instance_id":"stop-5034","description":"","address":"Milan, Italy","title":"Milan"}},{"local_stop_id":55,"id":55,"geometry":"POINT(683757.27405833 5812198.9069544)","attributes":{"supplychain_instance_id":"supplychain-1","stop_instance_id":"stop-4837","description":"","address":"Geneva, Switzerland","title":"Gen\u00e8ve"}},{"local_stop_id":54,"id":54,"geometry":"POINT(3864146.8990691 4668097.5044212)","attributes":{"supplychain_instance_id":"supplychain-1","stop_instance_id":"stop-4644","description":"","address":"Nev\u015fehir\/Nev\u015fehir Province, Turkey","title":"Nevsehir"}},{"local_stop_id":53,"id":53,"geometry":"POINT(768104.48636667 4420538.1036087)","attributes":{"supplychain_instance_id":"supplychain-1","stop_instance_id":"stop-4455","description":"","address":"Sak\u012bkdah, Algeria","title":"Skikda"}},{"local_stop_id":52,"id":52,"geometry":"POINT(792271.41348097 4403499.3015469)","attributes":{"supplychain_instance_id":"supplychain-1","stop_instance_id":"stop-4270","description":"","address":"Azzaba, Algeria","title":"Azzaba"}},{"local_stop_id":51,"id":51,"geometry":"POINT(2031580.7066944 5442258.6042876)","attributes":{"supplychain_instance_id":"supplychain-1","stop_instance_id":"stop-4089","description":"","address":"Sarajevo, Bosnia and Herzegovina","title":"Sarajevo"}},{"local_stop_id":50,"id":50,"geometry":"POINT(-492173.02405336 4400325.0549326)","attributes":{"supplychain_instance_id":"supplychain-1","stop_instance_id":"stop-3912","description":"","address":"M\u00e1laga, Spain","title":"Malaga"}},{"local_stop_id":49,"id":49,"geometry":"POINT(-890555.92622222 3715275.5761686)","attributes":{"supplychain_instance_id":"supplychain-1","stop_instance_id":"stop-3739","description":"","address":"Marrakesh, Morocco","title":"Marrakech"}},{"local_stop_id":48,"id":48,"geometry":"POINT(3875553.5623862 4839541.4143684)","attributes":{"supplychain_instance_id":"supplychain-1","stop_instance_id":"stop-3570","description":"","address":"Yozgat\/Yozgat Province, Turkey","title":"Yozgat"}},{"local_stop_id":47,"id":47,"geometry":"POINT(3949474.0457228 4683243.9451686)","attributes":{"supplychain_instance_id":"supplychain-1","stop_instance_id":"stop-3405","description":"","address":"Kayseri\/Kayseri Province, Turkey","title":"Kayseri"}},{"local_stop_id":46,"id":46,"geometry":"POINT(12155726.471005 1372896.4949446)","attributes":{"supplychain_instance_id":"supplychain-1","stop_instance_id":"stop-3244","description":"","address":"Nha Trang, Khanh Hoa province, Vietnam","title":"Nha Trang"}},{"local_stop_id":45,"id":45,"geometry":"POINT(1487369.4497179 4595781.5477731)","attributes":{"supplychain_instance_id":"supplychain-1","stop_instance_id":"stop-3087","description":"","address":"Palermo, Italy","title":"Palerme"}},{"local_stop_id":44,"id":44,"geometry":"POINT(9276.6205208318 4291452.0094797)","attributes":{"supplychain_instance_id":"supplychain-1","stop_instance_id":"stop-2934","description":"","address":"Mostaganem, Algeria","title":"Mostaganem"}},{"local_stop_id":43,"id":43,"geometry":"POINT(-1942154.0528136 1653819.1228773)","attributes":{"supplychain_instance_id":"supplychain-1","stop_instance_id":"stop-2785","description":"","address":"Dakar, Senegal","title":"Dakar"}},{"local_stop_id":42,"id":42,"geometry":"POINT(4972174.8236268 5319197.8946172)","attributes":{"supplychain_instance_id":"supplychain-1","stop_instance_id":"stop-2640","description":"","address":"Vladikavkaz, North Ossetia\u2013Alania, Russia","title":"Vladikavkaz"}},{"local_stop_id":41,"id":41,"geometry":"POINT(3225700.431488 5013119.0180252)","attributes":{"supplychain_instance_id":"supplychain-1","stop_instance_id":"stop-2499","description":"","address":"Istanbul, Turkey","title":"Istanbul"}},{"local_stop_id":40,"id":40,"geometry":"POINT(11422985.982732 2033191.1811377)","attributes":{"supplychain_instance_id":"supplychain-1","stop_instance_id":"stop-2362","description":"","address":"Vientiane, Laos","title":"Vientiane"}},{"local_stop_id":39,"id":39,"geometry":"POINT(1582527.8773872 5230406.3514833)","attributes":{"supplychain_instance_id":"supplychain-1","stop_instance_id":"stop-2229","description":"","address":"Pescara, Province of Pescara, Italy","title":"Pescara"}},{"local_stop_id":38,"id":38,"geometry":"POINT(-1068667.1114667 3559373.2980247)","attributes":{"supplychain_instance_id":"supplychain-1","stop_instance_id":"stop-2100","description":"","address":"Agadir, Morocco","title":"Agadir"}},{"local_stop_id":37,"id":37,"geometry":"POINT(-556597.45388889 4033278.7520299)","attributes":{"supplychain_instance_id":"supplychain-1","stop_instance_id":"stop-1975","description":"","address":"Fes, Morocco","title":"F\u00e8s"}},{"local_stop_id":36,"id":36,"geometry":"POINT(6189363.6872444 -2403806.5213122)","attributes":{"supplychain_instance_id":"supplychain-1","stop_instance_id":"stop-1854","description":"","address":"Reunion","title":"Saint Louis"}},{"local_stop_id":35,"id":35,"geometry":"POINT(3657302.7951571 4854435.4620319)","attributes":{"supplychain_instance_id":"supplychain-1","stop_instance_id":"stop-1737","description":"","address":"Ankara\/Ankara Province, Turkey","title":"Ankara"}},{"local_stop_id":34,"id":34,"geometry":"POINT(8935244.4634736 6521662.5101364)","attributes":{"supplychain_instance_id":"supplychain-1","stop_instance_id":"stop-1624","description":"","address":"Semey, Kazakhstan","title":"Semipalatinsk"}},{"local_stop_id":33,"id":33,"geometry":"POINT(4479725.8496878 4975171.5056898)","attributes":{"supplychain_instance_id":"supplychain-1","stop_instance_id":"stop-1515","description":"","address":"\u00c7aykara\/Trabzon Province, Turkey","title":"Caykora"}},{"local_stop_id":32,"id":32,"geometry":"POINT(338639.23428156 4404718.166515)","attributes":{"supplychain_instance_id":"supplychain-1","stop_instance_id":"stop-1410","description":"","address":"Algiers, Algeria","title":"Alger"}},{"local_stop_id":31,"id":31,"geometry":"POINT(4672607.5172258 5628817.7215717)","attributes":{"supplychain_instance_id":"supplychain-1","stop_instance_id":"stop-1309","description":"","address":"Stavropol, Stavropol Krai, Russia","title":"Stavropol"}},{"local_stop_id":30,"id":30,"geometry":"POINT(4984095.5380884 5345891.0954001)","attributes":{"supplychain_instance_id":"supplychain-1","stop_instance_id":"stop-1212","description":"","address":"Nazran, Ingushetia, Russia","title":"Nazrani"}},{"local_stop_id":29,"id":29,"geometry":"POINT(8561874.5833407 5350875.2067024)","attributes":{"supplychain_instance_id":"supplychain-1","stop_instance_id":"stop-1119","description":"","address":"Almaty, Kazakhstan","title":"Almaty"}},{"local_stop_id":28,"id":28,"geometry":"POINT(8144876.0789514 6417461.9783356)","attributes":{"supplychain_instance_id":"supplychain-1","stop_instance_id":"stop-1030","description":"","address":"Karagandy, Kazakhstan","title":"Karaganda"}},{"local_stop_id":27,"id":27,"geometry":"POINT(5142917.7272489 574309.09883895)","attributes":{"supplychain_instance_id":"supplychain-1","stop_instance_id":"stop-945","description":"","address":"Somalia","title":"Somalie"}},{"local_stop_id":26,"id":26,"geometry":"POINT(5086729.0139037 5359722.8486925)","attributes":{"supplychain_instance_id":"supplychain-1","stop_instance_id":"stop-864","description":"","address":"Grozny, Chechnya, Russia","title":"Grozny"}},{"local_stop_id":25,"id":25,"geometry":"POINT(-446020.09676028 4058904.5996565)","attributes":{"supplychain_instance_id":"supplychain-1","stop_instance_id":"stop-787","description":"","address":"Taza Province, Morocco","title":"Taza"}},{"local_stop_id":24,"id":24,"geometry":"POINT(-326537.1692375 4186553.6120005)","attributes":{"supplychain_instance_id":"supplychain-1","stop_instance_id":"stop-714","description":"","address":"Nador, Morocco","title":"Nador"}},{"local_stop_id":23,"id":23,"geometry":"POINT(-404906.09074505 4180512.9081901)","attributes":{"supplychain_instance_id":"supplychain-1","stop_instance_id":"stop-645","description":"","address":"Temsaman, Morocco","title":"Temsamane"}},{"local_stop_id":22,"id":22,"geometry":"POINT(828009.45619611 3828905.9357074)","attributes":{"supplychain_instance_id":"supplychain-1","stop_instance_id":"stop-580","description":"","address":"El Oued, Algeria","title":"El Oued"}},{"local_stop_id":21,"id":21,"geometry":"POINT(1080508.6109787 450939.28925649)","attributes":{"supplychain_instance_id":"supplychain-1","stop_instance_id":"stop-519","description":"","address":"Douala, Cameroon","title":"Douala"}},{"local_stop_id":20,"id":20,"geometry":"POINT(5235726.7125375 -2257242.4381333)","attributes":{"supplychain_instance_id":"supplychain-1","stop_instance_id":"stop-462","description":"","address":"Antsirabe, Madagascar","title":"Antsirabe"}},{"local_stop_id":19,"id":19,"geometry":"POINT(5291194.8436869 -2144916.0313577)","attributes":{"supplychain_instance_id":"supplychain-1","stop_instance_id":"stop-409","description":"","address":"Antananarivo, Madagascar","title":"Antananarive"}},{"local_stop_id":18,"id":18,"geometry":"POINT(936730.98383007 6358555.8867598)","attributes":{"supplychain_instance_id":"supplychain-1","stop_instance_id":"stop-360","description":"","address":"Ludwigshafen, Germany","title":"Ludwigshaffen"}},{"local_stop_id":17,"id":17,"geometry":"POINT(1607208.5996111 6459368.0000287)","attributes":{"supplychain_instance_id":"supplychain-1","stop_instance_id":"stop-315","description":"","address":"Prague, Czech Republic","title":"Prag"}},{"local_stop_id":16,"id":16,"geometry":"POINT(-645653.04651111 4268562.3853155)","attributes":{"supplychain_instance_id":"supplychain-1","stop_instance_id":"stop-230","description":"","address":"Tangier, Morocco","title":"Tanger"}},{"local_stop_id":15,"id":15,"geometry":"POINT(863343.09746516 4425575.2196114)","attributes":{"supplychain_instance_id":"supplychain-1","stop_instance_id":"stop-193","description":"","address":"Annaba, Algeria","title":"Annaba"}},{"local_stop_id":14,"id":14,"geometry":"POINT(1131669.4904673 4413881.2397175)","attributes":{"supplychain_instance_id":"supplychain-1","stop_instance_id":"stop-133","description":"","address":"Tunis, Tunisia","title":"Tunis"}},{"local_stop_id":13,"id":13,"geometry":"POINT(-844172.80135417 3966310.8991148)","attributes":{"supplychain_instance_id":"supplychain-1","stop_instance_id":"stop-104","description":"","address":"Casablanca, Morocco","title":"Casablanca"}},{"local_stop_id":12,"id":12,"geometry":"POINT(3211019.5057248 -280099.02800341)","attributes":{"supplychain_instance_id":"supplychain-1","stop_instance_id":"stop-58","description":"","address":"Bukavu, Democratic Republic of the Congo","title":"Bukavu"}},{"local_stop_id":11,"id":11,"geometry":"POINT(-412304.03901172 4926693.072095)","attributes":{"supplychain_instance_id":"supplychain-1","stop_instance_id":"stop-26","description":"","address":"Madrid, Spain","title":"Madrid"}},{"local_stop_id":10,"id":10,"geometry":"POINT(-70471.427026021 4259001.1147905)","attributes":{"supplychain_instance_id":"supplychain-1","stop_instance_id":"stop-13","description":"","address":"Oran, Algeria","title":"Oran"}},{"local_stop_id":9,"id":9,"geometry":"POINT(872274.21846506 6233775.88002065)","attributes":{"supplychain_instance_id":"supplychain-1","stop_instance_id":"stop-4","description":"","address":"D37, 67240 Bischwiller, France","title":"Strasbourg"}},{"local_stop_id":8,"id":8,"geometry":"POINT(-212774.8390263 4121381.5064358)","attributes":{"supplychain_instance_id":"supplychain-1","stop_instance_id":"stop-1","description":"","address":"Oujda, Morocco","title":"Oujda"}},{"local_stop_id":7,"id":7,"geometry":"POINT(-977448.04680508 5090970.0157863)","attributes":{"title":"Esposende","address":"4740-226 Esposende, Portugal","description":"","stop_instance_id":"stop-191","supplychain_instance_id":"supplychain-1"}},{"local_stop_id":6,"id":6,"geometry":"POINT(11869959.876022 1212051.6676733)","attributes":{"title":"Ho chi Minh ville","address":"Ho Chi Minh City, Vietnam","description":"","stop_instance_id":"stop-576","supplychain_instance_id":"supplychain-1"}},{"local_stop_id":5,"id":5,"geometry":"POINT(-1884008.7992305 1666702.7428478)","attributes":{"title":"Thi\u00e9s","address":"Thies, Senegal","description":"","stop_instance_id":"stop-965","supplychain_instance_id":"supplychain-1"}},{"local_stop_id":4,"id":4,"geometry":"POINT(1985276.9860192 6205448.0435907)","attributes":{"title":"Piestany","address":"Pie\u0161\u0165any, Slovakia","description":"","stop_instance_id":"stop-1358","supplychain_instance_id":"supplychain-1"}},{"local_stop_id":3,"id":3,"geometry":"POINT(3068707.2994847 7151240.191859)","attributes":{"title":"Minsk","address":"Minsk, Belarus","description":"","stop_instance_id":"stop-1755","supplychain_instance_id":"supplychain-1"}},{"local_stop_id":2,"id":2,"geometry":"POINT(3235166.3062751 4519831.9100823)","attributes":{"title":"Tavas","address":"Tavas\/Denizli Province, Turkey","description":"","stop_instance_id":"stop-2156","supplychain_instance_id":"supplychain-1"}},{"local_stop_id":1,"id":1,"geometry":"POINT(-373111.87494918 4060260.4328148)","attributes":{"title":"Guercif","address":"Guercif, Morocco","description":"","stop_instance_id":"stop-2561","supplychain_instance_id":"supplychain-1"}}],"hops":[{"from_stop_id":8,"to_stop_id":9,"geometry":"MULTILINESTRING((-212774.8390263 4121381.5064358,872274.21846506 6233775.8800207))","attributes":{"title":"Oujda to Strasbourg","distance":"1738.027731","co2e":"0"}},{"from_stop_id":10,"to_stop_id":9,"geometry":"MULTILINESTRING((-70471.427026021 4259001.1147905,872274.21846506 6233775.8800207))","attributes":{"title":"Oran to Strasbourg","co2e":"0","distance":"1588.489031"}},{"from_stop_id":11,"to_stop_id":9,"geometry":"MULTILINESTRING((-412304.03901172 4926693.072095,872274.21846506 6233775.8800207))","attributes":{"distance":"1281.661429","co2e":"0","title":"Madrid to Strasbourg"}},{"from_stop_id":12,"to_stop_id":9,"geometry":"MULTILINESTRING((3211019.5057248 -280099.02800341,872274.21846506 6233775.8800207))","attributes":{"distance":"6036.762434","co2e":"0","title":"Bukavu to Strasbourg"}},{"from_stop_id":13,"to_stop_id":9,"geometry":"MULTILINESTRING((-844172.80135417 3966310.8991148,872274.21846506 6233775.8800207))","attributes":{"co2e":"0","title":"Casablanca to Strasbourg","distance":"2101.748916"}},{"from_stop_id":14,"to_stop_id":9,"geometry":"MULTILINESTRING((1131669.4904673 4413881.2397175,872274.21846506 6233775.8800207))","attributes":{"distance":"1322.788813","title":"Tunis to Strasbourg","co2e":"0"}},{"from_stop_id":15,"to_stop_id":9,"geometry":"MULTILINESTRING((863343.09746516 4425575.2196114,872274.21846506 6233775.8800207))","attributes":{"title":"Annaba to Strasbourg","co2e":"0","distance":"1298.789027"}},{"from_stop_id":16,"to_stop_id":9,"geometry":"MULTILINESTRING((-645653.04651111 4268562.3853155,872274.21846506 6233775.8800207))","attributes":{"title":"Tanger to Strasbourg","distance":"1804.643295","co2e":"0"}},{"from_stop_id":17,"to_stop_id":9,"geometry":"MULTILINESTRING((1607208.5996111 6459368.0000287,872274.21846506 6233775.8800207))","attributes":{"co2e":"0","title":"Prag to Strasbourg","distance":"499.373878"}},{"from_stop_id":18,"to_stop_id":9,"geometry":"MULTILINESTRING((936730.98383007 6358555.8867598,872274.21846506 6233775.8800207))","attributes":{"distance":"91.804978","co2e":"0","title":"Ludwigshaffen to Strasbourg"}},{"from_stop_id":19,"to_stop_id":9,"geometry":"MULTILINESTRING((5291194.8436869 -2144916.0313577,872274.21846506 6233775.8800207))","attributes":{"title":"Antananarive to Strasbourg","distance":"8488.878706","co2e":"0"}},{"from_stop_id":20,"to_stop_id":9,"geometry":"MULTILINESTRING((5235726.7125375 -2257242.4381333,872274.21846506 6233775.8800207))","attributes":{"co2e":"0","title":"Antsirabe to Strasbourg","distance":"8561.908787"}},{"from_stop_id":21,"to_stop_id":9,"geometry":"MULTILINESTRING((1080508.6109787 450939.28925649,872274.21846506 6233775.8800207))","attributes":{"distance":"4974.674436","co2e":"0","title":"Douala to Strasbourg"}},{"from_stop_id":22,"to_stop_id":9,"geometry":"MULTILINESTRING((828009.45619611 3828905.9357074,872274.21846506 6233775.8800207))","attributes":{"distance":"1808.214700","title":"El Oued to Strasbourg","co2e":"0"}},{"from_stop_id":23,"to_stop_id":9,"geometry":"MULTILINESTRING((-404906.09074505 4180512.9081901,872274.21846506 6233775.8800207))","attributes":{"distance":"1784.173559","co2e":"0","title":"Temsamane to Strasbourg"}},{"from_stop_id":24,"to_stop_id":9,"geometry":"MULTILINESTRING((-326537.1692375 4186553.6120005,872274.21846506 6233775.8800207))","attributes":{"title":"Nador to Strasbourg","co2e":"0","distance":"1750.079366"}},{"from_stop_id":25,"to_stop_id":9,"geometry":"MULTILINESTRING((-446020.09676028 4058904.5996565,872274.21846506 6233775.8800207))","attributes":{"distance":"1888.247859","co2e":"0","title":"Taza to Strasbourg"}},{"from_stop_id":26,"to_stop_id":9,"geometry":"MULTILINESTRING((5086729.0139037 5359722.8486925,872274.21846506 6233775.8800207))","attributes":{"title":"Grozny to Strasbourg","co2e":"0","distance":"2952.484981"}},{"from_stop_id":27,"to_stop_id":9,"geometry":"MULTILINESTRING((5142917.7272489 574309.09883895,872274.21846506 6233775.8800207))","attributes":{"co2e":"0","distance":"6047.276621","title":"Somalie to Strasbourg"}},{"from_stop_id":28,"to_stop_id":9,"geometry":"MULTILINESTRING((8144876.0789514 6417461.9783356,872274.21846506 6233775.8800207))","attributes":{"co2e":"0","title":"Karaganda to Strasbourg","distance":"4584.491301"}},{"from_stop_id":29,"to_stop_id":9,"geometry":"MULTILINESTRING((8561874.5833407 5350875.2067024,872274.21846506 6233775.8800207))","attributes":{"title":"Almaty to Strasbourg","co2e":"0","distance":"5184.918217"}},{"from_stop_id":30,"to_stop_id":9,"geometry":"MULTILINESTRING((4984095.5380884 5345891.0954001,872274.21846506 6233775.8800207))","attributes":{"distance":"2889.235573","title":"Nazrani to Strasbourg","co2e":"0"}},{"from_stop_id":31,"to_stop_id":9,"geometry":"MULTILINESTRING((4672607.5172258 5628817.7215717,872274.21846506 6233775.8800207))","attributes":{"distance":"2603.816842","title":"Stavropol to Strasbourg","co2e":"0"}},{"from_stop_id":32,"to_stop_id":9,"geometry":"MULTILINESTRING((338639.23428156 4404718.166515,872274.21846506 6233775.8800207))","attributes":{"title":"Alger to Strasbourg","co2e":"0","distance":"1390.289445"}},{"from_stop_id":33,"to_stop_id":9,"geometry":"MULTILINESTRING((4479725.8496878 4975171.5056898,872274.21846506 6233775.8800207))","attributes":{"co2e":"0","title":"Caykora to Strasbourg","distance":"2685.543500"}},{"from_stop_id":34,"to_stop_id":9,"geometry":"MULTILINESTRING((8935244.4634736 6521662.5101364,872274.21846506 6233775.8800207))","attributes":{"title":"Semipalatinsk to Strasbourg","co2e":"0","distance":"5010.109367"}},{"from_stop_id":35,"to_stop_id":9,"geometry":"MULTILINESTRING((3657302.7951571 4854435.4620319,872274.21846506 6233775.8800207))","attributes":{"co2e":"0","distance":"2205.217253","title":"Ankara to Strasbourg"}},{"from_stop_id":36,"to_stop_id":9,"geometry":"MULTILINESTRING((6189363.6872444 -2403806.5213122,872274.21846506 6233775.8800207))","attributes":{"co2e":"0","title":"Saint Louis to Strasbourg","distance":"9095.055572"}},{"from_stop_id":37,"to_stop_id":9,"geometry":"MULTILINESTRING((-556597.45388889 4033278.7520299,872274.21846506 6233775.8800207))","attributes":{"title":"F\u00e8s to Strasbourg","co2e":"0","distance":"1950.305062"}},{"from_stop_id":38,"to_stop_id":9,"geometry":"MULTILINESTRING((-1068667.1114667 3559373.2980247,872274.21846506 6233775.8800207))","attributes":{"co2e":"0","distance":"2513.550572","title":"Agadir to Strasbourg"}},{"from_stop_id":39,"to_stop_id":9,"geometry":"MULTILINESTRING((1582527.8773872 5230406.3514833,872274.21846506 6233775.8800207))","attributes":{"co2e":"0","title":"Pescara to Strasbourg","distance":"857.434405"}},{"from_stop_id":40,"to_stop_id":9,"geometry":"MULTILINESTRING((11422985.982732 2033191.1811377,872274.21846506 6233775.8800207))","attributes":{"distance":"8856.749151","title":"Vientiane to Strasbourg","co2e":"0"}},{"from_stop_id":41,"to_stop_id":9,"geometry":"MULTILINESTRING((3225700.431488 5013119.0180252,872274.21846506 6233775.8800207))","attributes":{"co2e":"0","distance":"1866.817657","title":"Istanbul to Strasbourg"}},{"from_stop_id":42,"to_stop_id":9,"geometry":"MULTILINESTRING((4972174.8236268 5319197.8946172,872274.21846506 6233775.8800207))","attributes":{"co2e":"0","distance":"2889.745460","title":"Vladikavkaz to Strasbourg"}},{"from_stop_id":43,"to_stop_id":9,"geometry":"MULTILINESTRING((-1942154.0528136 1653819.1228773,872274.21846506 6233775.8800207))","attributes":{"co2e":"0","distance":"4435.087543","title":"Dakar to Strasbourg"}},{"from_stop_id":44,"to_stop_id":9,"geometry":"MULTILINESTRING((9276.6205208318 4291452.0094797,872274.21846506 6233775.8800207))","attributes":{"title":"Mostaganem to Strasbourg","co2e":"0","distance":"1559.829201"}},{"from_stop_id":45,"to_stop_id":9,"geometry":"MULTILINESTRING((1487369.4497179 4595781.5477731,872274.21846506 6233775.8800207))","attributes":{"distance":"1263.737191","co2e":"0","title":"Palerme to Strasbourg"}},{"from_stop_id":46,"to_stop_id":9,"geometry":"MULTILINESTRING((12155726.471005 1372896.4949446,872274.21846506 6233775.8800207))","attributes":{"co2e":"0","distance":"9800.553686","title":"Nha Trang to Strasbourg"}},{"from_stop_id":47,"to_stop_id":9,"geometry":"MULTILINESTRING((3949474.0457228 4683243.9451686,872274.21846506 6233775.8800207))","attributes":{"co2e":"0","distance":"2465.882761","title":"Kayseri to Strasbourg"}},{"from_stop_id":48,"to_stop_id":9,"geometry":"MULTILINESTRING((3875553.5623862 4839541.4143684,872274.21846506 6233775.8800207))","attributes":{"co2e":"0","title":"Yozgat to Strasbourg","distance":"2349.836319"}},{"from_stop_id":49,"to_stop_id":9,"geometry":"MULTILINESTRING((-890555.92622222 3715275.5761686,872274.21846506 6233775.8800207))","attributes":{"co2e":"0","title":"Marrakech to Strasbourg","distance":"2321.060892"}},{"from_stop_id":50,"to_stop_id":9,"geometry":"MULTILINESTRING((-492173.02405336 4400325.0549326,872274.21846506 6233775.8800207))","attributes":{"co2e":"0","distance":"1666.804107","title":"Malaga to Strasbourg"}},{"from_stop_id":51,"to_stop_id":9,"geometry":"MULTILINESTRING((2031580.7066944 5442258.6042876,872274.21846506 6233775.8800207))","attributes":{"distance":"967.027604","co2e":"0","title":"Sarajevo to Strasbourg"}},{"from_stop_id":52,"to_stop_id":9,"geometry":"MULTILINESTRING((792271.41348097 4403499.3015469,872274.21846506 6233775.8800207))","attributes":{"title":"Azzaba to Strasbourg","co2e":"0","distance":"1337.073988"}},{"from_stop_id":53,"to_stop_id":9,"geometry":"MULTILINESTRING((768104.48636667 4420538.1036087,872274.21846506 6233775.8800207))","attributes":{"co2e":"0","title":"Skikda to Strasbourg","distance":"1324.348530"}},{"from_stop_id":54,"to_stop_id":9,"geometry":"MULTILINESTRING((3864146.8990691 4668097.5044212,872274.21846506 6233775.8800207))","attributes":{"title":"Nevsehir to Strasbourg","distance":"2419.142409","co2e":"0"}},{"from_stop_id":55,"to_stop_id":9,"geometry":"MULTILINESTRING((683757.27405833 5812198.9069544,872274.21846506 6233775.8800207))","attributes":{"title":"Gen\u00e8ve to Strasbourg","co2e":"0","distance":"311.681066"}},{"from_stop_id":56,"to_stop_id":9,"geometry":"MULTILINESTRING((1022638.2831419 5695097.7965024,872274.21846506 6233775.8800207))","attributes":{"co2e":"0","distance":"380.021586","title":"Milan to Strasbourg"}},{"from_stop_id":57,"to_stop_id":9,"geometry":"MULTILINESTRING((845201.32665726 6033538.7678687,872274.21846506 6233775.8800207))","attributes":{"title":"B\u00e2le to Strasbourg","distance":"134.631503","co2e":"0"}},{"from_stop_id":58,"to_stop_id":9,"geometry":"MULTILINESTRING((6410147.3402431 -2308604.1150775,872274.21846506 6233775.8800207))","attributes":{"co2e":"0","title":"Ile maurice to Strasbourg","distance":"9121.337675"}},{"from_stop_id":59,"to_stop_id":9,"geometry":"MULTILINESTRING((1022108.7140604 6236840.1027497,872274.21846506 6233775.8800207))","attributes":{"distance":"98.669436","co2e":"0","title":"Stuttgart to Strasbourg"}},{"from_stop_id":60,"to_stop_id":9,"geometry":"MULTILINESTRING((3374318.6976375 8386285.7971116,872274.21846506 6233775.8800207))","attributes":{"co2e":"0","distance":"1898.450645","title":"Saint P\u00e9tersbourg to Strasbourg"}},{"from_stop_id":61,"to_stop_id":9,"geometry":"MULTILINESTRING((3467986.189971 4725402.1218767,872274.21846506 6233775.8800207))","attributes":{"distance":"2146.434011","title":"Emirdag to Strasbourg","co2e":"0"}},{"from_stop_id":62,"to_stop_id":9,"geometry":"MULTILINESTRING((-1522680.3150191 1066593.9043532,872274.21846506 6233775.8800207))","attributes":{"distance":"4799.384661","co2e":"0","title":"Conakry to Strasbourg"}},{"from_stop_id":63,"to_stop_id":9,"geometry":"MULTILINESTRING((-973235.93991303 5101927.9616831,872274.21846506 6233775.8800207))","attributes":{"co2e":"0","title":"Forjaes to Strasbourg","distance":"1518.613652"}},{"from_stop_id":64,"to_stop_id":9,"geometry":"MULTILINESTRING((-618348.84671602 4014711.7897581,872274.21846506 6233775.8800207))","attributes":{"co2e":"0","title":"Meknes to Strasbourg","distance":"1988.849057"}},{"from_stop_id":65,"to_stop_id":9,"geometry":"MULTILINESTRING((1473251.6113348 -987804.12343368,872274.21846506 6233775.8800207))","attributes":{"distance":"6426.120873","co2e":"0","title":"Luanda to Strasbourg"}},{"from_stop_id":66,"to_stop_id":9,"geometry":"MULTILINESTRING((4187663.5475077 7509053.4946521,872274.21846506 6233775.8800207))","attributes":{"co2e":"0","title":"Moscou to Strasbourg","distance":"2150.827545"}},{"from_stop_id":67,"to_stop_id":9,"geometry":"MULTILINESTRING((1778651.1239689 5750437.4911016,872274.21846506 6233775.8800207))","attributes":{"title":"Zagreb to Strasbourg","distance":"695.447223","co2e":"0"}},{"from_stop_id":68,"to_stop_id":9,"geometry":"MULTILINESTRING((5048338.9067722 226397.15418538,872274.21846506 6233775.8800207))","attributes":{"distance":"6302.879614","title":"Mogadiscio to Strasbourg","co2e":"0"}},{"from_stop_id":69,"to_stop_id":9,"geometry":"MULTILINESTRING((4905478.8973181 1068058.0939013,872274.21846506 6233775.8800207))","attributes":{"distance":"5506.567421","title":"Hargeisa to Strasbourg","co2e":"0"}},{"from_stop_id":70,"to_stop_id":9,"geometry":"MULTILINESTRING((-21852.683956622 619431.01950593,872274.21846506 6233775.8800207))","attributes":{"title":"Accra to Strasbourg","co2e":"0","distance":"4863.403435"}},{"from_stop_id":71,"to_stop_id":9,"geometry":"MULTILINESTRING((602730.03197905 4326655.9820189,872274.21846506 6233775.8800207))","attributes":{"distance":"1411.371777","title":"S\u00e9tif to Strasbourg","co2e":"0"}},{"from_stop_id":72,"to_stop_id":9,"geometry":"MULTILINESTRING((7461529.6072099 2862654.3076393,872274.21846506 6233775.8800207))","attributes":{"title":"Karachi to Strasbourg","distance":"5724.384110","co2e":"0"}},{"from_stop_id":73,"to_stop_id":9,"geometry":"MULTILINESTRING((2565914.2624278 5972050.2421839,872274.21846506 6233775.8800207))","attributes":{"title":"Zalau to Strasbourg","co2e":"0","distance":"1144.106784"}},{"from_stop_id":74,"to_stop_id":9,"geometry":"MULTILINESTRING((3822340.2520503 5153284.7409197,872274.21846506 6233775.8800207))","attributes":{"distance":"2191.324491","title":"Turkeli to Strasbourg","co2e":"0"}},{"from_stop_id":75,"to_stop_id":9,"geometry":"MULTILINESTRING((-16650011.151238 -1983194.6052933,872274.21846506 6233775.8800207))","attributes":{"distance":"15989.333753","title":"Papeete to Strasbourg","co2e":"0"}},{"from_stop_id":76,"to_stop_id":9,"geometry":"MULTILINESTRING((1701332.8803431 -475402.74999274,872274.21846506 6233775.8800207))","attributes":{"co2e":"0","title":"Brazzaville to Strasbourg","distance":"5940.107782"}},{"from_stop_id":77,"to_stop_id":9,"geometry":"MULTILINESTRING((-890555.92622222 1419773.5156869,872274.21846506 6233775.8800207))","attributes":{"title":"Bamako to Strasbourg","co2e":"0","distance":"4271.844358"}},{"from_stop_id":78,"to_stop_id":9,"geometry":"MULTILINESTRING((-906824.0007572 5039966.0045055,872274.21846506 6233775.8800207))","attributes":{"title":"Marco de Canaveses to Strasbourg","co2e":"0","distance":"1508.261670"}},{"from_stop_id":79,"to_stop_id":9,"geometry":"MULTILINESTRING((1878168.1438481 5029635.6431963,872274.21846506 6233775.8800207))","attributes":{"distance":"1106.388643","co2e":"0","title":"Bari to Strasbourg"}},{"from_stop_id":80,"to_stop_id":9,"geometry":"MULTILINESTRING((-1788238.2924731 1576470.5785321,872274.21846506 6233775.8800207))","attributes":{"distance":"4439.045898","title":"Kaolack to Strasbourg","co2e":"0"}},{"from_stop_id":81,"to_stop_id":9,"geometry":"MULTILINESTRING((-956930.59561254 4947491.3842393,872274.21846506 6233775.8800207))","attributes":{"title":"Verba to Strasbourg","distance":"1582.137910","co2e":"0"}},{"from_stop_id":82,"to_stop_id":9,"geometry":"MULTILINESTRING((15568.253424254 4218396.3664195,872274.21846506 6233775.8800207))","attributes":{"distance":"1613.313153","co2e":"0","title":"Mascara to Strasbourg"}},{"from_stop_id":83,"to_stop_id":9,"geometry":"MULTILINESTRING((484430.17460841 6594863.1046913,872274.21846506 6233775.8800207))","attributes":{"distance":"341.523402","title":"Bruxelles to Strasbourg","co2e":"0"}},{"from_stop_id":84,"to_stop_id":9,"geometry":"MULTILINESTRING((4986333.72777 5117634.5194709,872274.21846506 6233775.8800207))","attributes":{"distance":"2966.148418","title":"Tbilissi to Strasbourg","co2e":"0"}},{"from_stop_id":85,"to_stop_id":9,"geometry":"MULTILINESTRING((4594155.3843989 4851421.174508,872274.21846506 6233775.8800207))","attributes":{"distance":"2808.760710","title":"Erzurum to Strasbourg","co2e":"0"}},{"from_stop_id":87,"to_stop_id":9,"geometry":"MULTILINESTRING((1205155.9391093 4270004.8388489,872274.21846506 6233775.8800207))","attributes":{"distance":"1463.834430","title":"Monastir to Strasbourg","co2e":"0"}},{"from_stop_id":88,"to_stop_id":9,"geometry":"MULTILINESTRING((-180556.76313734 746102.48000419,872274.21846506 6233775.8800207))","attributes":{"distance":"4762.002983","co2e":"0","title":"Kumasi to Strasbourg"}},{"from_stop_id":89,"to_stop_id":9,"geometry":"MULTILINESTRING((147575.13572919 4215436.1239088,872274.21846506 6233775.8800207))","attributes":{"distance":"1580.257644","co2e":"0","title":"Tiaret to Strasbourg"}},{"from_stop_id":90,"to_stop_id":9,"geometry":"MULTILINESTRING((-479978.58609585 4156678.2695532,872274.21846506 6233775.8800207))","attributes":{"title":"Tarquist to Strasbourg","co2e":"0","distance":"1830.849767"}},{"from_stop_id":91,"to_stop_id":9,"geometry":"MULTILINESTRING((450843.93765 4399687.0193752,872274.21846506 6233775.8800207))","attributes":{"co2e":"0","title":"Tizi Ouzou to Strasbourg","distance":"1373.628037"}},{"from_stop_id":92,"to_stop_id":9,"geometry":"MULTILINESTRING((972190.21574861 4323578.7526575,872274.21846506 6233775.8800207))","attributes":{"distance":"1401.919045","co2e":"0","title":"Bayada to Strasbourg"}},{"from_stop_id":93,"to_stop_id":9,"geometry":"MULTILINESTRING((-708084.72387833 3807950.9202992,872274.21846506 6233775.8800207))","attributes":{"title":"Beni-Mellal to Strasbourg","distance":"2176.420237","co2e":"0"}},{"from_stop_id":94,"to_stop_id":9,"geometry":"MULTILINESTRING((-1018577.3926461 4682399.0909397,872274.21846506 6233775.8800207))","attributes":{"title":"Lisbonne to Strasbourg","co2e":"0","distance":"1755.552152"}},{"from_stop_id":95,"to_stop_id":9,"geometry":"MULTILINESTRING((-1044273.6491886 4772896.9437736,872274.21846506 6233775.8800207))","attributes":{"title":"Peniche to Strasbourg","co2e":"0","distance":"1721.139293"}},{"from_stop_id":96,"to_stop_id":9,"geometry":"MULTILINESTRING((3951338.6917211 4013857.3933254,872274.21846506 6233775.8800207))","attributes":{"distance":"2814.818569","title":"Beirut to Strasbourg","co2e":"0"}},{"from_stop_id":97,"to_stop_id":9,"geometry":"MULTILINESTRING((-10026717.10921 3497261.3573862,872274.21846506 6233775.8800207))","attributes":{"title":"New Orleans to Strasbourg","distance":"8087.548149","co2e":"0"}},{"from_stop_id":98,"to_stop_id":9,"geometry":"MULTILINESTRING((915995.12379662 6235188.5595662,872274.21846506 6233775.8800207))","attributes":{"distance":"28.803364","co2e":"0","title":"Baden Baden to Strasbourg"}},{"from_stop_id":99,"to_stop_id":9,"geometry":"MULTILINESTRING((-760614.91102714 4030822.9176353,872274.21846506 6233775.8800207))","attributes":{"co2e":"0","distance":"2038.014849","title":"Rabat to Strasbourg"}},{"from_stop_id":100,"to_stop_id":9,"geometry":"MULTILINESTRING((-1087560.5003444 3699559.9694765,872274.21846506 6233775.8800207))","attributes":{"title":"Essaouira to Strasbourg","distance":"2419.933455","co2e":"0"}},{"from_stop_id":101,"to_stop_id":9,"geometry":"MULTILINESTRING((4120811.4399534 4829340.6792286,872274.21846506 6233775.8800207))","attributes":{"co2e":"0","title":"Sivas to Strasbourg","distance":"2511.077169"}},{"from_stop_id":102,"to_stop_id":9,"geometry":"MULTILINESTRING((-597611.4504736 4242464.1173089,872274.21846506 6233775.8800207))","attributes":{"title":"Tetouan to Strasbourg","co2e":"0","distance":"1819.882208"}},{"from_stop_id":7,"to_stop_id":9,"geometry":"MULTILINESTRING((-977448.04680508 5090970.0157863,872274.21846506 6233775.8800207))","attributes":{"distance":"1526.079053","co2e":"0","title":"Esposende to Strasbourg"}},{"from_stop_id":6,"to_stop_id":9,"geometry":"MULTILINESTRING((11869959.876022 1212051.6676733,872274.21846506 6233775.8800207))","attributes":{"title":"Ho chi Minh ville to Strasbourg","distance":"9738.604156","co2e":"0"}},{"from_stop_id":5,"to_stop_id":9,"geometry":"MULTILINESTRING((-1884008.7992305 1666702.7428478,872274.21846506 6233775.8800207))","attributes":{"distance":"4399.384692","title":"Thi\u00e9s to Strasbourg","co2e":"0"}},{"from_stop_id":4,"to_stop_id":9,"geometry":"MULTILINESTRING((1985276.9860192 6205448.0435907,872274.21846506 6233775.8800207))","attributes":{"co2e":"0","title":"Piestany to Strasbourg","distance":"733.862261"}},{"from_stop_id":3,"to_stop_id":9,"geometry":"MULTILINESTRING((3068707.2994847 7151240.191859,872274.21846506 6233775.8800207))","attributes":{"distance":"1479.155631","co2e":"0","title":"Minsk to Strasbourg"}},{"from_stop_id":2,"to_stop_id":9,"geometry":"MULTILINESTRING((3235166.3062751 4519831.9100823,872274.21846506 6233775.8800207))","attributes":{"distance":"2111.583042","title":"Tavas to Strasbourg","co2e":"0"}},{"from_stop_id":1,"to_stop_id":9,"geometry":"MULTILINESTRING((-373111.87494918 4060260.4328148,872274.21846506 6233775.8800207))","attributes":{"distance":"1859.919532","title":"Guercif to Strasbourg","co2e":"0"}},{"from_stop_id":103,"to_stop_id":9,"geometry":"MULTILINESTRING((734708.63913333 4348888.3206932,872274.21846506 6233775.8800207))","attributes":{"co2e":"0","distance":"1383.283119","title":"Constantine to Strasbourg"}},{"from_stop_id":104,"to_stop_id":9,"geometry":"MULTILINESTRING((16639.258245027 4142260.9798779,872274.21846506 6233775.8800207))","attributes":{"title":"Sa\u00efda to Strasbourg","distance":"1671.369259","co2e":"0"}},{"from_stop_id":105,"to_stop_id":9,"geometry":"MULTILINESTRING((4620480.4736128 4684966.8616929,872274.21846506 6233775.8800207))","attributes":{"title":"Mus to Strasbourg","distance":"2895.279694","co2e":"0"}},{"from_stop_id":106,"to_stop_id":9,"geometry":"MULTILINESTRING((1747035.720671 5619029.2006904,872274.21846506 6233775.8800207))","attributes":{"title":"Ponorac to Strasbourg","distance":"729.377873","co2e":"0"}},{"from_stop_id":107,"to_stop_id":9,"geometry":"MULTILINESTRING((3855365.0268931 4411265.9096486,872274.21846506 6233775.8800207))","attributes":{"title":"Mersin to Strasbourg","distance":"2539.395832","co2e":"0"}},{"from_stop_id":108,"to_stop_id":9,"geometry":"MULTILINESTRING((4112291.5693309 4528901.4261234,872274.21846506 6233775.8800207))","attributes":{"title":"Kara Maras to Strasbourg","distance":"2640.733930","co2e":"0"}},{"from_stop_id":109,"to_stop_id":9,"geometry":"MULTILINESTRING((1904357.8129015 6131160.5245842,872274.21846506 6233775.8800207))","attributes":{"title":"Bratislava to Strasbourg","distance":"686.705742","co2e":"0"}},{"from_stop_id":110,"to_stop_id":9,"geometry":"MULTILINESTRING((315468.8615126 4366940.3177314,872274.21846506 6233775.8800207))","attributes":{"distance":"1424.333285","title":"Blida to Strasbourg","co2e":"0"}}]},"editable":false}