{"type":"FeatureCollection","features":[{"type":"Feature","geometry":{"type":"Point","coordinates":[-96.674504186542,33.024320595912]},"properties":{"supplychain_instance_id":"supplychain-1","stop_instance_id":"stop-64","description":"","address":"Plano, TX 75074, USA","title":"LLL"}},{"type":"Feature","geometry":{"type":"Point","coordinates":[-106.3287198852,31.760127196032]},"properties":{"supplychain_instance_id":"supplychain-1","stop_instance_id":"stop-49","description":"","address":"El Paso, TX 79935, USA","title":"WW"}},{"type":"Feature","geometry":{"type":"Point","coordinates":[-96.37579898658,30.682178196138]},"properties":{"supplychain_instance_id":"supplychain-1","stop_instance_id":"stop-36","description":"","address":"Bryan, TX 77803, USA","title":"JJ"}},{"type":"Feature","geometry":{"type":"Point","coordinates":[-97.017587886492,32.781144595935]},"properties":{"supplychain_instance_id":"supplychain-1","stop_instance_id":"stop-25","description":"","address":"Grand Prairie, TX 75050, USA","title":"Y"}},{"type":"Feature","geometry":{"type":"Point","coordinates":[-96.996092486496,32.961876295918]},"properties":{"supplychain_instance_id":"supplychain-1","stop_instance_id":"stop-16","description":"","address":"228 Plantation Drive, Coppell, TX 75019, USA","title":"P"}},{"type":"Feature","geometry":{"type":"Point","coordinates":[-111.98801988441,40.743406395287]},"properties":{"supplychain_instance_id":"supplychain-1","stop_instance_id":"stop-9","description":"","address":"Salt Lake City, UT 84104, USA","title":"I"}},{"type":"Feature","geometry":{"type":"Point","coordinates":[-88.060756487742,44.486678295057]},"properties":{"supplychain_instance_id":"supplychain-1","stop_instance_id":"stop-4","description":"","address":"Green Bay, WI 54304, USA","title":"3"}},{"type":"Feature","geometry":{"type":"Point","coordinates":[-88.07053188774,44.401934995062]},"properties":{"supplychain_instance_id":"supplychain-1","stop_instance_id":"stop-1","description":"","address":"De Pere, WI 54115, USA","title":"2"}}],"properties":{"title":"test","description":"test","tags":""}}