{"type":"FeatureCollection","features":[{"type":"Feature","geometry":{"type":"Point","coordinates":[30.802497995712,26.82055299654]},"properties":{"supplychain_instance_id":"supplychain-1","stop_instance_id":"stop-273","description":"","address":"Egypt","title":"Egypte"}},{"type":"Feature","geometry":{"type":"Point","coordinates":[127.76692198221,35.907756995657]},"properties":{"supplychain_instance_id":"supplychain-1","stop_instance_id":"stop-198","description":"","address":"South Korea","title":"Cor\u00e9e du Sud"}},{"type":"Feature","geometry":{"type":"Point","coordinates":[138.25292398076,36.204823995632]},"properties":{"supplychain_instance_id":"supplychain-1","stop_instance_id":"stop-177","description":"","address":"Japan","title":"Japon"}},{"type":"Feature","geometry":{"type":"Point","coordinates":[78.962879989009,20.593683997257]},"properties":{"supplychain_instance_id":"supplychain-1","stop_instance_id":"stop-66","description":"","address":"India","title":"Inde"}},{"type":"Feature","geometry":{"type":"Point","coordinates":[2.2137489996918,46.227637994968]},"properties":{"supplychain_instance_id":"supplychain-1","stop_instance_id":"stop-51","description":"","address":"France","title":"France"}},{"type":"Feature","geometry":{"type":"Point","coordinates":[-63.616671991144,-38.416096995455]},"properties":{"youtube:link":"","water":"0","energy":"0","co2e":"0","weight":"0","supplychain_instance_id":"supplychain-1","stop_instance_id":"stop-27","description":"Blue","address":"Argentina","title":"Argentine"}},{"type":"Feature","geometry":{"type":"Point","coordinates":[-102.55278398572,23.634500996897]},"properties":{"supplychain_instance_id":"supplychain-1","stop_instance_id":"stop-18","description":"","address":"Mexico","title":"Mexique"}},{"type":"Feature","geometry":{"type":"Point","coordinates":[-51.925279992772,-14.235003998059]},"properties":{"supplychain_instance_id":"supplychain-1","stop_instance_id":"stop-11","description":"","address":"Brazil","title":"Br\u00e9sil"}},{"type":"Feature","geometry":{"type":"Point","coordinates":[104.19539698549,35.861659995661]},"properties":{"supplychain_instance_id":"supplychain-1","stop_instance_id":"stop-6","description":"","address":"China","title":"Chine"}},{"type":"Feature","geometry":{"type":"Point","coordinates":[-95.712890986677,37.090239995559]},"properties":{"youtube:link":"","water":"0","energy":"0","co2e":"0","weight":"","supplychain_instance_id":"supplychain-1","stop_instance_id":"stop-1","description":"","address":"United States","title":"Etats-Unis"}}],"properties":{"sm:ui:tileset":"cloudmade","title":"R\u00e9seaux de distribution et de consommation du ma\u00efs dans le monde.","description":"","tags":"corn"}}