{"type":"FeatureCollection","features":[{"type":"Feature","geometry":{"type":"Point","coordinates":[8.2284797988546,44.738948095043]},"properties":{"supplychain_instance_id":"supplychain-1","stop_instance_id":"stop-100","description":"","address":"14052 Calosso Province of Asti, Italy","title":"Scagliola Moscato d\u2019Asti \u201cPrimo Bacio\u201d 2011"}},{"type":"Feature","geometry":{"type":"Point","coordinates":[10.884877698485,45.526715295002]},"properties":{"supplychain_instance_id":"supplychain-1","stop_instance_id":"stop-81","description":"","address":"Via Villa Girardi, 29, 37029 San Pietro in Cariano, Province of Verona, Italy","title":"Nicolis Angelo Amarone della Valpolicella Classico 2006"}},{"type":"Feature","geometry":{"type":"Point","coordinates":[8.0327114988818,44.696816295046]},"properties":{"supplychain_instance_id":"supplychain-1","stop_instance_id":"stop-64","description":"","address":"Via Umberto Sacco, 4, 12051 Alba, Province of Cuneo, Italy","title":"Francesco Rinaldi & Figli Barolo 2008"}},{"type":"Feature","geometry":{"type":"Point","coordinates":[8.4174569988283,45.596854994999]},"properties":{"supplychain_instance_id":"supplychain-1","stop_instance_id":"stop-49","description":"","address":"Via Roma, 60, 28074 Ghemme DOCG, Province of Novara, Italy","title":"Guido Platinetti Barbera \"Pieleo\" 2009"}},{"type":"Feature","geometry":{"type":"Point","coordinates":[10.939353398478,45.536145995002]},"properties":{"supplychain_instance_id":"supplychain-1","stop_instance_id":"stop-36","description":"","address":"37024 Negrar Province of Verona, Italy","title":"Ca\u2019 del Monte Valpolicella Classico 2011"}},{"type":"Feature","geometry":{"type":"Point","coordinates":[9.6189079986611,44.923345595033]},"properties":{"supplychain_instance_id":"supplychain-1","stop_instance_id":"stop-25","description":"","address":"Localit\u00e0 Ancarano di Sotto, 29029 Rivergaro Province of Piacenza, Italy","title":"La Stoppa \u201cAgeno\u201d Bianco 2007"}},{"type":"Feature","geometry":{"type":"Point","coordinates":[9.5977960986636,44.911445495034]},"properties":{"supplychain_instance_id":"supplychain-1","stop_instance_id":"stop-16","description":"","address":"Rivergaro Province of Piacenza, Italy","title":"Denavolo \"Dinavolino\" Vino Blanco 2010"}},{"type":"Feature","geometry":{"type":"Point","coordinates":[8.2284797988546,44.738948095043]},"properties":{"supplychain_instance_id":"supplychain-1","stop_instance_id":"stop-9","description":"","address":"14052 Calosso Province of Asti, Italy","title":"Scagliola Chardonnay \u201cCasot dan Vian\u201d 2010"}},{"type":"Feature","geometry":{"type":"Point","coordinates":[10.863607598488,44.603626695051]},"properties":{"supplychain_instance_id":"supplychain-1","stop_instance_id":"stop-4","description":"","address":"Strada Cavezzo, Baggiovara Province of Modena, Italy","title":"Villa di Corlo \u201cPrimevo\u201d Lambrusco di Sorbara NV"}},{"type":"Feature","geometry":{"type":"Point","coordinates":[12.14264559831,45.905457894983]},"properties":{"supplychain_instance_id":"supplychain-1","stop_instance_id":"stop-1","description":"","address":"Via Cal del Muner, 16, 31010 Farra di Soligo, Province of Treviso, Italy","title":"Perlage \"Riva Moretta\u201d Prosecco Valdobbiadene NV"}}],"properties":{"sm:ui:tileset":"satellite","title":"At The Table with... Martin Langer","description":"A map of the wines for \"At The Table with... Martin Langer,\" The food and wine of northern Italy","tags":"martin langer food wine season to taste catering cambridge sustainable local special event northern italy"}}