{"type":"FeatureCollection","features":[{"type":"Feature","geometry":{"type":"Point","coordinates":[108.27719898493,14.058323998082]},"properties":{"supplychain_instance_id":"supplychain-1","stop_instance_id":"stop-1248","description":"","address":"Vietnam","title":"Vietnam"}},{"type":"Feature","geometry":{"type":"Point","coordinates":[108.27719898493,14.058323998082]},"properties":{"supplychain_instance_id":"supplychain-1","stop_instance_id":"stop-1179","description":"","address":"Vietnam","title":"Vietnam"}},{"type":"Feature","geometry":{"type":"Point","coordinates":[-66.589729990731,6.4237499991096]},"properties":{"supplychain_instance_id":"supplychain-1","stop_instance_id":"stop-1112","description":"","address":"Venezuela","title":"Venezuela"}},{"type":"Feature","geometry":{"type":"Point","coordinates":[-95.712890986677,37.090239995559]},"properties":{"supplychain_instance_id":"supplychain-1","stop_instance_id":"stop-1047","description":"","address":"United States","title":"United States"}},{"type":"Feature","geometry":{"type":"Point","coordinates":[-95.712890986677,37.090239995559]},"properties":{"supplychain_instance_id":"supplychain-1","stop_instance_id":"stop-984","description":"","address":"United States","title":"United States"}},{"type":"Feature","geometry":{"type":"Point","coordinates":[-3.4359729995217,55.378050994717]},"properties":{"supplychain_instance_id":"supplychain-1","stop_instance_id":"stop-923","description":"","address":"United Kingdom","title":"United Kingdom"}},{"type":"Feature","geometry":{"type":"Point","coordinates":[-3.4359729995217,55.378050994717]},"properties":{"supplychain_instance_id":"supplychain-1","stop_instance_id":"stop-864","description":"","address":"United Kingdom","title":"United Kingdom"}},{"type":"Feature","geometry":{"type":"Point","coordinates":[35.243321995095,38.963744995414]},"properties":{"supplychain_instance_id":"supplychain-1","stop_instance_id":"stop-807","description":"","address":"Turkey","title":"Turkey"}},{"type":"Feature","geometry":{"type":"Point","coordinates":[35.243321995095,38.963744995414]},"properties":{"supplychain_instance_id":"supplychain-1","stop_instance_id":"stop-752","description":"","address":"Turkey","title":"Turkey"}},{"type":"Feature","geometry":{"type":"Point","coordinates":[18.643500997405,60.128160994751]},"properties":{"supplychain_instance_id":"supplychain-1","stop_instance_id":"stop-699","description":"","address":"Sweden","title":"Sweden"}},{"type":"Feature","geometry":{"type":"Point","coordinates":[166.55304697339,-35.327327417699]},"properties":{"supplychain_instance_id":"supplychain-1","stop_instance_id":"stop-648","description":"","address":"Sri Lanka","title":"Sri Lanka"}},{"type":"Feature","geometry":{"type":"Point","coordinates":[105.31875598534,61.524009994785]},"properties":{"supplychain_instance_id":"supplychain-1","stop_instance_id":"stop-599","description":"","address":"Russia","title":"Russia"}},{"type":"Feature","geometry":{"type":"Point","coordinates":[24.966759996525,45.943160994982]},"properties":{"youtube:link":"","water":"0","energy":"0","co2e":"0","weight":"0","supplychain_instance_id":"supplychain-1","stop_instance_id":"stop-529","description":"","address":"Romania","title":"Romania"}},{"type":"Feature","geometry":{"type":"Point","coordinates":[8.6752769987924,9.0819989987467]},"properties":{"supplychain_instance_id":"supplychain-1","stop_instance_id":"stop-484","description":"","address":"Nigeria","title":"nigeria"}},{"type":"Feature","geometry":{"type":"Point","coordinates":[21.745274996973,41.608634995229]},"properties":{"supplychain_instance_id":"supplychain-1","stop_instance_id":"stop-441","description":"","address":"Macedonia (FYROM)","title":"Macedonia"}},{"type":"Feature","geometry":{"type":"Point","coordinates":[-77.29750798924,18.109580997563]},"properties":{"supplychain_instance_id":"supplychain-1","stop_instance_id":"stop-400","description":"","address":"Jamaica","title":"Jamaica"}},{"type":"Feature","geometry":{"type":"Point","coordinates":[78.962879989009,20.593683997257]},"properties":{"supplychain_instance_id":"supplychain-1","stop_instance_id":"stop-361","description":"","address":"India","title":"India"}},{"type":"Feature","geometry":{"type":"Point","coordinates":[78.962879989009,20.593683997257]},"properties":{"supplychain_instance_id":"supplychain-1","stop_instance_id":"stop-324","description":"","address":"India","title":"India"}},{"type":"Feature","geometry":{"type":"Point","coordinates":[19.503303997285,47.162493994925]},"properties":{"supplychain_instance_id":"supplychain-1","stop_instance_id":"stop-289","description":"","address":"Hungary","title":"Hungary"}},{"type":"Feature","geometry":{"type":"Point","coordinates":[19.503303997285,47.162493994925]},"properties":{"supplychain_instance_id":"supplychain-1","stop_instance_id":"stop-256","description":"","address":"Hungary","title":"Hungary"}},{"type":"Feature","geometry":{"type":"Point","coordinates":[-86.241904987995,15.199998997934]},"properties":{"supplychain_instance_id":"supplychain-1","stop_instance_id":"stop-225","description":"","address":"Honduras","title":"Honduras"}},{"type":"Feature","geometry":{"type":"Point","coordinates":[-1.0231939998576,7.946526998901]},"properties":{"supplychain_instance_id":"supplychain-1","stop_instance_id":"stop-196","description":"","address":"Ghana","title":"Ghana"}},{"type":"Feature","geometry":{"type":"Point","coordinates":[10.451525998545,51.165690994785]},"properties":{"supplychain_instance_id":"supplychain-1","stop_instance_id":"stop-169","description":"","address":"Germany","title":"Germany"}},{"type":"Feature","geometry":{"type":"Point","coordinates":[10.451525998545,51.165690994785]},"properties":{"supplychain_instance_id":"supplychain-1","stop_instance_id":"stop-144","description":"","address":"Germany","title":"Germany"}},{"type":"Feature","geometry":{"type":"Point","coordinates":[2.2137489996918,46.227637994968]},"properties":{"supplychain_instance_id":"supplychain-1","stop_instance_id":"stop-121","description":"","address":"France","title":"France"}},{"type":"Feature","geometry":{"type":"Point","coordinates":[2.2137489996918,46.227637994968]},"properties":{"supplychain_instance_id":"supplychain-1","stop_instance_id":"stop-100","description":"","address":"France","title":"France"}},{"type":"Feature","geometry":{"type":"Point","coordinates":[-78.183405989117,-1.8312389997452]},"properties":{"supplychain_instance_id":"supplychain-1","stop_instance_id":"stop-81","description":"","address":"Ecuador","title":"Ecuador"}},{"type":"Feature","geometry":{"type":"Point","coordinates":[-88.896529987625,13.794184998117]},"properties":{"supplychain_instance_id":"supplychain-1","stop_instance_id":"stop-64","description":"","address":"El Salvador","title":"El Salvador"}},{"type":"Feature","geometry":{"type":"Point","coordinates":[9.5017849986771,56.263919994714]},"properties":{"supplychain_instance_id":"supplychain-1","stop_instance_id":"stop-49","description":"","address":"Denmark","title":"Denmark"}},{"type":"Feature","geometry":{"type":"Point","coordinates":[-71.542968990041,-35.675146995677]},"properties":{"supplychain_instance_id":"supplychain-1","stop_instance_id":"stop-36","description":"","address":"Chile","title":"Chile"}},{"type":"Feature","geometry":{"type":"Point","coordinates":[-51.925279992772,-14.235003998059]},"properties":{"supplychain_instance_id":"supplychain-1","stop_instance_id":"stop-25","description":"","address":"Brazil","title":"Brazil"}},{"type":"Feature","geometry":{"type":"Point","coordinates":[90.356330987419,23.684993996891]},"properties":{"supplychain_instance_id":"supplychain-1","stop_instance_id":"stop-16","description":"","address":"Bangladesh","title":"Bangladesh"}},{"type":"Feature","geometry":{"type":"Point","coordinates":[14.550071997975,47.51623099491]},"properties":{"supplychain_instance_id":"supplychain-1","stop_instance_id":"stop-9","description":"","address":"Austria","title":"Austria"}},{"type":"Feature","geometry":{"type":"Point","coordinates":[133.77513598138,-25.27439799671]},"properties":{"supplychain_instance_id":"supplychain-1","stop_instance_id":"stop-4","description":"","address":"Australia","title":"Australia"}},{"type":"Feature","geometry":{"type":"Point","coordinates":[67.709952990575,33.939109995829]},"properties":{"supplychain_instance_id":"supplychain-1","stop_instance_id":"stop-1","description":"","address":"Afghanistan","title":"Afghanistan"}}],"properties":{"title":"Who Wants to Be a Millionaire? ","description":"Capitalist dream ","tags":""}}