{"supplychain":{"category":null,"created":1358126771,"enable_comments":true,"flags":0,"id":5013,"modified":1358127272,"other_perms":1,"passcode":null,"user_featured":false,"usergroup_id":null,"usergroup_perms":0,"user_id":4558,"owner":{"id":4558,"name":"fr94","avatar":"http:\/\/free.sourcemap.com\/assets\/images\/default-user.png","banner_url":null,"display_name":null},"taxonomy":null,"attributes":{"title":"Who Wants to Be a Millionaire? ","description":"Capitalist dream ","tags":""},"stops":[{"local_stop_id":35,"id":35,"geometry":"POINT(12053362.655524 1580908.7583518)","attributes":{"supplychain_instance_id":"supplychain-1","stop_instance_id":"stop-1248","description":"","address":"Vietnam","title":"Vietnam"}},{"local_stop_id":34,"id":34,"geometry":"POINT(12053362.655524 1580908.7583518)","attributes":{"supplychain_instance_id":"supplychain-1","stop_instance_id":"stop-1179","description":"","address":"Vietnam","title":"Vietnam"}},{"local_stop_id":33,"id":33,"geometry":"POINT(-7412734.8346297 716591.40313719)","attributes":{"supplychain_instance_id":"supplychain-1","stop_instance_id":"stop-1112","description":"","address":"Venezuela","title":"Venezuela"}},{"local_stop_id":32,"id":32,"geometry":"POINT(-10654710.286989 4451692.5541908)","attributes":{"supplychain_instance_id":"supplychain-1","stop_instance_id":"stop-1047","description":"","address":"United States","title":"United States"}},{"local_stop_id":31,"id":31,"geometry":"POINT(-10654710.286989 4451692.5541908)","attributes":{"supplychain_instance_id":"supplychain-1","stop_instance_id":"stop-984","description":"","address":"United States","title":"United States"}},{"local_stop_id":30,"id":30,"geometry":"POINT(-382490.76468619 7435586.5299477)","attributes":{"supplychain_instance_id":"supplychain-1","stop_instance_id":"stop-923","description":"","address":"United Kingdom","title":"United Kingdom"}},{"local_stop_id":29,"id":29,"geometry":"POINT(-382490.76468619 7435586.5299477)","attributes":{"supplychain_instance_id":"supplychain-1","stop_instance_id":"stop-864","description":"","address":"United Kingdom","title":"United Kingdom"}},{"local_stop_id":28,"id":28,"geometry":"POINT(3923268.6583573 4716479.6839723)","attributes":{"supplychain_instance_id":"supplychain-1","stop_instance_id":"stop-807","description":"","address":"Turkey","title":"Turkey"}},{"local_stop_id":27,"id":27,"geometry":"POINT(3923268.6583573 4716479.6839723)","attributes":{"supplychain_instance_id":"supplychain-1","stop_instance_id":"stop-752","description":"","address":"Turkey","title":"Turkey"}},{"local_stop_id":26,"id":26,"geometry":"POINT(2075385.037635 8428326.964267)","attributes":{"supplychain_instance_id":"supplychain-1","stop_instance_id":"stop-699","description":"","address":"Sweden","title":"Sweden"}},{"local_stop_id":25,"id":25,"geometry":"POINT(18540600.379146 -4208453.0842337)","attributes":{"supplychain_instance_id":"supplychain-1","stop_instance_id":"stop-648","description":"","address":"Sri Lanka","title":"Sri Lanka"}},{"local_stop_id":24,"id":24,"geometry":"POINT(11724030.287269 8747149.0475725)","attributes":{"supplychain_instance_id":"supplychain-1","stop_instance_id":"stop-599","description":"","address":"Russia","title":"Russia"}},{"local_stop_id":23,"id":23,"geometry":"POINT(2779287.009571 5771245.4036282)","attributes":{"youtube:link":"","water":"0","energy":"0","co2e":"0","weight":"0","supplychain_instance_id":"supplychain-1","stop_instance_id":"stop-529","description":"","address":"Romania","title":"Romania"}},{"local_stop_id":22,"id":22,"geometry":"POINT(965727.41799617 1015263.9830431)","attributes":{"supplychain_instance_id":"supplychain-1","stop_instance_id":"stop-484","description":"","address":"Nigeria","title":"nigeria"}},{"local_stop_id":21,"id":21,"geometry":"POINT(2420672.9398227 5102533.9557456)","attributes":{"supplychain_instance_id":"supplychain-1","stop_instance_id":"stop-441","description":"","address":"Macedonia (FYROM)","title":"Macedonia"}},{"local_stop_id":20,"id":20,"geometry":"POINT(-8604719.2289512 2050378.8023429)","attributes":{"supplychain_instance_id":"supplychain-1","stop_instance_id":"stop-400","description":"","address":"Jamaica","title":"Jamaica"}},{"local_stop_id":19,"id":19,"geometry":"POINT(8790107.5919468 2343495.1653783)","attributes":{"supplychain_instance_id":"supplychain-1","stop_instance_id":"stop-361","description":"","address":"India","title":"India"}},{"local_stop_id":18,"id":18,"geometry":"POINT(8790107.5919468 2343495.1653783)","attributes":{"supplychain_instance_id":"supplychain-1","stop_instance_id":"stop-324","description":"","address":"India","title":"India"}},{"local_stop_id":17,"id":17,"geometry":"POINT(2171097.8697642 5968637.6782985)","attributes":{"supplychain_instance_id":"supplychain-1","stop_instance_id":"stop-289","description":"","address":"Hungary","title":"Hungary"}},{"local_stop_id":16,"id":16,"geometry":"POINT(2171097.8697642 5968637.6782985)","attributes":{"supplychain_instance_id":"supplychain-1","stop_instance_id":"stop-256","description":"","address":"Hungary","title":"Hungary"}},{"local_stop_id":15,"id":15,"geometry":"POINT(-9600404.9483055 1712260.1402682)","attributes":{"supplychain_instance_id":"supplychain-1","stop_instance_id":"stop-225","description":"","address":"Honduras","title":"Honduras"}},{"local_stop_id":14,"id":14,"geometry":"POINT(-113901.43504688 887453.05758817)","attributes":{"supplychain_instance_id":"supplychain-1","stop_instance_id":"stop-196","description":"","address":"Ghana","title":"Ghana"}},{"local_stop_id":13,"id":13,"geometry":"POINT(1163458.5521707 6650655.0402484)","attributes":{"supplychain_instance_id":"supplychain-1","stop_instance_id":"stop-169","description":"","address":"Germany","title":"Germany"}},{"local_stop_id":12,"id":12,"geometry":"POINT(1163458.5521707 6650655.0402484)","attributes":{"supplychain_instance_id":"supplychain-1","stop_instance_id":"stop-144","description":"","address":"Germany","title":"Germany"}},{"local_stop_id":11,"id":11,"geometry":"POINT(246433.41138981 5816903.7126173)","attributes":{"supplychain_instance_id":"supplychain-1","stop_instance_id":"stop-121","description":"","address":"France","title":"France"}},{"local_stop_id":10,"id":10,"geometry":"POINT(246433.41138981 5816903.7126173)","attributes":{"supplychain_instance_id":"supplychain-1","stop_instance_id":"stop-100","description":"","address":"France","title":"France"}},{"local_stop_id":9,"id":9,"geometry":"POINT(-8703336.9431923 -203887.30825549)","attributes":{"supplychain_instance_id":"supplychain-1","stop_instance_id":"stop-81","description":"","address":"Ecuador","title":"Ecuador"}},{"local_stop_id":8,"id":8,"geometry":"POINT(-9895916.4515114 1550614.4482931)","attributes":{"supplychain_instance_id":"supplychain-1","stop_instance_id":"stop-64","description":"","address":"El Salvador","title":"El Salvador"}},{"local_stop_id":7,"id":7,"geometry":"POINT(1057733.8676799 7611135.0671694)","attributes":{"supplychain_instance_id":"supplychain-1","stop_instance_id":"stop-49","description":"","address":"Denmark","title":"Denmark"}},{"local_stop_id":6,"id":6,"geometry":"POINT(-7964126.8778103 -4256013.6745668)","attributes":{"supplychain_instance_id":"supplychain-1","stop_instance_id":"stop-36","description":"","address":"Chile","title":"Chile"}},{"local_stop_id":5,"id":5,"geometry":"POINT(-5780295.7280935 -1601191.8132151)","attributes":{"supplychain_instance_id":"supplychain-1","stop_instance_id":"stop-25","description":"","address":"Brazil","title":"Brazil"}},{"local_stop_id":4,"id":4,"geometry":"POINT(10058420.755468 2715069.9669033)","attributes":{"supplychain_instance_id":"supplychain-1","stop_instance_id":"stop-16","description":"","address":"Bangladesh","title":"Bangladesh"}},{"local_stop_id":3,"id":3,"geometry":"POINT(1619706.60582 6026746.9738055)","attributes":{"supplychain_instance_id":"supplychain-1","stop_instance_id":"stop-9","description":"","address":"Austria","title":"Austria"}},{"local_stop_id":2,"id":2,"geometry":"POINT(14891780.018248 -2909486.0545921)","attributes":{"supplychain_instance_id":"supplychain-1","stop_instance_id":"stop-4","description":"","address":"Australia","title":"Australia"}},{"local_stop_id":1,"id":1,"geometry":"POINT(7537437.4885473 4020628.9136921)","attributes":{"supplychain_instance_id":"supplychain-1","stop_instance_id":"stop-1","description":"","address":"Afghanistan","title":"Afghanistan"}}],"hops":[]},"editable":false}