{"type":"FeatureCollection","features":[{"type":"Feature","geometry":{"type":"Point","coordinates":[-55.765834992238,-32.52277899596]},"properties":{"youtube:link":"","water":"0","energy":"0","co2e":"0","weight":"0","supplychain_instance_id":"supplychain-1","stop_instance_id":"stop-58","description":"","address":"Uruguay","title":"z"}},{"type":"Feature","geometry":{"type":"Point","coordinates":[13.128359798172,48.977181494853]},"properties":{"supplychain_instance_id":"supplychain-1","stop_instance_id":"stop-41","description":"","address":"Regen, Germany","title":"OO"}},{"type":"Feature","geometry":{"type":"Point","coordinates":[8.6821266987915,50.110922094815]},"properties":{"supplychain_instance_id":"supplychain-1","stop_instance_id":"stop-21","description":"","address":"Frankfurt, Germany","title":"U"}},{"type":"Feature","geometry":{"type":"Point","coordinates":[15.472961997846,49.817491994824]},"properties":{"supplychain_instance_id":"supplychain-1","stop_instance_id":"stop-8","description":"","address":"Czech Republic","title":"tschechien"}},{"type":"Feature","geometry":{"type":"Point","coordinates":[11.577085098388,48.136606894885]},"properties":{"title":"headquatters","address":"Munich, Germany","description":"","stop_instance_id":"stop-1","supplychain_instance_id":"supplychain-1","weight":"0","co2e":"0","energy":"0","water":"0","youtube:link":""}},{"type":"Feature","geometry":{"type":"LineString","coordinates":[[13.128359798172,48.977181494853],[11.577085098388,48.136606894885]]},"properties":{"distance":"147.544249","title":"OO to headquatters","co2e":"0"}}],"properties":{"tags":"","description":"","title":"brille","sm:ui:tileset":"terrain"}}