{"type":"FeatureCollection","features":[{"type":"Feature","geometry":{"type":"Point","coordinates":[104.7833333,10.9833333]},"properties":{"1":"Takeo, Cambodia","unit":"kg","weight":"0","co2e":"0","qty":"0","title":"Takeo","address":"Takeo, Cambodia","name":"Takeo","description":""}},{"type":"Feature","geometry":{"type":"Point","coordinates":[105.6666667,11.166666700004]},"properties":{"1":"Bathi District, Cambodia","unit":"kg","weight":"0","co2e":"0","qty":"0","title":"Bathi","address":"Bathi District, Cambodia","name":"Bathi","description":""}},{"type":"Feature","geometry":{"type":"Point","coordinates":[104.9166667,11.549999999997]},"properties":{"1":"Phnom Penh, Cambodia","unit":"kg","weight":"0","co2e":"0","qty":"0","title":"Phnom Penh","address":"Phnom Penh, Cambodia","name":"Phnom Penh","description":""}},{"type":"Feature","geometry":{"type":"Point","coordinates":[105.2833333,11.2666667]},"properties":{"1":"Peam Ro District, Cambodia","unit":"kg","weight":"0","co2e":"0","qty":"0","title":"Peam Ro","address":"Peam Ro District, Cambodia","name":"Peam Ro","description":""}},{"type":"Feature","geometry":{"type":"Point","coordinates":[105.5005483,11.3802442]},"properties":{"1":"Prey Veng, Cambodia","unit":"kg","weight":"0","co2e":"0","qty":"0","title":"Prey Veng","address":"Prey Veng, Cambodia","name":"Prey Veng","description":""}}],"properties":{"alias:preferred":"cambodia-3","description":"Created on April 5, 2010 by tehanidiaz on Sourcemap.org.","distance:transport":"58403.47","emissions:embodied":"0","emissions:total":"0","emissions:transport":"0","legacy:creator":"9432","legacy:distance":"58403.47","legacy:emissions":"0","legacy:oid":"3502","sm:migrated:time":"1313857965","title":"Cambodia","weight":"0","tags":""}}