{"type":"FeatureCollection","features":[{"type":"Feature","geometry":{"type":"Point","coordinates":[0,0]},"properties":{"description":"","title":"Sorghum","placename":"0,0","address":"0,0"}},{"type":"Feature","geometry":{"type":"Point","coordinates":[0,0]},"properties":{"description":"","title":"Sorghum"}},{"type":"Feature","geometry":{"type":"Point","coordinates":[37.215200000001,19.589600000003]},"properties":{"description":"","title":"Port Sudan","placename":"19.5896,37.2152","address":"19.5896,37.2152"}},{"type":"Feature","geometry":{"type":"Point","coordinates":[32.536399999998,15.572499999996]},"properties":{"description":"","title":"Khartoum","placename":"15.5725,32.5364","address":"15.5725,32.5364"}},{"type":"Feature","geometry":{"type":"Point","coordinates":[30.244893972597,13.1676489143]},"properties":{"description":"","title":"El Obeid","placename":"13.1676489143,30.2448939726","address":"13.1676489143,30.2448939726"}},{"type":"Feature","geometry":{"type":"Point","coordinates":[22.445403999997,13.441266400003]},"properties":{"description":"","title":"El Geniena","placename":"13.4412664,22.445404","address":"13.4412664,22.445404"}},{"type":"Feature","geometry":{"type":"Point","coordinates":[25.355938699996,13.626394100001]},"properties":{"description":"","title":"El Fasher","placename":"13.6263941,25.3559387","address":"13.6263941,25.3559387"}},{"type":"Feature","geometry":{"type":"Point","coordinates":[24.890582800002,12.055573000002]},"properties":{"description":"","title":"Nyala","placename":"12.055573,24.8905828","address":"12.055573,24.8905828"}},{"type":"Feature","geometry":{"type":"Point","coordinates":[0,0]},"properties":{"description":"","title":"Sorghum Local"}},{"type":"Feature","geometry":{"type":"Point","coordinates":[22.445403999997,13.441266400003]},"properties":{"description":"","title":"El Geniena","placename":"13.4412664,22.445404","address":"13.4412664,22.445404"}},{"type":"Feature","geometry":{"type":"Point","coordinates":[25.355938699996,13.626394100001]},"properties":{"description":"","title":"El Fasher","placename":"13.6263941,25.3559387","address":"13.6263941,25.3559387"}},{"type":"Feature","geometry":{"type":"Point","coordinates":[24.890582800002,12.055573000002]},"properties":{"description":"","title":"Nyala","placename":"12.055573,24.8905828","address":"12.055573,24.8905828"}},{"type":"Feature","geometry":{"type":"Point","coordinates":[35.386619999999,14.039673999999]},"properties":{"description":"","title":"Gedaref","placename":"14.039674,35.38662","address":"14.039674,35.386620"}},{"type":"Feature","geometry":{"type":"Point","coordinates":[30.244893972597,13.1676489143]},"properties":{"description":"","title":"El Obeid","placename":"13.1676489143,30.2448939726","address":"13.1676489143,30.2448939726"}},{"type":"Feature","geometry":{"type":"Point","coordinates":[34.3598639726,11.789792264303]},"properties":{"description":"","title":"Ed Damazin","placename":"11.7897922643,34.3598639726","address":"11.7897922643,34.3598639726"}},{"type":"Feature","geometry":{"type":"Point","coordinates":[36.410499999996,15.429600000002]},"properties":{"description":"","title":"Kassala","placename":"15.4296,36.4105","address":"15.4296,36.4105"}},{"type":"Feature","geometry":{"type":"Point","coordinates":[29.729401,11.014238000001]},"properties":{"description":"","title":"Kadugli","placename":"11.014238,29.729401","address":"11.014238,29.729401"}},{"type":"Feature","geometry":{"type":"Point","coordinates":[34.289530000003,10.559020000003]},"properties":{"description":"","title":"Kurmuk","placename":"10.55902,34.28953","address":"10.55902,34.28953"}},{"type":"Feature","geometry":{"type":"Point","coordinates":[22.561933300002,12.680049999996]},"properties":{"description":"","title":"Habila","placename":"12.68005,22.5619333","address":"12.68005,22.5619333"}},{"type":"Feature","geometry":{"type":"Point","coordinates":[22.866927999996,12.954246800004]},"properties":{"description":"","title":"Mornie","placename":"12.9542468,22.866928","address":"12.9542468,22.866928"}},{"type":"Feature","geometry":{"type":"Point","coordinates":[23.283157999997,11.950009599999]},"properties":{"description":"","title":"Mukjar","placename":"11.9500096,23.283158","address":"11.9500096,23.283158"}},{"type":"Feature","geometry":{"type":"Point","coordinates":[23.481063899997,12.899989100003]},"properties":{"description":"","title":"Zalingie","placename":"12.8999891,23.4810639","address":"12.8999891,23.4810639"}},{"type":"Feature","geometry":{"type":"Point","coordinates":[24.100862920702,13.668104867901]},"properties":{"description":"","title":"Kabkabiya","placename":"13.6681048679,24.1008629207","address":"13.6681048679,24.1008629207"}},{"type":"Feature","geometry":{"type":"Point","coordinates":[24.649877200002,14.206471100001]},"properties":{"description":"","title":"Kutum","placename":"14.2064711,24.6498772","address":"14.2064711,24.6498772"}},{"type":"Feature","geometry":{"type":"Point","coordinates":[26.149999999999,11.430000000001]},"properties":{"description":"","title":"Ed Daein","placename":"11.43,26.15","address":"11.43,26.15"}},{"type":"Feature","geometry":{"type":"Point","coordinates":[25.140263900004,11.275427799996]},"properties":{"description":"","title":"Gerida","placename":"11.2754278,25.1402639","address":"11.2754278,25.1402639"}},{"type":"Feature","geometry":{"type":"Point","coordinates":[22.589600000002,12.125116700003]},"properties":{"description":"","title":"Furubaranga","placename":"12.1251167,22.5896","address":"12.1251167,22.5896"}},{"type":"Feature","geometry":{"type":"Point","coordinates":[23.137543699999,12.372530800004]},"properties":{"description":"","title":"Garsila","placename":"12.3725308,23.1375437","address":"12.3725308,23.1375437"}},{"type":"Feature","geometry":{"type":"Point","coordinates":[23.482999999996,12.916999999997]},"properties":{"description":"","title":"Hamidiya","placename":"12.917,23.483","address":"12.917,23.483"}},{"type":"Feature","geometry":{"type":"Point","coordinates":[23.479999999999,12.909999999997]},"properties":{"description":"","title":"HasaHisa","placename":"12.91,23.48","address":"12.91,23.48"}},{"type":"Feature","geometry":{"type":"Point","coordinates":[26.983000000001,11.733999999997]},"properties":{"description":"","title":"Shabab","placename":"11.734,26.983","address":"11.734,26.983"}},{"type":"Feature","geometry":{"type":"Point","coordinates":[23.479999999999,12.909999999997]},"properties":{"description":"","title":"Taiba","placename":"12.91,23.48","address":"12.91,23.48"}},{"type":"Feature","geometry":{"type":"Point","coordinates":[22.965999999997,11.138999999996]},"properties":{"description":"","title":"Um Dukhun","placename":"11.139,22.966","address":"11.139,22.966"}},{"type":"Feature","geometry":{"type":"Point","coordinates":[24.596999999999,14.412000000004]},"properties":{"description":"","title":"Abdul Shakour","placename":"14.412,24.597","address":"14.412,24.597"}},{"type":"Feature","geometry":{"type":"Point","coordinates":[25.640110000004,13.2984104]},"properties":{"description":"","title":"Abu Delek","placename":"13.2984104,25.64011","address":"13.2984104,25.64011"}},{"type":"Feature","geometry":{"type":"Point","coordinates":[23.411999999999,14.331]},"properties":{"description":"","title":"Abu Gamera","placename":"14.331,23.412","address":"14.331,23.412"}},{"type":"Feature","geometry":{"type":"Point","coordinates":[25.812222219998,14.084999999999]},"properties":{"description":"","title":"Abu Geira","placename":"14.085,25.81222222","address":"14.085,25.81222222"}},{"type":"Feature","geometry":{"type":"Point","coordinates":[23.832866669997,14.669577779998]},"properties":{"description":"","title":"Abu Liha","placename":"14.66957778,23.83286667","address":"14.66957778,23.83286667"}},{"type":"Feature","geometry":{"type":"Point","coordinates":[25.615000000003,14.571]},"properties":{"description":"","title":"Abu Noshab","placename":"14.571,25.615","address":"14.571,25.615"}},{"type":"Feature","geometry":{"type":"Point","coordinates":[25.344000000002,13.665999999999]},"properties":{"description":"","title":"Abu Shouk Camp","placename":"13.666,25.344","address":"13.666,25.344"}},{"type":"Feature","geometry":{"type":"Point","coordinates":[25.447453999998,13.529880999999]},"properties":{"description":"","title":"Abudwiel","placename":"13.529881,25.447454","address":"13.529881,25.447454"}},{"type":"Feature","geometry":{"type":"Point","coordinates":[26.501000000004,12.014999999996]},"properties":{"description":"","title":"Al Khamsat","placename":"12.015,26.501","address":"12.015,26.501"}},{"type":"Feature","geometry":{"type":"Point","coordinates":[26.733173299997,11.966880400002]},"properties":{"description":"","title":"Al Saat","placename":"11.9668804,26.7331733","address":"11.9668804,26.7331733"}},{"type":"Feature","geometry":{"type":"Point","coordinates":[24.879000000001,14.053000000003]},"properties":{"description":"","title":"Amar Jedid","placename":"14.053,24.879","address":"14.053,24.879"}},{"type":"Feature","geometry":{"type":"Point","coordinates":[24.433333330001,14.283333330004]},"properties":{"description":"","title":"Amow","placename":"14.28333333,24.43333333","address":"14.28333333,24.43333333"}},{"type":"Feature","geometry":{"type":"Point","coordinates":[24.850000000001,14.682000000001]},"properties":{"description":"","title":"Anka","placename":"14.682,24.85","address":"14.682,24.85"}},{"type":"Feature","geometry":{"type":"Point","coordinates":[25.086052799998,13.267608299996]},"properties":{"description":"","title":"Arasho","placename":"13.2676083,25.0860528","address":"13.2676083,25.0860528"}},{"type":"Feature","geometry":{"type":"Point","coordinates":[24.566000000004,14.512999999996]},"properties":{"description":"","title":"Areida","placename":"14.513,24.566","address":"14.513,24.566"}},{"type":"Feature","geometry":{"type":"Point","coordinates":[24.745999999997,14.202999999996]},"properties":{"description":"","title":"Argala","placename":"14.203,24.746","address":"14.203,24.746"}},{"type":"Feature","geometry":{"type":"Point","coordinates":[25.475000000003,14.025999999999]},"properties":{"description":"","title":"Armadyat","placename":"14.026,25.475","address":"14.026,25.475"}},{"type":"Feature","geometry":{"type":"Point","coordinates":[25.195355500004,14.620536599998]},"properties":{"description":"","title":"Ba'ashim\/Tima","placename":"14.6205366,25.1953555","address":"14.6205366,25.1953555"}},{"type":"Feature","geometry":{"type":"Point","coordinates":[24.603000000001,14.656]},"properties":{"description":"","title":"Bakuri","placename":"14.656,24.603","address":"14.656,24.603"}},{"type":"Feature","geometry":{"type":"Point","coordinates":[25.710277800004,14.111388899999]},"properties":{"description":"","title":"Benama","placename":"14.1113889,25.7102778","address":"14.1113889,25.7102778"}},{"type":"Feature","geometry":{"type":"Point","coordinates":[24.740999999997,14.569999999999]},"properties":{"description":"","title":"Bere","placename":"14.57,24.741","address":"14.57,24.741"}},{"type":"Feature","geometry":{"type":"Point","coordinates":[24.735000000003,14.713000000003]},"properties":{"description":"","title":"Beridik","placename":"14.713,24.735","address":"14.713,24.735"}},{"type":"Feature","geometry":{"type":"Point","coordinates":[25.004,13.722000000003]},"properties":{"description":"","title":"Birka Saira (Nimra)","placename":"13.722,25.004","address":"13.722,25.004"}},{"type":"Feature","geometry":{"type":"Point","coordinates":[24.596999999999,14.665000000004]},"properties":{"description":"","title":"Birmaza","placename":"14.665,24.597","address":"14.665,24.597"}},{"type":"Feature","geometry":{"type":"Point","coordinates":[23.457000000002,15.414000000004]},"properties":{"description":"","title":"Boba","placename":"15.414,23.457","address":"15.414,23.457"}},{"type":"Feature","geometry":{"type":"Point","coordinates":[25.363000000002,14.196999999997]},"properties":{"description":"","title":"Daba Toga","placename":"14.197,25.363","address":"14.197,25.363"}},{"type":"Feature","geometry":{"type":"Point","coordinates":[24.914999999996,13.452999999998]},"properties":{"description":"","title":"Dali Camp","placename":"13.453,24.915","address":"13.453,24.915"}},{"type":"Feature","geometry":{"type":"Point","coordinates":[26.668,11.849999999997]},"properties":{"description":"","title":"Dalil Babiker","placename":"11.85,26.668","address":"11.85,26.668"}},{"type":"Feature","geometry":{"type":"Point","coordinates":[26.524000000002,15.521000000003]},"properties":{"description":"","title":"Dar Deifa","placename":"15.521,26.524","address":"15.521,26.524"}},{"type":"Feature","geometry":{"type":"Point","coordinates":[25.407416660002,13.291066670001]},"properties":{"description":"","title":"Dar El Neeim","placename":"13.29106667,25.40741666","address":"13.29106667,25.40741666"}},{"type":"Feature","geometry":{"type":"Point","coordinates":[25.522114000001,13.056532999999]},"properties":{"description":"","title":"Dar Elsalam Town","placename":"13.056533,25.522114","address":"13.056533,25.522114"}},{"type":"Feature","geometry":{"type":"Point","coordinates":[24.508850000002,14.055419999999]},"properties":{"description":"","title":"Dawa","placename":"14.05542,24.50885","address":"14.05542,24.50885"}},{"type":"Feature","geometry":{"type":"Point","coordinates":[24.585000000003,14.607000000004]},"properties":{"description":"","title":"Deesa","placename":"14.607,24.585","address":"14.607,24.585"}},{"type":"Feature","geometry":{"type":"Point","coordinates":[25.853999999997,14.522000000003]},"properties":{"description":"","title":"Dekelik","placename":"14.522,25.854","address":"14.522,25.854"}},{"type":"Feature","geometry":{"type":"Point","coordinates":[24.292619999996,14.352960000004]},"properties":{"description":"","title":"Deliba","placename":"14.35296,24.29262","address":"14.35296,24.29262"}},{"type":"Feature","geometry":{"type":"Point","coordinates":[25.159333299998,13.295138899999]},"properties":{"description":"","title":"Demsilik","placename":"13.2951389,25.1593333","address":"13.2951389,25.1593333"}},{"type":"Feature","geometry":{"type":"Point","coordinates":[24.866999999997,14.079999999997]},"properties":{"description":"","title":"Durum","placename":"14.08,24.867","address":"14.08,24.867"}},{"type":"Feature","geometry":{"type":"Point","coordinates":[25.719654700002,13.113250200001]},"properties":{"description":"","title":"Ed Al Bideda","placename":"13.1132502,25.7196547","address":"13.1132502,25.7196547"}},{"type":"Feature","geometry":{"type":"Point","coordinates":[23.236549999996,14.736227780001]},"properties":{"description":"","title":"Eid Elkhair","placename":"14.73622778,23.23655","address":"14.73622778,23.23655"}},{"type":"Feature","geometry":{"type":"Point","coordinates":[26.773999999999,15.393000000004]},"properties":{"description":"","title":"Ein Bessaro","placename":"15.393,26.774","address":"15.393,26.774"}},{"type":"Feature","geometry":{"type":"Point","coordinates":[24.490999999999,14.572000000003]},"properties":{"description":"","title":"El Dur","placename":"14.572,24.491","address":"14.572,24.491"}},{"type":"Feature","geometry":{"type":"Point","coordinates":[25.355999999998,13.626000000004]},"properties":{"description":"","title":"El Fasher Town IDPs","placename":"13.626,25.356","address":"13.626,25.356"}},{"type":"Feature","geometry":{"type":"Point","coordinates":[26.733999999997,14.885]},"properties":{"description":"","title":"El Fula","placename":"14.885,26.734","address":"14.885,26.734"}},{"type":"Feature","geometry":{"type":"Point","coordinates":[26.248000000001,15.587999999999]},"properties":{"description":"","title":"El Hara","placename":"15.588,26.248","address":"15.588,26.248"}},{"type":"Feature","geometry":{"type":"Point","coordinates":[26.968,15.168]},"properties":{"description":"","title":"El Hatan","placename":"15.168,26.968","address":"15.168,26.968"}},{"type":"Feature","geometry":{"type":"Point","coordinates":[25.369999999997,13.672000000001]},"properties":{"description":"","title":"El Salam Camp","placename":"13.672,25.37","address":"13.672,25.37"}},{"type":"Feature","geometry":{"type":"Point","coordinates":[23.379334799996,13.988800499997]},"properties":{"description":"","title":"El Sereif Bn Hussein","placename":"13.9888005,23.3793348","address":"13.9888005,23.3793348"}},{"type":"Feature","geometry":{"type":"Point","coordinates":[23.419999999996,13.988511399999]},"properties":{"description":"","title":"El-Serief IDPs","placename":"13.9885114,23.42","address":"13.9885114,23.42"}},{"type":"Feature","geometry":{"type":"Point","coordinates":[24.562145000004,14.235844999996]},"properties":{"description":"","title":"ElSheikh A\/AlBagi","placename":"14.235845,24.562145","address":"14.235845,24.562145"}},{"type":"Feature","geometry":{"type":"Point","coordinates":[26.862836099998,12.2081972]},"properties":{"description":"","title":"Eyal Amin","placename":"12.2081972,26.8628361","address":"12.2081972,26.8628361"}},{"type":"Feature","geometry":{"type":"Point","coordinates":[23.903959800001,13.441552899997]},"properties":{"description":"","title":"Fago","placename":"13.4415529,23.9039598","address":"13.4415529,23.9039598"}},{"type":"Feature","geometry":{"type":"Point","coordinates":[24.561000000004,14.151999999996]},"properties":{"description":"","title":"Fata Borno","placename":"14.152,24.561","address":"14.152,24.561"}},{"type":"Feature","geometry":{"type":"Point","coordinates":[25.512,13.969999999999]},"properties":{"description":"","title":"Fazi Dor","placename":"13.97,25.512","address":"13.97,25.512"}},{"type":"Feature","geometry":{"type":"Point","coordinates":[24.009999999996,14.800000000002]},"properties":{"description":"","title":"Frog","placename":"14.8,24.01","address":"14.8,24.01"}},{"type":"Feature","geometry":{"type":"Point","coordinates":[23.619999999999,15.542999999996]},"properties":{"description":"","title":"Furawiya","placename":"15.543,23.62","address":"15.543,23.62"}},{"type":"Feature","geometry":{"type":"Point","coordinates":[23.874176999996,13.736964999997]},"properties":{"description":"","title":"Gara-Ferjawia","placename":"13.736965,23.874177","address":"13.736965,23.874177"}},{"type":"Feature","geometry":{"type":"Point","coordinates":[23.865327800004,13.759850000001]},"properties":{"description":"","title":"Gara-Zawia","placename":"13.75985,23.8653278","address":"13.75985,23.8653278"}},{"type":"Feature","geometry":{"type":"Point","coordinates":[25.349999999996,13.592000000004]},"properties":{"description":"","title":"Garni Area","placename":"13.592,25.35","address":"13.592,25.35"}},{"type":"Feature","geometry":{"type":"Point","coordinates":[23.24307778,15.154827779997]},"properties":{"description":"","title":"Gasimba","placename":"15.15482778,23.24307778","address":"15.15482778,23.24307778"}},{"type":"Feature","geometry":{"type":"Point","coordinates":[23.8784021,13.622436900001]},"properties":{"description":"","title":"Gergo (Gergo, Sabrna, Sanabiel)","placename":"13.6224369,23.8784021","address":"13.6224369,23.8784021"}},{"type":"Feature","geometry":{"type":"Point","coordinates":[25.437983332997,13.257316667002]},"properties":{"description":"","title":"Gerwit Beshim","placename":"13.257316667,25.437983333","address":"13.257316667,25.437983333"}},{"type":"Feature","geometry":{"type":"Point","coordinates":[24.762,14.220000000003]},"properties":{"description":"","title":"Goba","placename":"14.22,24.762","address":"14.22,24.762"}},{"type":"Feature","geometry":{"type":"Point","coordinates":[25.4628,13.416688899999]},"properties":{"description":"","title":"Gos Beina","placename":"13.4166889,25.4628","address":"13.4166889,25.4628"}},{"type":"Feature","geometry":{"type":"Point","coordinates":[25.264950000004,13.311849999999]},"properties":{"description":"","title":"Gos Diges","placename":"13.31185,25.26495","address":"13.31185,25.26495"}},{"type":"Feature","geometry":{"type":"Point","coordinates":[25.914000000001,14.182]},"properties":{"description":"","title":"Goz Laben","placename":"14.182,25.914","address":"14.182,25.914"}},{"type":"Feature","geometry":{"type":"Point","coordinates":[23.916000000001,15.145000000004]},"properties":{"description":"","title":"Gurbura","placename":"15.145,23.916","address":"15.145,23.916"}},{"type":"Feature","geometry":{"type":"Point","coordinates":[23.952999999997,14.200999999998]},"properties":{"description":"","title":"Hareiga","placename":"14.201,23.953","address":"14.201,23.953"}},{"type":"Feature","geometry":{"type":"Point","coordinates":[24.133333330001,13.649999999998]},"properties":{"description":"","title":"Harra","placename":"13.65,24.13333333","address":"13.65,24.13333333"}},{"type":"Feature","geometry":{"type":"Point","coordinates":[25.399999999999,14.149000000003]},"properties":{"description":"","title":"Hashaba Baraka","placename":"14.149,25.4","address":"14.149,25.4"}},{"type":"Feature","geometry":{"type":"Point","coordinates":[25.079999999997,14.387999999998]},"properties":{"description":"","title":"Hashaba Center","placename":"14.388,25.08","address":"14.388,25.08"}},{"type":"Feature","geometry":{"type":"Point","coordinates":[24.981000000002,14.438]},"properties":{"description":"","title":"Hashaba North","placename":"14.438,24.981","address":"14.438,24.981"}},{"type":"Feature","geometry":{"type":"Point","coordinates":[25.141000000003,14.278]},"properties":{"description":"","title":"Hashaba South","placename":"14.278,25.141","address":"14.278,25.141"}},{"type":"Feature","geometry":{"type":"Point","coordinates":[26.632999999998,11.959000000004]},"properties":{"description":"","title":"Haskanita","placename":"11.959,26.633","address":"11.959,26.633"}},{"type":"Feature","geometry":{"type":"Point","coordinates":[23.166,14.938999999999]},"properties":{"description":"","title":"Hilaliya","placename":"14.939,23.166","address":"14.939,23.166"}},{"type":"Feature","geometry":{"type":"Point","coordinates":[25.388999999996,14.733]},"properties":{"description":"","title":"Hilif Jenub","placename":"14.733,25.389","address":"14.733,25.389"}},{"type":"Feature","geometry":{"type":"Point","coordinates":[25.388999999996,14.733]},"properties":{"description":"","title":"Hilif Saniya","placename":"14.733,25.389","address":"14.733,25.389"}},{"type":"Feature","geometry":{"type":"Point","coordinates":[25.450000000002,14.788000000001]},"properties":{"description":"","title":"Hilif Shamal","placename":"14.788,25.45","address":"14.788,25.45"}},{"type":"Feature","geometry":{"type":"Point","coordinates":[25.638,14.155999999999]},"properties":{"description":"","title":"Hillat Kharif","placename":"14.156,25.638","address":"14.156,25.638"}},{"type":"Feature","geometry":{"type":"Point","coordinates":[24.666000000001,13.897999999996]},"properties":{"description":"","title":"Jabir","placename":"13.898,24.666","address":"13.898,24.666"}},{"type":"Feature","geometry":{"type":"Point","coordinates":[24.759000000003,14.134000000004]},"properties":{"description":"","title":"Jamboli","placename":"14.134,24.759","address":"14.134,24.759"}},{"type":"Feature","geometry":{"type":"Point","coordinates":[25.523966670001,13.150900000004]},"properties":{"description":"","title":"Jauwr","placename":"13.1509,25.52396667","address":"13.1509,25.52396667"}},{"type":"Feature","geometry":{"type":"Point","coordinates":[26.052999999999,15.390999999996]},"properties":{"description":"","title":"Jebel Eisa","placename":"15.391,26.053","address":"15.391,26.053"}},{"type":"Feature","geometry":{"type":"Point","coordinates":[25.38533517,13.559698059998]},"properties":{"description":"","title":"Jougojougo Area","placename":"13.55969806,25.38533517","address":"13.55969806,25.38533517"}},{"type":"Feature","geometry":{"type":"Point","coordinates":[23.323938999997,14.979530999999]},"properties":{"description":"","title":"Jourbokay","placename":"14.979531,23.323939","address":"14.979531,23.323939"}},{"type":"Feature","geometry":{"type":"Point","coordinates":[24.067000000003,15.299999999996]},"properties":{"description":"","title":"Juktora","placename":"15.3,24.067","address":"15.3,24.067"}},{"type":"Feature","geometry":{"type":"Point","coordinates":[23.415975,14.922258329998]},"properties":{"description":"","title":"Jurageem","placename":"14.92225833,23.415975","address":"14.92225833,23.415975"}},{"type":"Feature","geometry":{"type":"Point","coordinates":[23.79180552,14.026999930004]},"properties":{"description":"","title":"Kabkabeiya Town","placename":"14.02699993,23.79180552","address":"14.02699993,23.79180552"}},{"type":"Feature","geometry":{"type":"Point","coordinates":[24.952694499999,14.012738899998]},"properties":{"description":"","title":"Kafot","placename":"14.0127389,24.9526945","address":"14.0127389,24.9526945"}},{"type":"Feature","geometry":{"type":"Point","coordinates":[23.809330600003,13.430338899996]},"properties":{"description":"","title":"Kala","placename":"13.4303389,23.8093306","address":"13.4303389,23.8093306"}},{"type":"Feature","geometry":{"type":"Point","coordinates":[25.939503999999,12.953467999997]},"properties":{"description":"","title":"Kalamindo","placename":"12.953468,25.939504","address":"12.953468,25.939504"}},{"type":"Feature","geometry":{"type":"Point","coordinates":[23.432538889997,15.027497219997]},"properties":{"description":"","title":"Kamo","placename":"15.02749722,23.43253889","address":"15.02749722,23.43253889"}},{"type":"Feature","geometry":{"type":"Point","coordinates":[24.654999999999,14.234000000002]},"properties":{"description":"","title":"Kassab Camp","placename":"14.234,24.655","address":"14.234,24.655"}},{"type":"Feature","geometry":{"type":"Point","coordinates":[25.699999999999,14.454999999997]},"properties":{"description":"","title":"Kedrin","placename":"14.455,25.7","address":"14.455,25.7"}},{"type":"Feature","geometry":{"type":"Point","coordinates":[24.94434722,13.380219439998]},"properties":{"description":"","title":"Khartoum-Jadid","placename":"13.38021944,24.94434722","address":"13.38021944,24.94434722"}},{"type":"Feature","geometry":{"type":"Point","coordinates":[24.729000000001,14.152999999996]},"properties":{"description":"","title":"Korgay","placename":"14.153,24.729","address":"14.153,24.729"}},{"type":"Feature","geometry":{"type":"Point","coordinates":[24.754756000002,13.852330999997]},"properties":{"description":"","title":"Korma","placename":"13.852331,24.754756","address":"13.852331,24.754756"}},{"type":"Feature","geometry":{"type":"Point","coordinates":[26.008999999998,14.402999999996]},"properties":{"description":"","title":"Koskorie","placename":"14.403,26.009","address":"14.403,26.009"}},{"type":"Feature","geometry":{"type":"Point","coordinates":[25.229999999997,14.149000000003]},"properties":{"description":"","title":"Kul Kul","placename":"14.149,25.23","address":"14.149,25.23"}},{"type":"Feature","geometry":{"type":"Point","coordinates":[24.910139799998,13.949317199997]},"properties":{"description":"","title":"Kuma","placename":"13.9493172,24.9101398","address":"13.9493172,24.9101398"}},{"type":"Feature","geometry":{"type":"Point","coordinates":[24.893628500001,13.506832400003]},"properties":{"description":"","title":"Kunjarra","placename":"13.5068324,24.8936285","address":"13.5068324,24.8936285"}},{"type":"Feature","geometry":{"type":"Point","coordinates":[24.224694000001,14.622543999996]},"properties":{"description":"","title":"Kurbia (includes Um Mahareik)","placename":"14.622544,24.224694","address":"14.622544,24.224694"}},{"type":"Feature","geometry":{"type":"Point","coordinates":[24.649999999998,14.205999999998]},"properties":{"description":"","title":"Kutum Town","placename":"14.206,24.65","address":"14.206,24.65"}},{"type":"Feature","geometry":{"type":"Point","coordinates":[24.966000000001,14.084999999999]},"properties":{"description":"","title":"Lemena","placename":"14.085,24.966","address":"14.085,24.966"}},{"type":"Feature","geometry":{"type":"Point","coordinates":[26.969000000002,11.891000000004]},"properties":{"description":"","title":"Likeliki","placename":"11.891,26.969","address":"11.891,26.969"}},{"type":"Feature","geometry":{"type":"Point","coordinates":[24.067000000003,15.032999999997]},"properties":{"description":"","title":"Lil","placename":"15.033,24.067","address":"15.033,24.067"}},{"type":"Feature","geometry":{"type":"Point","coordinates":[25.118999999998,13.686000000001]},"properties":{"description":"","title":"Mado Jenub","placename":"13.686,25.119","address":"13.686,25.119"}},{"type":"Feature","geometry":{"type":"Point","coordinates":[26.040000000001,14.605]},"properties":{"description":"","title":"Mado Shamal","placename":"14.605,26.04","address":"14.605,26.04"}},{"type":"Feature","geometry":{"type":"Point","coordinates":[24.624999999997,14.456999999999]},"properties":{"description":"","title":"Malagat","placename":"14.457,24.625","address":"14.457,24.625"}},{"type":"Feature","geometry":{"type":"Point","coordinates":[26.1529557,15.082504199999]},"properties":{"description":"","title":"Malha Town","placename":"15.0825042,26.1529557","address":"15.0825042,26.1529557"}},{"type":"Feature","geometry":{"type":"Point","coordinates":[26.577000000002,14.817999999999]},"properties":{"description":"","title":"Marega","placename":"14.818,26.577","address":"14.818,26.577"}},{"type":"Feature","geometry":{"type":"Point","coordinates":[26.333999999999,14.969]},"properties":{"description":"","title":"Marsous","placename":"14.969,26.334","address":"14.969,26.334"}},{"type":"Feature","geometry":{"type":"Point","coordinates":[24.629316299996,14.099970799996]},"properties":{"description":"","title":"Masri (incl Dawa\/Beliga)","placename":"14.0999708,24.6293163","address":"14.0999708,24.6293163"}},{"type":"Feature","geometry":{"type":"Point","coordinates":[23.832230600001,13.550349999999]},"properties":{"description":"","title":"Mastriha (Mastriha, Mithieb)","placename":"13.55035,23.8322306","address":"13.55035,23.8322306"}},{"type":"Feature","geometry":{"type":"Point","coordinates":[25.549999999999,14.139999999999]},"properties":{"description":"","title":"Mellit town- Residents","placename":"14.14,25.55","address":"14.14,25.55"}},{"type":"Feature","geometry":{"type":"Point","coordinates":[24.218999999997,14.851999999997]},"properties":{"description":"","title":"Miski","placename":"14.852,24.219","address":"14.852,24.219"}},{"type":"Feature","geometry":{"type":"Point","coordinates":[25.736999999996,14.555999999999]},"properties":{"description":"","title":"Mou","placename":"14.556,25.737","address":"14.556,25.737"}},{"type":"Feature","geometry":{"type":"Point","coordinates":[24.915999999998,10.650000000002]},"properties":{"description":"","title":"Mulam Elhush","placename":"10.65,24.916","address":"10.65,24.916"}},{"type":"Feature","geometry":{"type":"Point","coordinates":[23.650000000001,15.167]},"properties":{"description":"","title":"Mustariha","placename":"15.167,23.65","address":"15.167,23.65"}},{"type":"Feature","geometry":{"type":"Point","coordinates":[24.228999999998,15.259000000004]},"properties":{"description":"","title":"Muzbat","placename":"15.259,24.229","address":"15.259,24.229"}},{"type":"Feature","geometry":{"type":"Point","coordinates":[24.901999999999,13.462999999999]},"properties":{"description":"","title":"Nina","placename":"13.463,24.902","address":"13.463,24.902"}},{"type":"Feature","geometry":{"type":"Point","coordinates":[24.039999999997,13.452000000004]},"properties":{"description":"","title":"Nomo","placename":"13.452,24.04","address":"13.452,24.04"}},{"type":"Feature","geometry":{"type":"Point","coordinates":[24.864,14.762999999999]},"properties":{"description":"","title":"Onyo","placename":"14.763,24.864","address":"14.763,24.864"}},{"type":"Feature","geometry":{"type":"Point","coordinates":[24.247000000004,15.066999999996]},"properties":{"description":"","title":"Oriri","placename":"15.067,24.247","address":"15.067,24.247"}},{"type":"Feature","geometry":{"type":"Point","coordinates":[23.8909,14.848295799998]},"properties":{"description":"","title":"Orschi (inclues Ana Bagi)","placename":"14.8482958,23.8909","address":"14.8482958,23.8909"}},{"type":"Feature","geometry":{"type":"Point","coordinates":[25.626649999996,13.373183299997]},"properties":{"description":"","title":"Sag El Naam","placename":"13.3731833,25.62665","address":"13.3731833,25.62665"}},{"type":"Feature","geometry":{"type":"Point","coordinates":[23.772279999999,13.588670000003]},"properties":{"description":"","title":"Sangir (Sangir, Jebel-Moos, Tege)","placename":"13.58867,23.77228","address":"13.58867,23.77228"}},{"type":"Feature","geometry":{"type":"Point","coordinates":[25.604,14.598999999998]},"properties":{"description":"","title":"Sani Haye","placename":"14.599,25.604","address":"14.599,25.604"}},{"type":"Feature","geometry":{"type":"Point","coordinates":[23.312000000002,13.477000000003]},"properties":{"description":"","title":"Saraf Omra","placename":"13.477,23.312","address":"13.477,23.312"}},{"type":"Feature","geometry":{"type":"Point","coordinates":[25.050297800001,13.693080600002]},"properties":{"description":"","title":"Sarfaya Area","placename":"13.6930806,25.0502978","address":"13.6930806,25.0502978"}},{"type":"Feature","geometry":{"type":"Point","coordinates":[25.752999999998,14.313000000001]},"properties":{"description":"","title":"Sayeh","placename":"14.313,25.753","address":"14.313,25.753"}},{"type":"Feature","geometry":{"type":"Point","coordinates":[26.412000000001,15.474999999998]},"properties":{"description":"","title":"Sereif","placename":"15.475,26.412","address":"15.475,26.412"}},{"type":"Feature","geometry":{"type":"Point","coordinates":[25.233133300002,13.650543300001]},"properties":{"description":"","title":"Shagra Area","placename":"13.6505433,25.2331333","address":"13.6505433,25.2331333"}},{"type":"Feature","geometry":{"type":"Point","coordinates":[26.481000000003,12.064000000003]},"properties":{"description":"","title":"Shak-Elkhadir","placename":"12.064,26.481","address":"12.064,26.481"}},{"type":"Feature","geometry":{"type":"Point","coordinates":[26.538000000001,15.005000000001]},"properties":{"description":"","title":"Shakhakha","placename":"15.005,26.538","address":"15.005,26.538"}},{"type":"Feature","geometry":{"type":"Point","coordinates":[25.189000000002,13.059999999998]},"properties":{"description":"","title":"Shangil Tobay Camp","placename":"13.06,25.189","address":"13.06,25.189"}},{"type":"Feature","geometry":{"type":"Point","coordinates":[24.004738000001,15.4488357]},"properties":{"description":"","title":"Shegeg Karo","placename":"15.4488357,24.004738","address":"15.4488357,24.004738"}},{"type":"Feature","geometry":{"type":"Point","coordinates":[25.073000000002,13.167999999998]},"properties":{"description":"","title":"Sherifa","placename":"13.168,25.073","address":"13.168,25.073"}},{"type":"Feature","geometry":{"type":"Point","coordinates":[25.072499999997,13.168333300004]},"properties":{"description":"","title":"Shewa Safaha","placename":"13.1683333,25.0725","address":"13.1683333,25.0725"}},{"type":"Feature","geometry":{"type":"Point","coordinates":[24.098999999999,13.606999999999]},"properties":{"description":"","title":"Shoba Mansour","placename":"13.607,24.099","address":"13.607,24.099"}},{"type":"Feature","geometry":{"type":"Point","coordinates":[25.881000000003,14.493999999999]},"properties":{"description":"","title":"Sindy","placename":"14.494,25.881","address":"14.494,25.881"}},{"type":"Feature","geometry":{"type":"Point","coordinates":[24.828249999999,13.726320000002]},"properties":{"description":"","title":"Ta'alba","placename":"13.72632,24.82825","address":"13.72632,24.82825"}},{"type":"Feature","geometry":{"type":"Point","coordinates":[25.1108407,13.196626000004]},"properties":{"description":"","title":"Tangrara","placename":"13.196626,25.1108407","address":"13.196626,25.1108407"}},{"type":"Feature","geometry":{"type":"Point","coordinates":[24.911024800004,13.4839056]},"properties":{"description":"","title":"Tawila & Rwanda","placename":"13.4839056,24.9110248","address":"13.4839056,24.9110248"}},{"type":"Feature","geometry":{"type":"Point","coordinates":[23.950000000001,15.333]},"properties":{"description":"","title":"Ternawdo","placename":"15.333,23.95","address":"15.333,23.95"}},{"type":"Feature","geometry":{"type":"Point","coordinates":[25.649999999996,14.035999999996]},"properties":{"description":"","title":"Tofto","placename":"14.036,25.65","address":"14.036,25.65"}},{"type":"Feature","geometry":{"type":"Point","coordinates":[24.091000000002,15.196999999998]},"properties":{"description":"","title":"Turba","placename":"15.197,24.091","address":"15.197,24.091"}},{"type":"Feature","geometry":{"type":"Point","coordinates":[25.383306500004,14.016666399998]},"properties":{"description":"","title":"Um Ajaja","placename":"14.0166664,25.3833065","address":"14.0166664,25.3833065"}},{"type":"Feature","geometry":{"type":"Point","coordinates":[23.704579999996,15.020690000001]},"properties":{"description":"","title":"Um Barru","placename":"15.02069,23.70458","address":"15.02069,23.70458"}},{"type":"Feature","geometry":{"type":"Point","coordinates":[26.898390200002,14.936087900002]},"properties":{"description":"","title":"Um Bayada","placename":"14.9360879,26.8983902","address":"14.9360879,26.8983902"}},{"type":"Feature","geometry":{"type":"Point","coordinates":[24.904612300001,13.499824600002]},"properties":{"description":"","title":"Um Buranga","placename":"13.4998246,24.9046123","address":"13.4998246,24.9046123"}},{"type":"Feature","geometry":{"type":"Point","coordinates":[25.153130600003,12.9799056]},"properties":{"description":"","title":"Um Deressaya","placename":"12.9799056,25.1531306","address":"12.9799056,25.1531306"}},{"type":"Feature","geometry":{"type":"Point","coordinates":[25.483197899998,13.033168200003]},"properties":{"description":"","title":"Um Dul","placename":"13.0331682,25.4831979","address":"13.0331682,25.4831979"}},{"type":"Feature","geometry":{"type":"Point","coordinates":[25.929379999997,13.579318000003]},"properties":{"description":"","title":"Um Dum Area","placename":"13.579318,25.92938","address":"13.579318,25.92938"}},{"type":"Feature","geometry":{"type":"Point","coordinates":[24.900000000004,13.633333299997]},"properties":{"description":"","title":"Um Gelbag","placename":"13.6333333,24.9","address":"13.6333333,24.9"}},{"type":"Feature","geometry":{"type":"Point","coordinates":[24.170999999998,14.941999999996]},"properties":{"description":"","title":"Um Haraz","placename":"14.942,24.171","address":"14.942,24.171"}},{"type":"Feature","geometry":{"type":"Point","coordinates":[26.691150600004,13.6024667]},"properties":{"description":"","title":"Um Kadada","placename":"13.6024667,26.6911506","address":"13.6024667,26.6911506"}},{"type":"Feature","geometry":{"type":"Point","coordinates":[25.171999999997,13.187999999999]},"properties":{"description":"","title":"Um Khair","placename":"13.188,25.172","address":"13.188,25.172"}},{"type":"Feature","geometry":{"type":"Point","coordinates":[25.072,13.348999999996]},"properties":{"description":"","title":"Um Laota","placename":"13.349,25.072","address":"13.349,25.072"}},{"type":"Feature","geometry":{"type":"Point","coordinates":[24.736999999998,13.994]},"properties":{"description":"","title":"Um layona","placename":"13.994,24.737","address":"13.994,24.737"}},{"type":"Feature","geometry":{"type":"Point","coordinates":[24.280000000003,14.729999999997]},"properties":{"description":"","title":"Um Mahareik","placename":"14.73,24.28","address":"14.73,24.28"}},{"type":"Feature","geometry":{"type":"Point","coordinates":[24.280085099997,14.729530399998]},"properties":{"description":"","title":"Um Marahik Area","placename":"14.7295304,24.2800851","address":"14.7295304,24.2800851"}},{"type":"Feature","geometry":{"type":"Point","coordinates":[24.893,14.672000000001]},"properties":{"description":"","title":"Um Rai","placename":"14.672,24.893","address":"14.672,24.893"}},{"type":"Feature","geometry":{"type":"Point","coordinates":[25.119500000003,13.381166699997]},"properties":{"description":"","title":"Um Sayalla - Alein","placename":"13.3811667,25.1195","address":"13.3811667,25.1195"}},{"type":"Feature","geometry":{"type":"Point","coordinates":[24.311999999999,14.625000000001]},"properties":{"description":"","title":"Um Shidiq","placename":"14.625,24.312","address":"14.625,24.312"}},{"type":"Feature","geometry":{"type":"Point","coordinates":[25.151999999996,14.424999999996]},"properties":{"description":"","title":"Um Sidr","placename":"14.425,25.152","address":"14.425,25.152"}},{"type":"Feature","geometry":{"type":"Point","coordinates":[23.532999999999,15.299999999996]},"properties":{"description":"","title":"Uru","placename":"15.3,23.533","address":"15.3,23.533"}},{"type":"Feature","geometry":{"type":"Point","coordinates":[25.750855599999,13.046483299998]},"properties":{"description":"","title":"Wadi Kota","placename":"13.0464833,25.7508556","address":"13.0464833,25.7508556"}},{"type":"Feature","geometry":{"type":"Point","coordinates":[26.239000000003,14.800000000002]},"properties":{"description":"","title":"Wadi Osher","placename":"14.8,26.239","address":"14.8,26.239"}},{"type":"Feature","geometry":{"type":"Point","coordinates":[25.381263099999,15.3759499]},"properties":{"description":"","title":"Wakahem","placename":"15.3759499,25.3812631","address":"15.3759499,25.3812631"}},{"type":"Feature","geometry":{"type":"Point","coordinates":[25.499000000003,13.892000000004]},"properties":{"description":"","title":"Wama","placename":"13.892,25.499","address":"13.892,25.499"}},{"type":"Feature","geometry":{"type":"Point","coordinates":[25.309,13.481000000001]},"properties":{"description":"","title":"Zam Zam Camp","placename":"13.481,25.309","address":"13.481,25.309"}},{"type":"Feature","geometry":{"type":"Point","coordinates":[25.309,13.481000000001]},"properties":{"description":"","title":"Zam Zam Camp","placename":"13.481,25.309","address":"13.481,25.309"}},{"type":"Feature","geometry":{"type":"Point","coordinates":[24.279000000001,12.513999999999]},"properties":{"description":"","title":"A\/Jabar A","placename":"12.514,24.279","address":"12.514,24.279"}},{"type":"Feature","geometry":{"type":"Point","coordinates":[24.676033300001,11.597016699999]},"properties":{"description":"","title":"Abu ajoura","placename":"11.5970167,24.6760333","address":"11.5970167,24.6760333"}},{"type":"Feature","geometry":{"type":"Point","coordinates":[26.739999999999,11.060000000004]},"properties":{"description":"","title":"Abu Jabra (Buram)","placename":"11.06,26.74","address":"11.06,26.74"}},{"type":"Feature","geometry":{"type":"Point","coordinates":[26.854000000004,11.065999999998]},"properties":{"description":"","title":"Abu Jabra (Ed Daein)","placename":"11.066,26.854","address":"11.066,26.854"}},{"type":"Feature","geometry":{"type":"Point","coordinates":[26.535701899999,11.586806300002]},"properties":{"description":"","title":"Abu karinka HC","placename":"11.5868063,26.5357019","address":"11.5868063,26.5357019"}},{"type":"Feature","geometry":{"type":"Point","coordinates":[26.201999999997,10.986000000002]},"properties":{"description":"","title":"Abu Matariq IDPs","placename":"10.986,26.202","address":"10.986,26.202"}},{"type":"Feature","geometry":{"type":"Point","coordinates":[25.104999999999,12.175999999998]},"properties":{"description":"","title":"Abu Odam","placename":"12.176,25.105","address":"12.176,25.105"}},{"type":"Feature","geometry":{"type":"Point","coordinates":[24.716436799999,11.186199700003]},"properties":{"description":"","title":"Abu Sallala","placename":"11.1861997,24.7164368","address":"11.1861997,24.7164368"}},{"type":"Feature","geometry":{"type":"Point","coordinates":[27.089,11.308000000001]},"properties":{"description":"","title":"Adilla IDPs","placename":"11.308,27.089","address":"11.308,27.089"}},{"type":"Feature","geometry":{"type":"Point","coordinates":[25.856104800004,12.443283399997]},"properties":{"description":"","title":"Ajara","placename":"12.4432834,25.8561048","address":"12.4432834,25.8561048"}},{"type":"Feature","geometry":{"type":"Point","coordinates":[24.286999999998,12.499000000004]},"properties":{"description":"","title":"Al Battery","placename":"12.499,24.287","address":"12.499,24.287"}},{"type":"Feature","geometry":{"type":"Point","coordinates":[25.794000000003,11.095000000001]},"properties":{"description":"","title":"Al Firdos","placename":"11.095,25.794","address":"11.095,25.794"}},{"type":"Feature","geometry":{"type":"Point","coordinates":[27.047999999996,11.251999999997]},"properties":{"description":"","title":"Al Gora IDPs","placename":"11.252,27.048","address":"11.252,27.048"}},{"type":"Feature","geometry":{"type":"Point","coordinates":[24.871000000004,12.916000000002]},"properties":{"description":"","title":"Al Malam","placename":"12.916,24.871","address":"12.916,24.871"}},{"type":"Feature","geometry":{"type":"Point","coordinates":[26.114999999997,11.469999999997]},"properties":{"description":"","title":"Al Mashroot","placename":"11.47,26.115","address":"11.47,26.115"}},{"type":"Feature","geometry":{"type":"Point","coordinates":[26.975999999997,11.578999999996]},"properties":{"description":"","title":"Al Mazroub HC","placename":"11.579,26.976","address":"11.579,26.976"}},{"type":"Feature","geometry":{"type":"Point","coordinates":[26.776000000003,11.541]},"properties":{"description":"","title":"Al Neem","placename":"11.541,26.776","address":"11.541,26.776"}},{"type":"Feature","geometry":{"type":"Point","coordinates":[25.5926667,11.352405599996]},"properties":{"description":"","title":"Al Rouse","placename":"11.3524056,25.5926667","address":"11.3524056,25.5926667"}},{"type":"Feature","geometry":{"type":"Point","coordinates":[24.577429999997,11.485100000004]},"properties":{"description":"","title":"Al Safia","placename":"11.4851,24.57743","address":"11.4851,24.57743"}},{"type":"Feature","geometry":{"type":"Point","coordinates":[26.399000000003,11.747999999998]},"properties":{"description":"","title":"Al Sahab","placename":"11.748,26.399","address":"11.748,26.399"}},{"type":"Feature","geometry":{"type":"Point","coordinates":[24.909999999996,12.101999999998]},"properties":{"description":"","title":"Al Salam","placename":"12.102,24.91","address":"12.102,24.91"}},{"type":"Feature","geometry":{"type":"Point","coordinates":[24.740999999997,12.192999999996]},"properties":{"description":"","title":"Amakasara","placename":"12.193,24.741","address":"12.193,24.741"}},{"type":"Feature","geometry":{"type":"Point","coordinates":[24.566999999997,12.088000000002]},"properties":{"description":"","title":"Amar Jaded","placename":"12.088,24.567","address":"12.088,24.567"}},{"type":"Feature","geometry":{"type":"Point","coordinates":[23.913000000004,12.205999999999]},"properties":{"description":"","title":"Ardeba","placename":"12.206,23.913","address":"12.206,23.913"}},{"type":"Feature","geometry":{"type":"Point","coordinates":[25.727999999997,11.377999999999]},"properties":{"description":"","title":"Assalaya","placename":"11.378,25.728","address":"11.378,25.728"}},{"type":"Feature","geometry":{"type":"Point","coordinates":[24.405000000001,12.124000000001]},"properties":{"description":"","title":"Azomri","placename":"12.124,24.405","address":"12.124,24.405"}},{"type":"Feature","geometry":{"type":"Point","coordinates":[26.572000000001,11.397999999999]},"properties":{"description":"","title":"Bakhit","placename":"11.398,26.572","address":"11.398,26.572"}},{"type":"Feature","geometry":{"type":"Point","coordinates":[25.026999999998,11.998000000004]},"properties":{"description":"","title":"Bileil","placename":"11.998,25.027","address":"11.998,25.027"}},{"type":"Feature","geometry":{"type":"Point","coordinates":[25.050000000004,11.868999999999]},"properties":{"description":"","title":"Couka","placename":"11.869,25.05","address":"11.869,25.05"}},{"type":"Feature","geometry":{"type":"Point","coordinates":[23.785,12.058999999999]},"properties":{"description":"","title":"Dagadousa","placename":"12.059,23.785","address":"12.059,23.785"}},{"type":"Feature","geometry":{"type":"Point","coordinates":[24.609000000003,12.007999999998]},"properties":{"description":"","title":"Dalal Angra","placename":"12.008,24.609","address":"12.008,24.609"}},{"type":"Feature","geometry":{"type":"Point","coordinates":[26.428999999996,11.425000000001]},"properties":{"description":"","title":"Dar Alsalam","placename":"11.425,26.429","address":"11.425,26.429"}},{"type":"Feature","geometry":{"type":"Point","coordinates":[24.924000000004,12.076000000002]},"properties":{"description":"","title":"Dereige","placename":"12.076,24.924","address":"12.076,24.924"}},{"type":"Feature","geometry":{"type":"Point","coordinates":[24.226319399998,12.5714639]},"properties":{"description":"","title":"Dibis","placename":"12.5714639,24.2263194","address":"12.5714639,24.2263194"}},{"type":"Feature","geometry":{"type":"Point","coordinates":[24.69455,11.698430599997]},"properties":{"description":"","title":"Dimo","placename":"11.6984306,24.69455","address":"11.6984306,24.69455"}},{"type":"Feature","geometry":{"type":"Point","coordinates":[24.579970040003,10.949843589997]},"properties":{"description":"","title":"Dimso","placename":"10.94984359,24.57997004","address":"10.94984359,24.57997004"}},{"type":"Feature","geometry":{"type":"Point","coordinates":[26.773999999999,11.534999999998]},"properties":{"description":"","title":"Direga","placename":"11.535,26.774","address":"11.535,26.774"}},{"type":"Feature","geometry":{"type":"Point","coordinates":[25.252000000002,11.436000000001]},"properties":{"description":"","title":"Dito","placename":"11.436,25.252","address":"11.436,25.252"}},{"type":"Feature","geometry":{"type":"Point","coordinates":[24.633151200003,11.516867600002]},"properties":{"description":"","title":"Domaya","placename":"11.5168676,24.6331512","address":"11.5168676,24.6331512"}},{"type":"Feature","geometry":{"type":"Point","coordinates":[25.067373300001,11.5221777]},"properties":{"description":"","title":"Donkey Dressa","placename":"11.5221777,25.0673733","address":"11.5221777,25.0673733"}},{"type":"Feature","geometry":{"type":"Point","coordinates":[25.029000000001,11.953]},"properties":{"description":"","title":"Draib El Raih","placename":"11.953,25.029","address":"11.953,25.029"}},{"type":"Feature","geometry":{"type":"Point","coordinates":[24.122999999999,12.706000000004]},"properties":{"description":"","title":"Dugu camp","placename":"12.706,24.123","address":"12.706,24.123"}},{"type":"Feature","geometry":{"type":"Point","coordinates":[24.865000000002,12.519999999997]},"properties":{"description":"","title":"Duma Adwa","placename":"12.52,24.865","address":"12.52,24.865"}},{"type":"Feature","geometry":{"type":"Point","coordinates":[25.504999999996,12.495999999999]},"properties":{"description":"","title":"Duma Duma","placename":"12.496,25.505","address":"12.496,25.505"}},{"type":"Feature","geometry":{"type":"Point","coordinates":[25.175000000003,11.856000000001]},"properties":{"description":"","title":"Dwana","placename":"11.856,25.175","address":"11.856,25.175"}},{"type":"Feature","geometry":{"type":"Point","coordinates":[26.149999999999,11.430000000001]},"properties":{"description":"","title":"Ed Daein Town","placename":"11.43,26.15","address":"11.43,26.15"}},{"type":"Feature","geometry":{"type":"Point","coordinates":[26.013077199999,11.848499699998]},"properties":{"description":"","title":"El Ardieb","placename":"11.8484997,26.0130772","address":"11.8484997,26.0130772"}},{"type":"Feature","geometry":{"type":"Point","coordinates":[26.512999999999,11.776000000003]},"properties":{"description":"","title":"El Fwileh","placename":"11.776,26.513","address":"11.776,26.513"}},{"type":"Feature","geometry":{"type":"Point","coordinates":[24.280999999996,12.508000000001]},"properties":{"description":"","title":"El Thanawia Banat","placename":"12.508,24.281","address":"12.508,24.281"}},{"type":"Feature","geometry":{"type":"Point","coordinates":[24.432500000003,10.67042]},"properties":{"description":"","title":"El Tomat","placename":"10.67042,24.4325","address":"10.67042,24.4325"}},{"type":"Feature","geometry":{"type":"Point","coordinates":[24.666000000001,12.010999999996]},"properties":{"description":"","title":"Elban Jadied","placename":"12.011,24.666","address":"12.011,24.666"}},{"type":"Feature","geometry":{"type":"Point","coordinates":[24.329999999997,12.561000000001]},"properties":{"description":"","title":"Erly","placename":"12.561,24.33","address":"12.561,24.33"}},{"type":"Feature","geometry":{"type":"Point","coordinates":[25.051999999999,12.224999999997]},"properties":{"description":"","title":"Fasha","placename":"12.225,25.052","address":"12.225,25.052"}},{"type":"Feature","geometry":{"type":"Point","coordinates":[25.029000000001,11.953]},"properties":{"description":"","title":"Gadi","placename":"11.953,25.029","address":"11.953,25.029"}},{"type":"Feature","geometry":{"type":"Point","coordinates":[25.147522499996,11.272931000004]},"properties":{"description":"","title":"Gereida","placename":"11.272931,25.1475225","address":"11.272931,25.1475225"}},{"type":"Feature","geometry":{"type":"Point","coordinates":[25.140000000001,11.274999999996]},"properties":{"description":"","title":"Gereida Camp","placename":"11.275,25.14","address":"11.275,25.14"}},{"type":"Feature","geometry":{"type":"Point","coordinates":[25.011000000004,12.558999999999]},"properties":{"description":"","title":"Goruf","placename":"12.559,25.011","address":"12.559,25.011"}},{"type":"Feature","geometry":{"type":"Point","coordinates":[24.854,12.246000000001]},"properties":{"description":"","title":"Halouf","placename":"12.246,24.854","address":"12.246,24.854"}},{"type":"Feature","geometry":{"type":"Point","coordinates":[24.340331499996,12.672603399996]},"properties":{"description":"","title":"Hashaba","placename":"12.6726034,24.3403315","address":"12.6726034,24.3403315"}},{"type":"Feature","geometry":{"type":"Point","coordinates":[25.067,10.683000000002]},"properties":{"description":"","title":"Heriga","placename":"10.683,25.067","address":"10.683,25.067"}},{"type":"Feature","geometry":{"type":"Point","coordinates":[22.587000000003,14.095000000003]},"properties":{"description":"","title":"Higliega","placename":"14.095,22.587","address":"14.095,22.587"}},{"type":"Feature","geometry":{"type":"Point","coordinates":[25.169000000001,11.792000000001]},"properties":{"description":"","title":"Hijaar","placename":"11.792,25.169","address":"11.792,25.169"}},{"type":"Feature","geometry":{"type":"Point","coordinates":[26.661999999998,11.425000000001]},"properties":{"description":"","title":"Hilal","placename":"11.425,26.662","address":"11.425,26.662"}},{"type":"Feature","geometry":{"type":"Point","coordinates":[26.069000000001,11.608000000004]},"properties":{"description":"","title":"Hilat Ali","placename":"11.608,26.069","address":"11.608,26.069"}},{"type":"Feature","geometry":{"type":"Point","coordinates":[24.390000000001,12.013999999999]},"properties":{"description":"","title":"Hilat Hosa","placename":"12.014,24.39","address":"12.014,24.39"}},{"type":"Feature","geometry":{"type":"Point","coordinates":[24.172,12.302000000003]},"properties":{"description":"","title":"Humira School","placename":"12.302,24.172","address":"12.302,24.172"}},{"type":"Feature","geometry":{"type":"Point","coordinates":[26.717000000001,11.682999999998]},"properties":{"description":"","title":"Jad Elseid IDPs","placename":"11.683,26.717","address":"11.683,26.717"}},{"type":"Feature","geometry":{"type":"Point","coordinates":[26.717000000001,11.682999999998]},"properties":{"description":"","title":"Jad Elseid(Alnair)","placename":"11.683,26.717","address":"11.683,26.717"}},{"type":"Feature","geometry":{"type":"Point","coordinates":[24.75875267,11.094817839998]},"properties":{"description":"","title":"Jidad","placename":"11.09481784,24.75875267","address":"11.09481784,24.75875267"}},{"type":"Feature","geometry":{"type":"Point","coordinates":[25.287999999997,11.111000000001]},"properties":{"description":"","title":"Joghana","placename":"11.111,25.288","address":"11.111,25.288"}},{"type":"Feature","geometry":{"type":"Point","coordinates":[25.015000000002,12.005000000004]},"properties":{"description":"","title":"Kalma","placename":"12.005,25.015","address":"12.005,25.015"}},{"type":"Feature","geometry":{"type":"Point","coordinates":[25.333,12.625999999999]},"properties":{"description":"","title":"Karumji","placename":"12.626,25.333","address":"12.626,25.333"}},{"type":"Feature","geometry":{"type":"Point","coordinates":[24.290039999998,12.502150000003]},"properties":{"description":"","title":"Kass Town (New Arrivals from WD)","placename":"12.50215,24.29004","address":"12.50215,24.29004"}},{"type":"Feature","geometry":{"type":"Point","coordinates":[24.285000000003,12.504999999997]},"properties":{"description":"","title":"Kass Town (New Arrivals)","placename":"12.505,24.285","address":"12.505,24.285"}},{"type":"Feature","geometry":{"type":"Point","coordinates":[25.098000000004,12.511000000002]},"properties":{"description":"","title":"Keri Kier","placename":"12.511,25.098","address":"12.511,25.098"}},{"type":"Feature","geometry":{"type":"Point","coordinates":[25.27,12.647000000001]},"properties":{"description":"","title":"Khor Abechi","placename":"12.647,25.27","address":"12.647,25.27"}},{"type":"Feature","geometry":{"type":"Point","coordinates":[26.166000000002,11.391999999996]},"properties":{"description":"","title":"Khor Omer","placename":"11.392,26.166","address":"11.392,26.166"}},{"type":"Feature","geometry":{"type":"Point","coordinates":[24.264199999999,12.547399999998]},"properties":{"description":"","title":"Kideka","placename":"12.5474,24.2642","address":"12.5474,24.2642"}},{"type":"Feature","geometry":{"type":"Point","coordinates":[24.825,12.726000000002]},"properties":{"description":"","title":"Koroly","placename":"12.726,24.825","address":"12.726,24.825"}},{"type":"Feature","geometry":{"type":"Point","coordinates":[23.802999999997,11.755000000001]},"properties":{"description":"","title":"Kubum","placename":"11.755,23.803","address":"11.755,23.803"}},{"type":"Feature","geometry":{"type":"Point","coordinates":[25.416000000001,11.569000000001]},"properties":{"description":"","title":"Labado","placename":"11.569,25.416","address":"11.569,25.416"}},{"type":"Feature","geometry":{"type":"Point","coordinates":[24.333179299996,12.6168337]},"properties":{"description":"","title":"Limo","placename":"12.6168337,24.3331793","address":"12.6168337,24.3331793"}},{"type":"Feature","geometry":{"type":"Point","coordinates":[25.024000000001,11.813999999997]},"properties":{"description":"","title":"Magarine","placename":"11.814,25.024","address":"11.814,25.024"}},{"type":"Feature","geometry":{"type":"Point","coordinates":[25.277999999997,11.851000000001]},"properties":{"description":"","title":"Marla South","placename":"11.851,25.278","address":"11.851,25.278"}},{"type":"Feature","geometry":{"type":"Point","coordinates":[24.977000000004,12.672000000004]},"properties":{"description":"","title":"Menawashi","placename":"12.672,24.977","address":"12.672,24.977"}},{"type":"Feature","geometry":{"type":"Point","coordinates":[25.141000000003,12.397000000001]},"properties":{"description":"","title":"Merier","placename":"12.397,25.141","address":"12.397,25.141"}},{"type":"Feature","geometry":{"type":"Point","coordinates":[24.903000000001,12.724000000001]},"properties":{"description":"","title":"Mershing","placename":"12.724,24.903","address":"12.724,24.903"}},{"type":"Feature","geometry":{"type":"Point","coordinates":[24.340999999999,12.073999999999]},"properties":{"description":"","title":"Moaro","placename":"12.074,24.341","address":"12.074,24.341"}},{"type":"Feature","geometry":{"type":"Point","coordinates":[24.880999999996,12.004000000001]},"properties":{"description":"","title":"Mosey","placename":"12.004,24.881","address":"12.004,24.881"}},{"type":"Feature","geometry":{"type":"Point","coordinates":[25.615999999996,11.974000000002]},"properties":{"description":"","title":"Muhajeria","placename":"11.974,25.616","address":"11.974,25.616"}},{"type":"Feature","geometry":{"type":"Point","coordinates":[24.508392200001,12.030815100001]},"properties":{"description":"","title":"Narri","placename":"12.0308151,24.5083922","address":"12.0308151,24.5083922"}},{"type":"Feature","geometry":{"type":"Point","coordinates":[25.407991700003,12.892969400002]},"properties":{"description":"","title":"Negaia","placename":"12.8929694,25.4079917","address":"12.8929694,25.4079917"}},{"type":"Feature","geometry":{"type":"Point","coordinates":[24.513999999997,12.541]},"properties":{"description":"","title":"Neima","placename":"12.541,24.514","address":"12.541,24.514"}},{"type":"Feature","geometry":{"type":"Point","coordinates":[24.460720000001,10.795139999998]},"properties":{"description":"","title":"Nekhara","placename":"10.79514,24.46072","address":"10.79514,24.46072"}},{"type":"Feature","geometry":{"type":"Point","coordinates":[25.524999999997,12.606999999998]},"properties":{"description":"","title":"Netiga","placename":"12.607,25.525","address":"12.607,25.525"}},{"type":"Feature","geometry":{"type":"Point","coordinates":[24.177,12.296000000002]},"properties":{"description":"","title":"Nyamma","placename":"12.296,24.177","address":"12.296,24.177"}},{"type":"Feature","geometry":{"type":"Point","coordinates":[24.177,12.296000000002]},"properties":{"description":"","title":"Otash","placename":"12.296,24.177","address":"12.296,24.177"}},{"type":"Feature","geometry":{"type":"Point","coordinates":[25.310000000002,11.534999999998]},"properties":{"description":"","title":"Rajella","placename":"11.535,25.31","address":"11.535,25.31"}},{"type":"Feature","geometry":{"type":"Point","coordinates":[24.705723870003,10.92237697]},"properties":{"description":"","title":"Rajraj","placename":"10.92237697,24.70572387","address":"10.92237697,24.70572387"}},{"type":"Feature","geometry":{"type":"Point","coordinates":[24.850000000001,11.983000000003]},"properties":{"description":"","title":"Sakeley","placename":"11.983,24.85","address":"11.983,24.85"}},{"type":"Feature","geometry":{"type":"Point","coordinates":[25.416000000001,11.732999999999]},"properties":{"description":"","title":"Sania Afandu","placename":"11.733,25.416","address":"11.733,25.416"}},{"type":"Feature","geometry":{"type":"Point","coordinates":[24.843918000001,11.739815]},"properties":{"description":"","title":"Sania Deliba","placename":"11.739815,24.843918","address":"11.739815,24.843918"}},{"type":"Feature","geometry":{"type":"Point","coordinates":[24.177,12.296000000002]},"properties":{"description":"","title":"Savana A","placename":"12.296,24.177","address":"12.296,24.177"}},{"type":"Feature","geometry":{"type":"Point","coordinates":[24.177,12.296000000002]},"properties":{"description":"","title":"Savana B","placename":"12.296,24.177","address":"12.296,24.177"}},{"type":"Feature","geometry":{"type":"Point","coordinates":[24.82,12.005000000004]},"properties":{"description":"","title":"Serif Camp","placename":"12.005,24.82","address":"12.005,24.82"}},{"type":"Feature","geometry":{"type":"Point","coordinates":[24.869092300001,12.166330900004]},"properties":{"description":"","title":"Shadida","placename":"12.1663309,24.8690923","address":"12.1663309,24.8690923"}},{"type":"Feature","geometry":{"type":"Point","coordinates":[25.606999999997,12.460000000001]},"properties":{"description":"","title":"Shaeria Town","placename":"12.46,25.607","address":"12.46,25.607"}},{"type":"Feature","geometry":{"type":"Point","coordinates":[27.083194399998,11.519666700003]},"properties":{"description":"","title":"Shag Tayeeb","placename":"11.5196667,27.0831944","address":"11.5196667,27.0831944"}},{"type":"Feature","geometry":{"type":"Point","coordinates":[27.188999999997,11.263]},"properties":{"description":"","title":"Sharif IDPs","placename":"11.263,27.189","address":"11.263,27.189"}},{"type":"Feature","geometry":{"type":"Point","coordinates":[25.698999999997,11.671000000002]},"properties":{"description":"","title":"Silia","placename":"11.671,25.699","address":"11.671,25.699"}},{"type":"Feature","geometry":{"type":"Point","coordinates":[26.916000000002,11.689999999996]},"properties":{"description":"","title":"Taalba","placename":"11.69,26.916","address":"11.69,26.916"}},{"type":"Feature","geometry":{"type":"Point","coordinates":[25.0343944,11.820180599999]},"properties":{"description":"","title":"Tabeldiat","placename":"11.8201806,25.0343944","address":"11.8201806,25.0343944"}},{"type":"Feature","geometry":{"type":"Point","coordinates":[25.228999999996,12.264000000004]},"properties":{"description":"","title":"Taisha","placename":"12.264,25.229","address":"12.264,25.229"}},{"type":"Feature","geometry":{"type":"Point","coordinates":[24.2040007,12.6494767]},"properties":{"description":"","title":"Taringa","placename":"12.6494767,24.2040007","address":"12.6494767,24.2040007"}},{"type":"Feature","geometry":{"type":"Point","coordinates":[24.304933299996,12.457333299999]},"properties":{"description":"","title":"Tartur","placename":"12.4573333,24.3049333","address":"12.4573333,24.3049333"}},{"type":"Feature","geometry":{"type":"Point","coordinates":[24.106000000003,12.854]},"properties":{"description":"","title":"Thur East & West","placename":"12.854,24.106","address":"12.854,24.106"}},{"type":"Feature","geometry":{"type":"Point","coordinates":[24.638999999996,11.844999999999]},"properties":{"description":"","title":"Timbisco","placename":"11.845,24.639","address":"11.845,24.639"}},{"type":"Feature","geometry":{"type":"Point","coordinates":[24.517000000003,11.216999999996]},"properties":{"description":"","title":"Tiwal","placename":"11.217,24.517","address":"11.217,24.517"}},{"type":"Feature","geometry":{"type":"Point","coordinates":[25.193000000001,12.316999999997]},"properties":{"description":"","title":"Um Alkhirat","placename":"12.317,25.193","address":"12.317,25.193"}},{"type":"Feature","geometry":{"type":"Point","coordinates":[25.944999999996,11.720000000003]},"properties":{"description":"","title":"Um Boim","placename":"11.72,25.945","address":"11.72,25.945"}},{"type":"Feature","geometry":{"type":"Point","coordinates":[26.442000000002,11.374999999997]},"properties":{"description":"","title":"Um Gogaya","placename":"11.375,26.442","address":"11.375,26.442"}},{"type":"Feature","geometry":{"type":"Point","coordinates":[25.165000000002,11.999999999999]},"properties":{"description":"","title":"Um Kurdos","placename":"12,25.165","address":"12,25.165"}},{"type":"Feature","geometry":{"type":"Point","coordinates":[23.982999999999,12.032999999999]},"properties":{"description":"","title":"Um Labasa","placename":"12.033,23.983","address":"12.033,23.983"}},{"type":"Feature","geometry":{"type":"Point","coordinates":[25.775788399998,12.5250872]},"properties":{"description":"","title":"Um Lawaya","placename":"12.5250872,25.7757884","address":"12.5250872,25.7757884"}},{"type":"Feature","geometry":{"type":"Point","coordinates":[25.048000000001,11.784000000003]},"properties":{"description":"","title":"Um-Kunya","placename":"11.784,25.048","address":"11.784,25.048"}},{"type":"Feature","geometry":{"type":"Point","coordinates":[26.638244300002,11.312797899999]},"properties":{"description":"","title":"Umrakuba","placename":"11.3127979,26.6382443","address":"11.3127979,26.6382443"}},{"type":"Feature","geometry":{"type":"Point","coordinates":[25.702000000003,12.650000000004]},"properties":{"description":"","title":"Umridim","placename":"12.65,25.702","address":"12.65,25.702"}},{"type":"Feature","geometry":{"type":"Point","coordinates":[24.850000000001,11.983000000003]},"properties":{"description":"","title":"Umsauna","placename":"11.983,24.85","address":"11.983,24.85"}},{"type":"Feature","geometry":{"type":"Point","coordinates":[25.504999999996,12.495999999999]},"properties":{"description":"","title":"Wad al mairam","placename":"12.496,25.505","address":"12.496,25.505"}},{"type":"Feature","geometry":{"type":"Point","coordinates":[27.101699999999,11.615666699999]},"properties":{"description":"","title":"Wad Joda","placename":"11.6156667,27.1017","address":"11.6156667,27.1017"}},{"type":"Feature","geometry":{"type":"Point","coordinates":[25.730838900002,11.491794399997]},"properties":{"description":"","title":"Wazazeen","placename":"11.4917944,25.7308389","address":"11.4917944,25.7308389"}},{"type":"Feature","geometry":{"type":"Point","coordinates":[24.293,12.504999999997]},"properties":{"description":"","title":"Yahia Hajar","placename":"12.505,24.293","address":"12.505,24.293"}},{"type":"Feature","geometry":{"type":"Point","coordinates":[25.011000000004,12.558999999999]},"properties":{"description":"","title":"Yara","placename":"12.559,25.011","address":"12.559,25.011"}},{"type":"Feature","geometry":{"type":"Point","coordinates":[25.490000000004,11.570000000001]},"properties":{"description":"","title":"Yassin","placename":"11.57,25.49","address":"11.57,25.49"}},{"type":"Feature","geometry":{"type":"Point","coordinates":[24.903000000001,12.724000000001]},"properties":{"description":"","title":"Zalata","placename":"12.724,24.903","address":"12.724,24.903"}},{"type":"Feature","geometry":{"type":"Point","coordinates":[28.975981000004,11.981235999996]},"properties":{"description":"","title":"Abo Jonok","placename":"11.981236,28.975981","address":"11.981236,28.975981"}},{"type":"Feature","geometry":{"type":"Point","coordinates":[31.235990999998,11.454376000002]},"properties":{"description":"","title":"Abu Jebeeha","placename":"11.454376,31.235991","address":"11.454376,31.235991"}},{"type":"Feature","geometry":{"type":"Point","coordinates":[29.416666999997,11.016667000001]},"properties":{"description":"","title":"Abu Sinun","placename":"11.016667,29.416667","address":"11.016667,29.416667"}},{"type":"Feature","geometry":{"type":"Point","coordinates":[30.516667000001,11.283332999999]},"properties":{"description":"","title":"Angerri","placename":"11.283333,30.516667","address":"11.283333,30.516667"}},{"type":"Feature","geometry":{"type":"Point","coordinates":[31.043333,12.246666999999]},"properties":{"description":"","title":"Banat El Moreib","placename":"12.246667,31.043333","address":"12.246667,31.043333"}},{"type":"Feature","geometry":{"type":"Point","coordinates":[30.866667000004,10.833332999996]},"properties":{"description":"","title":"El Azraq","placename":"10.833333,30.866667","address":"10.833333,30.866667"}},{"type":"Feature","geometry":{"type":"Point","coordinates":[31.567195,10.532300000001]},"properties":{"description":"","title":"Fungor","placename":"10.5323,31.567195","address":"10.5323,31.567195"}},{"type":"Feature","geometry":{"type":"Point","coordinates":[30.524800000004,11.210789999999]},"properties":{"description":"","title":"Heiban","placename":"11.21079,30.5248","address":"11.21079,30.5248"}},{"type":"Feature","geometry":{"type":"Point","coordinates":[29.491567999998,11.669126000001]},"properties":{"description":"","title":"Julud","placename":"11.669126,29.491568","address":"11.669126,29.491568"}},{"type":"Feature","geometry":{"type":"Point","coordinates":[30.301631999999,12.180841]},"properties":{"description":"","title":"Kafeir","placename":"12.180841,30.301632","address":"12.180841,30.301632"}},{"type":"Feature","geometry":{"type":"Point","coordinates":[30.975086000001,11.812918999996]},"properties":{"description":"","title":"Kaloba","placename":"11.812919,30.975086","address":"11.812919,30.975086"}},{"type":"Feature","geometry":{"type":"Point","coordinates":[29.674135000001,10.803581999998]},"properties":{"description":"","title":"Katcha","placename":"10.803582,29.674135","address":"10.803582,29.674135"}},{"type":"Feature","geometry":{"type":"Point","coordinates":[31.498284999996,10.614678]},"properties":{"description":"","title":"Kau","placename":"10.614678,31.498285","address":"10.614678,31.498285"}},{"type":"Feature","geometry":{"type":"Point","coordinates":[30.510939999999,11.084000000002]},"properties":{"description":"","title":"Kauda","placename":"11.084,30.51094","address":"11.084,30.51094"}},{"type":"Feature","geometry":{"type":"Point","coordinates":[29.247045999996,11.662171999998]},"properties":{"description":"","title":"Kayo","placename":"11.662172,29.247046","address":"11.662172,29.247046"}},{"type":"Feature","geometry":{"type":"Point","coordinates":[29.699600000001,11.467799999996]},"properties":{"description":"","title":"Kega","placename":"11.4678,29.6996","address":"11.4678,29.6996"}},{"type":"Feature","geometry":{"type":"Point","coordinates":[31.224722000004,11.973056000002]},"properties":{"description":"","title":"Khor Fidaila","placename":"11.973056,31.224722","address":"11.973056,31.224722"}},{"type":"Feature","geometry":{"type":"Point","coordinates":[29.600000000001,10.885832999996]},"properties":{"description":"","title":"Korongo Abdalla","placename":"10.885833,29.6","address":"10.885833,29.6"}},{"type":"Feature","geometry":{"type":"Point","coordinates":[29.362800000002,12.011500000002]},"properties":{"description":"","title":"Kujuria","placename":"12.0115,29.3628","address":"12.0115,29.3628"}},{"type":"Feature","geometry":{"type":"Point","coordinates":[29.400339999999,10.949315999996]},"properties":{"description":"","title":"Lima","placename":"10.949316,29.40034","address":"10.949316,29.40034"}},{"type":"Feature","geometry":{"type":"Point","coordinates":[31.749999999996,11.916667000002]},"properties":{"description":"","title":"Managir","placename":"11.916667,31.75","address":"11.916667,31.75"}},{"type":"Feature","geometry":{"type":"Point","coordinates":[31.509557000003,10.637733999998]},"properties":{"description":"","title":"Niaro","placename":"10.637734,31.509557","address":"10.637734,31.509557"}},{"type":"Feature","geometry":{"type":"Point","coordinates":[30.228833000001,10.828495000003]},"properties":{"description":"","title":"Saraf El Gamos","placename":"10.828495,30.228833","address":"10.828495,30.228833"}},{"type":"Feature","geometry":{"type":"Point","coordinates":[30.200000000001,10.616667000002]},"properties":{"description":"","title":"Taboli","placename":"10.616667,30.2","address":"10.616667,30.2"}},{"type":"Feature","geometry":{"type":"Point","coordinates":[30.981109999996,10.860559999996]},"properties":{"description":"","title":"Talodi","placename":"10.86056,30.98111","address":"10.86056,30.98111"}},{"type":"Feature","geometry":{"type":"Point","coordinates":[29.350000000004,11.716667000002]},"properties":{"description":"","title":"Tebeik","placename":"11.716667,29.35","address":"11.716667,29.35"}},{"type":"Feature","geometry":{"type":"Point","coordinates":[31.449999999996,10.783333000002]},"properties":{"description":"","title":"Tereida","placename":"10.783333,31.45","address":"10.783333,31.45"}},{"type":"Feature","geometry":{"type":"Point","coordinates":[29.244119999997,11.669379999996]},"properties":{"description":"","title":"Timma","placename":"11.66938,29.24412","address":"11.66938,29.24412"}},{"type":"Feature","geometry":{"type":"Point","coordinates":[31.083333000002,11.999999999999]},"properties":{"description":"","title":"Tongi","placename":"12,31.083333","address":"12,31.083333"}},{"type":"Feature","geometry":{"type":"Point","coordinates":[31.083333000002,11.766667000003]},"properties":{"description":"","title":"Tosomi","placename":"11.766667,31.083333","address":"11.766667,31.083333"}},{"type":"Feature","geometry":{"type":"Point","coordinates":[30.032799999998,10.861399999997]},"properties":{"description":"","title":"Umm Dorain","placename":"10.8614,30.0328","address":"10.8614,30.0328"}},{"type":"Feature","geometry":{"type":"Point","coordinates":[30.71635,11.04308]},"properties":{"description":"","title":"Umm Dordo","placename":"11.04308,30.71635","address":"11.04308,30.71635"}},{"type":"Feature","geometry":{"type":"Point","coordinates":[30.072309999996,11.48592]},"properties":{"description":"","title":"Umm Heitan","placename":"11.48592,30.07231","address":"11.48592,30.07231"}},{"type":"Feature","geometry":{"type":"Point","coordinates":[30.012200000001,11.009699999997]},"properties":{"description":"","title":"Umm Serdiba","placename":"11.0097,30.0122","address":"11.0097,30.0122"}},{"type":"Feature","geometry":{"type":"Point","coordinates":[29.352050999998,11.844202]},"properties":{"description":"","title":"Wali","placename":"11.844202,29.352051","address":"11.844202,29.352051"}},{"type":"Feature","geometry":{"type":"Point","coordinates":[31.176770999996,10.408779999998]},"properties":{"description":"","title":"Warni","placename":"10.40878,31.176771","address":"10.40878,31.176771"}},{"type":"Feature","geometry":{"type":"Point","coordinates":[22.491999999997,12.701000000002]},"properties":{"description":"","title":"Abu Dahiyia","placename":"12.701,22.492","address":"12.701,22.492"}},{"type":"Feature","geometry":{"type":"Point","coordinates":[22.398000000002,13.858000000002]},"properties":{"description":"","title":"Abu Sourouge","placename":"13.858,22.398","address":"13.858,22.398"}},{"type":"Feature","geometry":{"type":"Point","coordinates":[22.433999999997,13.430000000002]},"properties":{"description":"","title":"Abu Zar","placename":"13.43,22.434","address":"13.43,22.434"}},{"type":"Feature","geometry":{"type":"Point","coordinates":[22.6,13.583000000003]},"properties":{"description":"","title":"Agoura","placename":"13.583,22.6","address":"13.583,22.6"}},{"type":"Feature","geometry":{"type":"Point","coordinates":[23.482999999996,12.916999999997]},"properties":{"description":"","title":"Al Hamedia","placename":"12.917,23.483","address":"12.917,23.483"}},{"type":"Feature","geometry":{"type":"Point","coordinates":[22.907000000004,10.902000000003]},"properties":{"description":"","title":"Al Karanik","placename":"10.902,22.907","address":"10.902,22.907"}},{"type":"Feature","geometry":{"type":"Point","coordinates":[26.983000000001,11.733999999997]},"properties":{"description":"","title":"Al Shabab","placename":"11.734,26.983","address":"11.734,26.983"}},{"type":"Feature","geometry":{"type":"Point","coordinates":[22.168999999999,12.725000000001]},"properties":{"description":"","title":"Arara","placename":"12.725,22.169","address":"12.725,22.169"}},{"type":"Feature","geometry":{"type":"Point","coordinates":[22.499000000001,13.502999999999]},"properties":{"description":"","title":"Arbokni","placename":"13.503,22.499","address":"13.503,22.499"}},{"type":"Feature","geometry":{"type":"Point","coordinates":[22.495000000003,13.468999999996]},"properties":{"description":"","title":"Ardamata","placename":"13.469,22.495","address":"13.469,22.495"}},{"type":"Feature","geometry":{"type":"Point","coordinates":[22.166906199998,13.766854099997]},"properties":{"description":"","title":"Armankul LRs","placename":"13.7668541,22.1669062","address":"13.7668541,22.1669062"}},{"type":"Feature","geometry":{"type":"Point","coordinates":[22.660000000004,14.130000000002]},"properties":{"description":"","title":"Aro sharow","placename":"14.13,22.66","address":"14.13,22.66"}},{"type":"Feature","geometry":{"type":"Point","coordinates":[22.466999999996,14.333]},"properties":{"description":"","title":"Arwa","placename":"14.333,22.467","address":"14.333,22.467"}},{"type":"Feature","geometry":{"type":"Point","coordinates":[22.669000000003,13.511999999999]},"properties":{"description":"","title":"Azirnie","placename":"13.512,22.669","address":"13.512,22.669"}},{"type":"Feature","geometry":{"type":"Point","coordinates":[22.279211100001,13.614466700002]},"properties":{"description":"","title":"Bangadeed","placename":"13.6144667,22.2792111","address":"13.6144667,22.2792111"}},{"type":"Feature","geometry":{"type":"Point","coordinates":[22.595,14.381000000003]},"properties":{"description":"","title":"Batro","placename":"14.381,22.595","address":"14.381,22.595"}},{"type":"Feature","geometry":{"type":"Point","coordinates":[21.885000000002,12.711999999999]},"properties":{"description":"","title":"Beida","placename":"12.712,21.885","address":"12.712,21.885"}},{"type":"Feature","geometry":{"type":"Point","coordinates":[23.114000000002,11.941000000003]},"properties":{"description":"","title":"Bindisi","placename":"11.941,23.114","address":"11.941,23.114"}},{"type":"Feature","geometry":{"type":"Point","coordinates":[22.466999999996,13.716999999998]},"properties":{"description":"","title":"Bir Dagig","placename":"13.717,22.467","address":"13.717,22.467"}},{"type":"Feature","geometry":{"type":"Point","coordinates":[22.728999999997,13.778999999997]},"properties":{"description":"","title":"Buri Banat","placename":"13.779,22.729","address":"13.779,22.729"}},{"type":"Feature","geometry":{"type":"Point","coordinates":[22.738999999998,13.775999999999]},"properties":{"description":"","title":"Buri Nomads","placename":"13.776,22.739","address":"13.776,22.739"}},{"type":"Feature","geometry":{"type":"Point","coordinates":[23.237999999999,12.357]},"properties":{"description":"","title":"Deleij","placename":"12.357,23.238","address":"12.357,23.238"}},{"type":"Feature","geometry":{"type":"Point","coordinates":[22.576000000001,13.526999999997]},"properties":{"description":"","title":"Deliaba","placename":"13.527,22.576","address":"13.527,22.576"}},{"type":"Feature","geometry":{"type":"Point","coordinates":[22.486000000004,13.494999999998]},"properties":{"description":"","title":"Dorti","placename":"13.495,22.486","address":"13.495,22.486"}},{"type":"Feature","geometry":{"type":"Point","coordinates":[22.486000000004,13.494999999998]},"properties":{"description":"","title":"Dorti Falata","placename":"13.495,22.486","address":"13.495,22.486"}},{"type":"Feature","geometry":{"type":"Point","coordinates":[22.486000000004,13.494999999998]},"properties":{"description":"","title":"Dorti Marareet","placename":"13.495,22.486","address":"13.495,22.486"}},{"type":"Feature","geometry":{"type":"Point","coordinates":[22.521999999999,14.270000000001]},"properties":{"description":"","title":"Douhoush","placename":"14.27,22.522","address":"14.27,22.522"}},{"type":"Feature","geometry":{"type":"Point","coordinates":[22.427000000002,13.433000000001]},"properties":{"description":"","title":"El Hujaj","placename":"13.433,22.427","address":"13.433,22.427"}},{"type":"Feature","geometry":{"type":"Point","coordinates":[22.437000000003,13.464000000003]},"properties":{"description":"","title":"El Riad","placename":"13.464,22.437","address":"13.464,22.437"}},{"type":"Feature","geometry":{"type":"Point","coordinates":[22.59,12.124999999996]},"properties":{"description":"","title":"Fur Buranga (NA)","placename":"12.125,22.59","address":"12.125,22.59"}},{"type":"Feature","geometry":{"type":"Point","coordinates":[22.59,12.124999999996]},"properties":{"description":"","title":"Fur Buranga Res","placename":"12.125,22.59","address":"12.125,22.59"}},{"type":"Feature","geometry":{"type":"Point","coordinates":[22.897000000004,13.344000000002]},"properties":{"description":"","title":"Galala","placename":"13.344,22.897","address":"13.344,22.897"}},{"type":"Feature","geometry":{"type":"Point","coordinates":[23.139999999997,12.379999999996]},"properties":{"description":"","title":"Garsila","placename":"12.38,23.14","address":"12.38,23.14"}},{"type":"Feature","geometry":{"type":"Point","coordinates":[13.018583300002,21.938983299997]},"properties":{"description":"","title":"Gemieza Babiker Res","placename":"21.9389833,13.0185833","address":"21.9389833,13.0185833"}},{"type":"Feature","geometry":{"type":"Point","coordinates":[22.935000000002,13.123000000003]},"properties":{"description":"","title":"Genderni","placename":"13.123,22.935","address":"13.123,22.935"}},{"type":"Feature","geometry":{"type":"Point","coordinates":[22.451000000002,12.438]},"properties":{"description":"","title":"Gobe","placename":"12.438,22.451","address":"12.438,22.451"}},{"type":"Feature","geometry":{"type":"Point","coordinates":[22.463999999999,13.226]},"properties":{"description":"","title":"Goker","placename":"13.226,22.464","address":"13.226,22.464"}},{"type":"Feature","geometry":{"type":"Point","coordinates":[22.432000000003,14.547999999996]},"properties":{"description":"","title":"Goz digga","placename":"14.548,22.432","address":"14.548,22.432"}},{"type":"Feature","geometry":{"type":"Point","coordinates":[22.688000000002,13.875000000002]},"properties":{"description":"","title":"Goz Shido","placename":"13.875,22.688","address":"13.875,22.688"}},{"type":"Feature","geometry":{"type":"Point","coordinates":[22.510999999997,12.055000000002]},"properties":{"description":"","title":"Gumeiza","placename":"12.055,22.511","address":"12.055,22.511"}},{"type":"Feature","geometry":{"type":"Point","coordinates":[22.767999999998,12.150000000002]},"properties":{"description":"","title":"Gungar","placename":"12.15,22.768","address":"12.15,22.768"}},{"type":"Feature","geometry":{"type":"Point","coordinates":[22.678000000001,13.515000000002]},"properties":{"description":"","title":"Gurf Elahmar","placename":"13.515,22.678","address":"13.515,22.678"}},{"type":"Feature","geometry":{"type":"Point","coordinates":[22.562000000001,12.680000000004]},"properties":{"description":"","title":"Habilla","placename":"12.68,22.562","address":"12.68,22.562"}},{"type":"Feature","geometry":{"type":"Point","coordinates":[22.7832105,13.783172400004]},"properties":{"description":"","title":"Habilla LRs","placename":"13.7831724,22.7832105","address":"13.7831724,22.7832105"}},{"type":"Feature","geometry":{"type":"Point","coordinates":[14.398025000002,22.5537556]},"properties":{"description":"","title":"Hajer Laben","placename":"22.5537556,14.398025","address":"22.5537556,14.398025"}},{"type":"Feature","geometry":{"type":"Point","coordinates":[22.980999999998,13.152999999998]},"properties":{"description":"","title":"Hajer Tama","placename":"13.153,22.981","address":"13.153,22.981"}},{"type":"Feature","geometry":{"type":"Point","coordinates":[22.587000000003,14.095000000003]},"properties":{"description":"","title":"Hejieliga","placename":"14.095,22.587","address":"14.095,22.587"}},{"type":"Feature","geometry":{"type":"Point","coordinates":[22.702000000001,14.302999999996]},"properties":{"description":"","title":"Helilat","placename":"14.303,22.702","address":"14.303,22.702"}},{"type":"Feature","geometry":{"type":"Point","coordinates":[22.702000000001,14.302999999996]},"properties":{"description":"","title":"Helilat","placename":"14.303,22.702","address":"14.303,22.702"}},{"type":"Feature","geometry":{"type":"Point","coordinates":[23.479999999999,12.909999999997]},"properties":{"description":"","title":"Hesahesa","placename":"12.91,23.48","address":"12.91,23.48"}},{"type":"Feature","geometry":{"type":"Point","coordinates":[22.703999999996,13.988000000001]},"properties":{"description":"","title":"Jabal","placename":"13.988,22.704","address":"13.988,22.704"}},{"type":"Feature","geometry":{"type":"Point","coordinates":[22.428999999997,13.431999999996]},"properties":{"description":"","title":"Jama","placename":"13.432,22.429","address":"13.432,22.429"}},{"type":"Feature","geometry":{"type":"Point","coordinates":[22.771999999996,11.759999999997]},"properties":{"description":"","title":"Jugma El Garbia (NA)","placename":"11.76,22.772","address":"11.76,22.772"}},{"type":"Feature","geometry":{"type":"Point","coordinates":[22.495999999996,13.653000000001]},"properties":{"description":"","title":"Kandobi","placename":"13.653,22.496","address":"13.653,22.496"}},{"type":"Feature","geometry":{"type":"Point","coordinates":[22.504000000002,13.661000000003]},"properties":{"description":"","title":"Kandobi Nomads","placename":"13.661,22.504","address":"13.661,22.504"}},{"type":"Feature","geometry":{"type":"Point","coordinates":[22.669000000003,13.521000000002]},"properties":{"description":"","title":"Kangok","placename":"13.521,22.669","address":"13.521,22.669"}},{"type":"Feature","geometry":{"type":"Point","coordinates":[22.669000000003,13.521000000002]},"properties":{"description":"","title":"Kangok","placename":"13.521,22.669","address":"13.521,22.669"}},{"type":"Feature","geometry":{"type":"Point","coordinates":[22.907000000004,10.902000000003]},"properties":{"description":"","title":"Karanik","placename":"10.902,22.907","address":"10.902,22.907"}},{"type":"Feature","geometry":{"type":"Point","coordinates":[22.897000000004,13.344000000002]},"properties":{"description":"","title":"Kerinik IDPs","placename":"13.344,22.897","address":"13.344,22.897"}},{"type":"Feature","geometry":{"type":"Point","coordinates":[23.973749999998,12.971720000002]},"properties":{"description":"","title":"Khor-Ramla","placename":"12.97172,23.97375","address":"12.97172,23.97375"}},{"type":"Feature","geometry":{"type":"Point","coordinates":[22.468999999999,13.428]},"properties":{"description":"","title":"Kirinding-1","placename":"13.428,22.469","address":"13.428,22.469"}},{"type":"Feature","geometry":{"type":"Point","coordinates":[22.476000000003,13.424000000001]},"properties":{"description":"","title":"Kirinding-2","placename":"13.424,22.476","address":"13.424,22.476"}},{"type":"Feature","geometry":{"type":"Point","coordinates":[22.721,13.623]},"properties":{"description":"","title":"Kirkir","placename":"13.623,22.721","address":"13.623,22.721"}},{"type":"Feature","geometry":{"type":"Point","coordinates":[21.901999999998,12.926999999999]},"properties":{"description":"","title":"Kongo Haraza","placename":"12.927,21.902","address":"12.927,21.902"}},{"type":"Feature","geometry":{"type":"Point","coordinates":[22.379999999996,13.494999999998]},"properties":{"description":"","title":"Korti","placename":"13.495,22.38","address":"13.495,22.38"}},{"type":"Feature","geometry":{"type":"Point","coordinates":[22.460000000001,14.363999999996]},"properties":{"description":"","title":"Kulbus","placename":"14.364,22.46","address":"14.364,22.46"}},{"type":"Feature","geometry":{"type":"Point","coordinates":[22.674999999996,13.689000000004]},"properties":{"description":"","title":"Lambo","placename":"13.689,22.675","address":"13.689,22.675"}},{"type":"Feature","geometry":{"type":"Point","coordinates":[22.640000000003,12.268999999997]},"properties":{"description":"","title":"Mangarasa (NA)","placename":"12.269,22.64","address":"12.269,22.64"}},{"type":"Feature","geometry":{"type":"Point","coordinates":[22.520000000004,13.997999999999]},"properties":{"description":"","title":"Manjura","placename":"13.998,22.52","address":"13.998,22.52"}},{"type":"Feature","geometry":{"type":"Point","coordinates":[22.190000000002,13.129999999998]},"properties":{"description":"","title":"Mastari","placename":"13.13,22.19","address":"13.13,22.19"}},{"type":"Feature","geometry":{"type":"Point","coordinates":[22.476999999996,14.551000000001]},"properties":{"description":"","title":"Mastura","placename":"14.551,22.477","address":"14.551,22.477"}},{"type":"Feature","geometry":{"type":"Point","coordinates":[22.867000000002,12.954000000003]},"properties":{"description":"","title":"Mornie","placename":"12.954,22.867","address":"12.954,22.867"}},{"type":"Feature","geometry":{"type":"Point","coordinates":[23.110305600001,13.238255599996]},"properties":{"description":"","title":"Muhajir","placename":"13.2382556,23.1103056","address":"13.2382556,23.1103056"}},{"type":"Feature","geometry":{"type":"Point","coordinates":[23.328999999997,11.989]},"properties":{"description":"","title":"Mukjar","placename":"11.989,23.329","address":"11.989,23.329"}},{"type":"Feature","geometry":{"type":"Point","coordinates":[22.273999999997,13.609000000001]},"properties":{"description":"","title":"Muli","placename":"13.609,22.274","address":"13.609,22.274"}},{"type":"Feature","geometry":{"type":"Point","coordinates":[24.033579999996,12.966800000004]},"properties":{"description":"","title":"Nertiti","placename":"12.9668,24.03358","address":"12.9668,24.03358"}},{"type":"Feature","geometry":{"type":"Point","coordinates":[24.034999999997,12.958000000002]},"properties":{"description":"","title":"Nertiti","placename":"12.958,24.035","address":"12.958,24.035"}},{"type":"Feature","geometry":{"type":"Point","coordinates":[22.542,12.689000000001]},"properties":{"description":"","title":"Nur El Huda","placename":"12.689,22.542","address":"12.689,22.542"}},{"type":"Feature","geometry":{"type":"Point","coordinates":[22.737999999996,12.027]},"properties":{"description":"","title":"Ras El Feel","placename":"12.027,22.738","address":"12.027,22.738"}},{"type":"Feature","geometry":{"type":"Point","coordinates":[22.954000000002,13.054999999997]},"properties":{"description":"","title":"Romalia","placename":"13.055,22.954","address":"13.055,22.954"}},{"type":"Feature","geometry":{"type":"Point","coordinates":[22.855999999999,13.428999999997]},"properties":{"description":"","title":"Rosi","placename":"13.429,22.856","address":"13.429,22.856"}},{"type":"Feature","geometry":{"type":"Point","coordinates":[22.666999999999,12.522999999997]},"properties":{"description":"","title":"Sala + Ior","placename":"12.523,22.667","address":"12.523,22.667"}},{"type":"Feature","geometry":{"type":"Point","coordinates":[22.666999999999,12.522999999997]},"properties":{"description":"","title":"Sala + Ior (NA)","placename":"12.523,22.667","address":"12.523,22.667"}},{"type":"Feature","geometry":{"type":"Point","coordinates":[23.086999999997,13.738999999999]},"properties":{"description":"","title":"Sanidadi","placename":"13.739,23.087","address":"13.739,23.087"}},{"type":"Feature","geometry":{"type":"Point","coordinates":[22.250911099996,13.709655599998]},"properties":{"description":"","title":"Saraf Gidad","placename":"13.7096556,22.2509111","address":"13.7096556,22.2509111"}},{"type":"Feature","geometry":{"type":"Point","coordinates":[22.620000000001,13.999999999996]},"properties":{"description":"","title":"Selea","placename":"14,22.62","address":"14,22.62"}},{"type":"Feature","geometry":{"type":"Point","coordinates":[22.500000000003,13.809999999998]},"properties":{"description":"","title":"Sirba","placename":"13.81,22.5","address":"13.81,22.5"}},{"type":"Feature","geometry":{"type":"Point","coordinates":[22.738999999998,13.191999999997]},"properties":{"description":"","title":"Sisi","placename":"13.192,22.739","address":"13.192,22.739"}},{"type":"Feature","geometry":{"type":"Point","coordinates":[22.466999999996,13.483000000003]},"properties":{"description":"","title":"Sultan house","placename":"13.483,22.467","address":"13.483,22.467"}},{"type":"Feature","geometry":{"type":"Point","coordinates":[22.471000000003,13.445999999998]},"properties":{"description":"","title":"Tandicraw","placename":"13.446,22.471","address":"13.446,22.471"}},{"type":"Feature","geometry":{"type":"Point","coordinates":[22.616999999996,13.616999999999]},"properties":{"description":"","title":"Tanjaki","placename":"13.617,22.617","address":"13.617,22.617"}},{"type":"Feature","geometry":{"type":"Point","coordinates":[22.411,12.808000000001]},"properties":{"description":"","title":"Tawang","placename":"12.808,22.411","address":"12.808,22.411"}},{"type":"Feature","geometry":{"type":"Point","coordinates":[21.982966699996,13.076933299996]},"properties":{"description":"","title":"Terbeba","placename":"13.0769333,21.9829667","address":"13.0769333,21.9829667"}},{"type":"Feature","geometry":{"type":"Point","coordinates":[23.479999999999,12.909999999997]},"properties":{"description":"","title":"Teyba","placename":"12.91,23.48","address":"12.91,23.48"}},{"type":"Feature","geometry":{"type":"Point","coordinates":[22.518000000001,13.52]},"properties":{"description":"","title":"Tilaihaya","placename":"13.52,22.518","address":"13.52,22.518"}},{"type":"Feature","geometry":{"type":"Point","coordinates":[22.462000000004,12.306999999997]},"properties":{"description":"","title":"Tundosa","placename":"12.307,22.462","address":"12.307,22.462"}},{"type":"Feature","geometry":{"type":"Point","coordinates":[22.964000000002,11.138999999996]},"properties":{"description":"","title":"Um Dukhon","placename":"11.139,22.964","address":"11.139,22.964"}},{"type":"Feature","geometry":{"type":"Point","coordinates":[23.012000000002,13.997999999999]},"properties":{"description":"","title":"Um Haraza","placename":"13.998,23.012","address":"13.998,23.012"}},{"type":"Feature","geometry":{"type":"Point","coordinates":[22.637999999999,12.104000000003]},"properties":{"description":"","title":"Um Jokoti","placename":"12.104,22.638","address":"12.104,22.638"}},{"type":"Feature","geometry":{"type":"Point","coordinates":[22.74,12.306000000003]},"properties":{"description":"","title":"Um Kher","placename":"12.306,22.74","address":"12.306,22.74"}},{"type":"Feature","geometry":{"type":"Point","coordinates":[22.505999999996,12.450999999997]},"properties":{"description":"","title":"Um Samgamti","placename":"12.451,22.506","address":"12.451,22.506"}},{"type":"Feature","geometry":{"type":"Point","coordinates":[22.974999999996,13.119000000004]},"properties":{"description":"","title":"Um Shalaya","placename":"13.119,22.975","address":"13.119,22.975"}},{"type":"Feature","geometry":{"type":"Point","coordinates":[22.526999999999,13.567000000003]},"properties":{"description":"","title":"Um Sibaiga","placename":"13.567,22.527","address":"13.567,22.527"}},{"type":"Feature","geometry":{"type":"Point","coordinates":[22.689999999997,13.897999999996]},"properties":{"description":"","title":"Umdaraba","placename":"13.898,22.69","address":"13.898,22.69"}},{"type":"Feature","geometry":{"type":"Point","coordinates":[22.689999999997,13.897999999996]},"properties":{"description":"","title":"Umdaraba","placename":"13.898,22.69","address":"13.898,22.69"}},{"type":"Feature","geometry":{"type":"Point","coordinates":[23.144000000004,13.418]},"properties":{"description":"","title":"Umtajok","placename":"13.418,23.144","address":"13.418,23.144"}},{"type":"Feature","geometry":{"type":"Point","coordinates":[22.487999999999,14.417000000002]},"properties":{"description":"","title":"Wadi Bardi","placename":"14.417,22.488","address":"14.417,22.488"}},{"type":"Feature","geometry":{"type":"Point","coordinates":[23.220000000002,13.809999999998]},"properties":{"description":"","title":"Warda","placename":"13.81,23.22","address":"13.81,23.22"}},{"type":"Feature","geometry":{"type":"LineString","coordinates":[[0,0],[37.215200000001,19.589600000003]]},"properties":{"distance":"4601.897233","title":"Sorghum to Port Sudan"}},{"type":"Feature","geometry":{"type":"LineString","coordinates":[[37.215200000001,19.589600000003],[32.536399999998,15.572499999996]]},"properties":{"title":"Port Sudan to Khartoum","distance":"667.348942"}},{"type":"Feature","geometry":{"type":"LineString","coordinates":[[32.536399999998,15.572499999996],[30.244893972597,13.1676489143]]},"properties":{"title":"Khartoum to El Obeid","distance":"363.897446"}},{"type":"Feature","geometry":{"type":"LineString","coordinates":[[30.244893972597,13.1676489143],[22.445403999997,13.441266400003]]},"properties":{"title":"El Obeid to El Geniena","distance":"844.499931"}},{"type":"Feature","geometry":{"type":"LineString","coordinates":[[30.244893972597,13.1676489143],[25.355938699996,13.626394100001]]},"properties":{"title":"El Obeid to El Fasher","distance":"531.278045"}},{"type":"Feature","geometry":{"type":"LineString","coordinates":[[30.244893972597,13.1676489143],[24.890582800002,12.055573000002]]},"properties":{"distance":"594.000680","title":"El Obeid to Nyala"}},{"type":"Feature","geometry":{"type":"LineString","coordinates":[[0,0],[22.445403999997,13.441266400003]]},"properties":{"title":"Sorghum Local to El Geniena","distance":"2889.127402"}},{"type":"Feature","geometry":{"type":"LineString","coordinates":[[30.244893972597,13.1676489143],[25.355938699996,13.626394100001]]},"properties":{"title":"El Obeid to El Fasher","distance":"531.278045"}},{"type":"Feature","geometry":{"type":"LineString","coordinates":[[30.244893972597,13.1676489143],[24.890582800002,12.055573000002]]},"properties":{"distance":"594.000680","title":"El Obeid to Nyala"}},{"type":"Feature","geometry":{"type":"LineString","coordinates":[[0,0],[35.386619999999,14.039673999999]]},"properties":{"title":"Sorghum Local to Gedaref","distance":"4195.319370"}},{"type":"Feature","geometry":{"type":"LineString","coordinates":[[35.386619999999,14.039673999999],[30.244893972597,13.1676489143]]},"properties":{"distance":"564.074430","title":"Gedaref to El Obeid"}},{"type":"Feature","geometry":{"type":"LineString","coordinates":[[30.244893972597,13.1676489143],[34.3598639726,11.789792264303]]},"properties":{"distance":"472.279585","title":"El Obeid to Ed Damazin"}},{"type":"Feature","geometry":{"type":"LineString","coordinates":[[30.244893972597,13.1676489143],[36.410499999996,15.429600000002]]},"properties":{"title":"El Obeid to Kassala","distance":"710.297077"}},{"type":"Feature","geometry":{"type":"LineString","coordinates":[[30.244893972597,13.1676489143],[29.729401,11.014238000001]]},"properties":{"title":"El Obeid to Kadugli","distance":"245.919802"}},{"type":"Feature","geometry":{"type":"LineString","coordinates":[[30.244893972597,13.1676489143],[34.289530000003,10.559020000003]]},"properties":{"distance":"527.084041","title":"El Obeid to Kurmuk"}},{"type":"Feature","geometry":{"type":"LineString","coordinates":[[30.244893972597,13.1676489143],[22.561933300002,12.680049999996]]},"properties":{"distance":"834.394358","title":"El Obeid to Habila"}},{"type":"Feature","geometry":{"type":"LineString","coordinates":[[30.244893972597,13.1676489143],[22.866927999996,12.954246800004]]},"properties":{"distance":"799.492463","title":"El Obeid to Mornie"}},{"type":"Feature","geometry":{"type":"LineString","coordinates":[[30.244893972597,13.1676489143],[23.283157999997,11.950009599999]]},"properties":{"title":"El Obeid to Mukjar","distance":"767.585085"}},{"type":"Feature","geometry":{"type":"LineString","coordinates":[[30.244893972597,13.1676489143],[23.481063899997,12.899989100003]]},"properties":{"distance":"733.309014","title":"El Obeid to Zalingie"}},{"type":"Feature","geometry":{"type":"LineString","coordinates":[[30.244893972597,13.1676489143],[24.100862920702,13.668104867901]]},"properties":{"title":"El Obeid to Kabkabiya","distance":"666.842880"}},{"type":"Feature","geometry":{"type":"LineString","coordinates":[[30.244893972597,13.1676489143],[24.649877200002,14.206471100001]]},"properties":{"distance":"615.385527","title":"El Obeid to Kutum"}},{"type":"Feature","geometry":{"type":"LineString","coordinates":[[30.244893972597,13.1676489143],[26.149999999999,11.430000000001]]},"properties":{"title":"El Obeid to Ed Daein","distance":"485.006735"}},{"type":"Feature","geometry":{"type":"LineString","coordinates":[[30.244893972597,13.1676489143],[25.140263900004,11.275427799996]]},"properties":{"title":"El Obeid to Gerida","distance":"593.271678"}},{"type":"Feature","geometry":{"type":"LineString","coordinates":[[30.244893972597,13.1676489143],[22.589600000002,12.125116700003]]},"properties":{"title":"El Obeid to Furubaranga","distance":"838.587228"}},{"type":"Feature","geometry":{"type":"LineString","coordinates":[[30.244893972597,13.1676489143],[23.137543699999,12.372530800004]]},"properties":{"title":"El Obeid to Garsila","distance":"775.776338"}},{"type":"Feature","geometry":{"type":"LineString","coordinates":[[30.244893972597,13.1676489143],[23.482999999996,12.916999999997]]},"properties":{"distance":"733.000017","title":"El Obeid to Hamidiya"}},{"type":"Feature","geometry":{"type":"LineString","coordinates":[[30.244893972597,13.1676489143],[23.479999999999,12.909999999997]]},"properties":{"title":"El Obeid to HasaHisa","distance":"733.365061"}},{"type":"Feature","geometry":{"type":"LineString","coordinates":[[30.244893972597,13.1676489143],[26.983000000001,11.733999999997]]},"properties":{"title":"El Obeid to Shabab","distance":"388.386851"}},{"type":"Feature","geometry":{"type":"LineString","coordinates":[[30.244893972597,13.1676489143],[23.479999999999,12.909999999997]]},"properties":{"title":"El Obeid to Taiba","distance":"733.365061"}},{"type":"Feature","geometry":{"type":"LineString","coordinates":[[30.244893972597,13.1676489143],[22.965999999997,11.138999999996]]},"properties":{"title":"El Obeid to Um Dukhun","distance":"822.694953"}},{"type":"Feature","geometry":{"type":"LineString","coordinates":[[30.244893972597,13.1676489143],[24.596999999999,14.412000000004]]},"properties":{"distance":"625.385994","title":"El Obeid to Abdul Shakour"}},{"type":"Feature","geometry":{"type":"LineString","coordinates":[[30.244893972597,13.1676489143],[25.640110000004,13.2984104]]},"properties":{"distance":"498.637648","title":"El Obeid to Abu Delek"}},{"type":"Feature","geometry":{"type":"LineString","coordinates":[[30.244893972597,13.1676489143],[23.411999999999,14.331]]},"properties":{"distance":"749.223603","title":"El Obeid to Abu Gamera"}},{"type":"Feature","geometry":{"type":"LineString","coordinates":[[30.244893972597,13.1676489143],[25.812222219998,14.084999999999]]},"properties":{"title":"El Obeid to Abu Geira","distance":"489.745122"}},{"type":"Feature","geometry":{"type":"LineString","coordinates":[[30.244893972597,13.1676489143],[23.832866669997,14.669577779998]]},"properties":{"title":"El Obeid to Abu Liha","distance":"711.873426"}},{"type":"Feature","geometry":{"type":"LineString","coordinates":[[30.244893972597,13.1676489143],[25.615000000003,14.571]]},"properties":{"title":"El Obeid to Abu Noshab","distance":"523.582611"}},{"type":"Feature","geometry":{"type":"LineString","coordinates":[[30.244893972597,13.1676489143],[25.344000000002,13.665999999999]]},"properties":{"title":"El Obeid to Abu Shouk Camp","distance":"532.959518"}},{"type":"Feature","geometry":{"type":"LineString","coordinates":[[30.244893972597,13.1676489143],[25.447453999998,13.529880999999]]},"properties":{"title":"El Obeid to Abudwiel","distance":"520.590015"}},{"type":"Feature","geometry":{"type":"LineString","coordinates":[[30.244893972597,13.1676489143],[26.501000000004,12.014999999996]]},"properties":{"title":"El Obeid to Al Khamsat","distance":"426.015817"}},{"type":"Feature","geometry":{"type":"LineString","coordinates":[[30.244893972597,13.1676489143],[26.733173299997,11.966880400002]]},"properties":{"title":"El Obeid to Al Saat","distance":"403.830675"}},{"type":"Feature","geometry":{"type":"LineString","coordinates":[[30.244893972597,13.1676489143],[24.879000000001,14.053000000003]]},"properties":{"distance":"588.183819","title":"El Obeid to Amar Jedid"}},{"type":"Feature","geometry":{"type":"LineString","coordinates":[[30.244893972597,13.1676489143],[24.433333330001,14.283333330004]]},"properties":{"distance":"639.876956","title":"El Obeid to Amow"}},{"type":"Feature","geometry":{"type":"LineString","coordinates":[[30.244893972597,13.1676489143],[24.850000000001,14.682000000001]]},"properties":{"title":"El Obeid to Anka","distance":"606.084373"}},{"type":"Feature","geometry":{"type":"LineString","coordinates":[[30.244893972597,13.1676489143],[25.086052799998,13.267608299996]]},"properties":{"distance":"558.541171","title":"El Obeid to Arasho"}},{"type":"Feature","geometry":{"type":"LineString","coordinates":[[30.244893972597,13.1676489143],[24.566000000004,14.512999999996]]},"properties":{"distance":"631.086228","title":"El Obeid to Areida"}},{"type":"Feature","geometry":{"type":"LineString","coordinates":[[30.244893972597,13.1676489143],[24.745999999997,14.202999999996]]},"properties":{"distance":"605.120061","title":"El Obeid to Argala"}},{"type":"Feature","geometry":{"type":"LineString","coordinates":[[30.244893972597,13.1676489143],[25.475000000003,14.025999999999]]},"properties":{"title":"El Obeid to Armadyat","distance":"524.270567"}},{"type":"Feature","geometry":{"type":"LineString","coordinates":[[30.244893972597,13.1676489143],[25.195355500004,14.620536599998]]},"properties":{"title":"El Obeid to Ba'ashim\/Tima","distance":"568.466680"}},{"type":"Feature","geometry":{"type":"LineString","coordinates":[[30.244893972597,13.1676489143],[24.603000000001,14.656]]},"properties":{"distance":"631.002970","title":"El Obeid to Bakuri"}},{"type":"Feature","geometry":{"type":"LineString","coordinates":[[30.244893972597,13.1676489143],[25.710277800004,14.111388899999]]},"properties":{"distance":"501.103922","title":"El Obeid to Benama"}},{"type":"Feature","geometry":{"type":"LineString","coordinates":[[30.244893972597,13.1676489143],[24.740999999997,14.569999999999]]},"properties":{"distance":"614.254929","title":"El Obeid to Bere"}},{"type":"Feature","geometry":{"type":"LineString","coordinates":[[30.244893972597,13.1676489143],[24.735000000003,14.713000000003]]},"properties":{"distance":"618.924681","title":"El Obeid to Beridik"}},{"type":"Feature","geometry":{"type":"LineString","coordinates":[[30.244893972597,13.1676489143],[25.004,13.722000000003]]},"properties":{"title":"El Obeid to Birka Saira (Nimra)","distance":"570.118657"}},{"type":"Feature","geometry":{"type":"LineString","coordinates":[[30.244893972597,13.1676489143],[24.596999999999,14.665000000004]]},"properties":{"distance":"631.879119","title":"El Obeid to Birmaza"}},{"type":"Feature","geometry":{"type":"LineString","coordinates":[[30.244893972597,13.1676489143],[23.457000000002,15.414000000004]]},"properties":{"distance":"772.820098","title":"El Obeid to Boba"}},{"type":"Feature","geometry":{"type":"LineString","coordinates":[[30.244893972597,13.1676489143],[25.363000000002,14.196999999997]]},"properties":{"distance":"539.696662","title":"El Obeid to Daba Toga"}},{"type":"Feature","geometry":{"type":"LineString","coordinates":[[30.244893972597,13.1676489143],[24.914999999996,13.452999999998]]},"properties":{"title":"El Obeid to Dali Camp","distance":"577.597303"}},{"type":"Feature","geometry":{"type":"LineString","coordinates":[[30.244893972597,13.1676489143],[26.668,11.849999999997]]},"properties":{"distance":"415.002592","title":"El Obeid to Dalil Babiker"}},{"type":"Feature","geometry":{"type":"LineString","coordinates":[[30.244893972597,13.1676489143],[26.524000000002,15.521000000003]]},"properties":{"title":"El Obeid to Dar Deifa","distance":"478.668611"}},{"type":"Feature","geometry":{"type":"LineString","coordinates":[[30.244893972597,13.1676489143],[25.407416660002,13.291066670001]]},"properties":{"distance":"523.799481","title":"El Obeid to Dar El Neeim"}},{"type":"Feature","geometry":{"type":"LineString","coordinates":[[30.244893972597,13.1676489143],[25.522114000001,13.056532999999]]},"properties":{"title":"El Obeid to Dar Elsalam Town","distance":"511.599214"}},{"type":"Feature","geometry":{"type":"LineString","coordinates":[[30.244893972597,13.1676489143],[24.508850000002,14.055419999999]]},"properties":{"distance":"627.694292","title":"El Obeid to Dawa"}},{"type":"Feature","geometry":{"type":"LineString","coordinates":[[30.244893972597,13.1676489143],[24.585000000003,14.607000000004]]},"properties":{"distance":"631.538739","title":"El Obeid to Deesa"}},{"type":"Feature","geometry":{"type":"LineString","coordinates":[[30.244893972597,13.1676489143],[25.853999999997,14.522000000003]]},"properties":{"distance":"497.387141","title":"El Obeid to Dekelik"}},{"type":"Feature","geometry":{"type":"LineString","coordinates":[[30.244893972597,13.1676489143],[24.292619999996,14.352960000004]]},"properties":{"title":"El Obeid to Deliba","distance":"656.209270"}},{"type":"Feature","geometry":{"type":"LineString","coordinates":[[30.244893972597,13.1676489143],[25.159333299998,13.295138899999]]},"properties":{"title":"El Obeid to Demsilik","distance":"550.649787"}},{"type":"Feature","geometry":{"type":"LineString","coordinates":[[30.244893972597,13.1676489143],[24.866999999997,14.079999999997]]},"properties":{"title":"El Obeid to Durum","distance":"589.938060"}},{"type":"Feature","geometry":{"type":"LineString","coordinates":[[30.244893972597,13.1676489143],[25.719654700002,13.113250200001]]},"properties":{"distance":"490.038871","title":"El Obeid to Ed Al Bideda"}},{"type":"Feature","geometry":{"type":"LineString","coordinates":[[30.244893972597,13.1676489143],[23.236549999996,14.736227780001]]},"properties":{"title":"El Obeid to Eid Elkhair","distance":"776.099398"}},{"type":"Feature","geometry":{"type":"LineString","coordinates":[[30.244893972597,13.1676489143],[26.773999999999,15.393000000004]]},"properties":{"distance":"448.439449","title":"El Obeid to Ein Bessaro"}},{"type":"Feature","geometry":{"type":"LineString","coordinates":[[30.244893972597,13.1676489143],[24.490999999999,14.572000000003]]},"properties":{"title":"El Obeid to El Dur","distance":"640.444737"}},{"type":"Feature","geometry":{"type":"LineString","coordinates":[[30.244893972597,13.1676489143],[25.355999999998,13.626000000004]]},"properties":{"title":"El Obeid to El Fasher Town IDPs","distance":"531.267674"}},{"type":"Feature","geometry":{"type":"LineString","coordinates":[[30.244893972597,13.1676489143],[26.733999999997,14.885]]},"properties":{"distance":"424.152162","title":"El Obeid to El Fula"}},{"type":"Feature","geometry":{"type":"LineString","coordinates":[[30.244893972597,13.1676489143],[26.248000000001,15.587999999999]]},"properties":{"title":"El Obeid to El Hara","distance":"507.677398"}},{"type":"Feature","geometry":{"type":"LineString","coordinates":[[30.244893972597,13.1676489143],[26.968,15.168]]},"properties":{"title":"El Obeid to El Hatan","distance":"417.458816"}},{"type":"Feature","geometry":{"type":"LineString","coordinates":[[30.244893972597,13.1676489143],[25.369999999997,13.672000000001]]},"properties":{"title":"El Obeid to El Salam Camp","distance":"530.226373"}},{"type":"Feature","geometry":{"type":"LineString","coordinates":[[30.244893972597,13.1676489143],[23.379334799996,13.988800499997]]},"properties":{"distance":"747.642706","title":"El Obeid to El Sereif Bn Hussein"}},{"type":"Feature","geometry":{"type":"LineString","coordinates":[[30.244893972597,13.1676489143],[23.419999999996,13.988511399999]]},"properties":{"title":"El Obeid to El-Serief IDPs","distance":"743.277397"}},{"type":"Feature","geometry":{"type":"LineString","coordinates":[[30.244893972597,13.1676489143],[24.562145000004,14.235844999996]]},"properties":{"title":"El Obeid to ElSheikh A\/AlBagi","distance":"625.271104"}},{"type":"Feature","geometry":{"type":"LineString","coordinates":[[30.244893972597,13.1676489143],[26.862836099998,12.2081972]]},"properties":{"title":"El Obeid to Eyal Amin","distance":"382.074091"}},{"type":"Feature","geometry":{"type":"LineString","coordinates":[[30.244893972597,13.1676489143],[23.903959800001,13.441552899997]]},"properties":{"distance":"686.811957","title":"El Obeid to Fago"}},{"type":"Feature","geometry":{"type":"LineString","coordinates":[[30.244893972597,13.1676489143],[24.561000000004,14.151999999996]]},"properties":{"title":"El Obeid to Fata Borno","distance":"623.798327"}},{"type":"Feature","geometry":{"type":"LineString","coordinates":[[30.244893972597,13.1676489143],[25.512,13.969999999999]]},"properties":{"title":"El Obeid to Fazi Dor","distance":"519.293358"}},{"type":"Feature","geometry":{"type":"LineString","coordinates":[[30.244893972597,13.1676489143],[24.009999999996,14.800000000002]]},"properties":{"distance":"696.753406","title":"El Obeid to Frog"}},{"type":"Feature","geometry":{"type":"LineString","coordinates":[[30.244893972597,13.1676489143],[23.619999999999,15.542999999996]]},"properties":{"distance":"760.882830","title":"El Obeid to Furawiya"}},{"type":"Feature","geometry":{"type":"LineString","coordinates":[[30.244893972597,13.1676489143],[23.874176999996,13.736964999997]]},"properties":{"title":"El Obeid to Gara-Ferjawia","distance":"691.835750"}},{"type":"Feature","geometry":{"type":"LineString","coordinates":[[30.244893972597,13.1676489143],[23.865327800004,13.759850000001]]},"properties":{"distance":"692.992681","title":"El Obeid to Gara-Zawia"}},{"type":"Feature","geometry":{"type":"LineString","coordinates":[[30.244893972597,13.1676489143],[25.349999999996,13.592000000004]]},"properties":{"distance":"531.602241","title":"El Obeid to Garni Area"}},{"type":"Feature","geometry":{"type":"LineString","coordinates":[[30.244893972597,13.1676489143],[23.24307778,15.154827779997]]},"properties":{"distance":"786.510431","title":"El Obeid to Gasimba"}},{"type":"Feature","geometry":{"type":"LineString","coordinates":[[30.244893972597,13.1676489143],[23.8784021,13.622436900001]]},"properties":{"distance":"690.496393","title":"El Obeid to Gergo (Gergo, Sabrna, Sanabiel)"}},{"type":"Feature","geometry":{"type":"LineString","coordinates":[[30.244893972597,13.1676489143],[25.437983332997,13.257316667002]]},"properties":{"distance":"520.442765","title":"El Obeid to Gerwit Beshim"}},{"type":"Feature","geometry":{"type":"LineString","coordinates":[[30.244893972597,13.1676489143],[24.762,14.220000000003]]},"properties":{"distance":"603.765426","title":"El Obeid to Goba"}},{"type":"Feature","geometry":{"type":"LineString","coordinates":[[30.244893972597,13.1676489143],[25.4628,13.416688899999]]},"properties":{"title":"El Obeid to Gos Beina","distance":"518.231290"}},{"type":"Feature","geometry":{"type":"LineString","coordinates":[[30.244893972597,13.1676489143],[25.264950000004,13.311849999999]]},"properties":{"distance":"539.255481","title":"El Obeid to Gos Diges"}},{"type":"Feature","geometry":{"type":"LineString","coordinates":[[30.244893972597,13.1676489143],[25.914000000001,14.182]]},"properties":{"distance":"481.311202","title":"El Obeid to Goz Laben"}},{"type":"Feature","geometry":{"type":"LineString","coordinates":[[30.244893972597,13.1676489143],[23.916000000001,15.145000000004]]},"properties":{"title":"El Obeid to Gurbura","distance":"716.860167"}},{"type":"Feature","geometry":{"type":"LineString","coordinates":[[30.244893972597,13.1676489143],[23.952999999997,14.200999999998]]},"properties":{"title":"El Obeid to Hareiga","distance":"689.380296"}},{"type":"Feature","geometry":{"type":"LineString","coordinates":[[30.244893972597,13.1676489143],[24.133333330001,13.649999999998]]},"properties":{"title":"El Obeid to Harra","distance":"663.202659"}},{"type":"Feature","geometry":{"type":"LineString","coordinates":[[30.244893972597,13.1676489143],[25.399999999999,14.149000000003]]},"properties":{"title":"El Obeid to Hashaba Baraka","distance":"534.729274"}},{"type":"Feature","geometry":{"type":"LineString","coordinates":[[30.244893972597,13.1676489143],[25.079999999997,14.387999999998]]},"properties":{"title":"El Obeid to Hashaba Center","distance":"574.031378"}},{"type":"Feature","geometry":{"type":"LineString","coordinates":[[30.244893972597,13.1676489143],[24.981000000002,14.438]]},"properties":{"title":"El Obeid to Hashaba North","distance":"585.680246"}},{"type":"Feature","geometry":{"type":"LineString","coordinates":[[30.244893972597,13.1676489143],[25.141000000003,14.278]]},"properties":{"title":"El Obeid to Hashaba South","distance":"564.962389"}},{"type":"Feature","geometry":{"type":"LineString","coordinates":[[30.244893972597,13.1676489143],[26.632999999998,11.959000000004]]},"properties":{"distance":"414.395222","title":"El Obeid to Haskanita"}},{"type":"Feature","geometry":{"type":"LineString","coordinates":[[30.244893972597,13.1676489143],[23.166,14.938999999999]]},"properties":{"title":"El Obeid to Hilaliya","distance":"788.509988"}},{"type":"Feature","geometry":{"type":"LineString","coordinates":[[30.244893972597,13.1676489143],[25.388999999996,14.733]]},"properties":{"distance":"552.149390","title":"El Obeid to Hilif Jenub"}},{"type":"Feature","geometry":{"type":"LineString","coordinates":[[30.244893972597,13.1676489143],[25.388999999996,14.733]]},"properties":{"title":"El Obeid to Hilif Saniya","distance":"552.149390"}},{"type":"Feature","geometry":{"type":"LineString","coordinates":[[30.244893972597,13.1676489143],[25.450000000002,14.788000000001]]},"properties":{"distance":"547.827678","title":"El Obeid to Hilif Shamal"}},{"type":"Feature","geometry":{"type":"LineString","coordinates":[[30.244893972597,13.1676489143],[25.638,14.155999999999]]},"properties":{"title":"El Obeid to Hillat Kharif","distance":"509.742916"}},{"type":"Feature","geometry":{"type":"LineString","coordinates":[[30.244893972597,13.1676489143],[24.666000000001,13.897999999996]]},"properties":{"distance":"608.546838","title":"El Obeid to Jabir"}},{"type":"Feature","geometry":{"type":"LineString","coordinates":[[30.244893972597,13.1676489143],[24.759000000003,14.134000000004]]},"properties":{"distance":"602.412112","title":"El Obeid to Jamboli"}},{"type":"Feature","geometry":{"type":"LineString","coordinates":[[30.244893972597,13.1676489143],[25.523966670001,13.150900000004]]},"properties":{"distance":"511.154557","title":"El Obeid to Jauwr"}},{"type":"Feature","geometry":{"type":"LineString","coordinates":[[30.244893972597,13.1676489143],[26.052999999999,15.390999999996]]},"properties":{"distance":"514.909797","title":"El Obeid to Jebel Eisa"}},{"type":"Feature","geometry":{"type":"LineString","coordinates":[[30.244893972597,13.1676489143],[25.38533517,13.559698059998]]},"properties":{"title":"El Obeid to Jougojougo Area","distance":"527.521536"}},{"type":"Feature","geometry":{"type":"LineString","coordinates":[[30.244893972597,13.1676489143],[23.323938999997,14.979530999999]]},"properties":{"distance":"773.124574","title":"El Obeid to Jourbokay"}},{"type":"Feature","geometry":{"type":"LineString","coordinates":[[30.244893972597,13.1676489143],[24.067000000003,15.299999999996]]},"properties":{"distance":"706.755830","title":"El Obeid to Juktora"}},{"type":"Feature","geometry":{"type":"LineString","coordinates":[[30.244893972597,13.1676489143],[23.415975,14.922258329998]]},"properties":{"title":"El Obeid to Jurageem","distance":"761.982479"}},{"type":"Feature","geometry":{"type":"LineString","coordinates":[[30.244893972597,13.1676489143],[23.79180552,14.026999930004]]},"properties":{"distance":"703.926894","title":"El Obeid to Kabkabeiya Town"}},{"type":"Feature","geometry":{"type":"LineString","coordinates":[[30.244893972597,13.1676489143],[24.952694499999,14.012738899998]]},"properties":{"distance":"579.639866","title":"El Obeid to Kafot"}},{"type":"Feature","geometry":{"type":"LineString","coordinates":[[30.244893972597,13.1676489143],[23.809330600003,13.430338899996]]},"properties":{"title":"El Obeid to Kala","distance":"697.003855"}},{"type":"Feature","geometry":{"type":"LineString","coordinates":[[30.244893972597,13.1676489143],[25.939503999999,12.953467999997]]},"properties":{"distance":"466.955231","title":"El Obeid to Kalamindo"}},{"type":"Feature","geometry":{"type":"LineString","coordinates":[[30.244893972597,13.1676489143],[23.432538889997,15.027497219997]]},"properties":{"distance":"763.175472","title":"El Obeid to Kamo"}},{"type":"Feature","geometry":{"type":"LineString","coordinates":[[30.244893972597,13.1676489143],[24.654999999999,14.234000000002]]},"properties":{"title":"El Obeid to Kassab Camp","distance":"615.389171"}},{"type":"Feature","geometry":{"type":"LineString","coordinates":[[30.244893972597,13.1676489143],[25.699999999999,14.454999999997]]},"properties":{"title":"El Obeid to Kedrin","distance":"511.189556"}},{"type":"Feature","geometry":{"type":"LineString","coordinates":[[30.244893972597,13.1676489143],[24.94434722,13.380219439998]]},"properties":{"title":"El Obeid to Khartoum-Jadid","distance":"574.122918"}},{"type":"Feature","geometry":{"type":"LineString","coordinates":[[30.244893972597,13.1676489143],[24.729000000001,14.152999999996]]},"properties":{"title":"El Obeid to Korgay","distance":"605.956243"}},{"type":"Feature","geometry":{"type":"LineString","coordinates":[[30.244893972597,13.1676489143],[24.754756000002,13.852330999997]]},"properties":{"distance":"598.429248","title":"El Obeid to Korma"}},{"type":"Feature","geometry":{"type":"LineString","coordinates":[[30.244893972597,13.1676489143],[26.008999999998,14.402999999996]]},"properties":{"distance":"477.606392","title":"El Obeid to Koskorie"}},{"type":"Feature","geometry":{"type":"LineString","coordinates":[[30.244893972597,13.1676489143],[25.229999999997,14.149000000003]]},"properties":{"distance":"552.722837","title":"El Obeid to Kul Kul"}},{"type":"Feature","geometry":{"type":"LineString","coordinates":[[30.244893972597,13.1676489143],[24.910139799998,13.949317199997]]},"properties":{"distance":"583.162835","title":"El Obeid to Kuma"}},{"type":"Feature","geometry":{"type":"LineString","coordinates":[[30.244893972597,13.1676489143],[24.893628500001,13.506832400003]]},"properties":{"distance":"580.199941","title":"El Obeid to Kunjarra"}},{"type":"Feature","geometry":{"type":"LineString","coordinates":[[30.244893972597,13.1676489143],[24.224694000001,14.622543999996]]},"properties":{"distance":"669.624606","title":"El Obeid to Kurbia (includes Um Mahareik)"}},{"type":"Feature","geometry":{"type":"LineString","coordinates":[[30.244893972597,13.1676489143],[24.649999999998,14.205999999998]]},"properties":{"title":"El Obeid to Kutum Town","distance":"615.363269"}},{"type":"Feature","geometry":{"type":"LineString","coordinates":[[30.244893972597,13.1676489143],[24.966000000001,14.084999999999]]},"properties":{"title":"El Obeid to Lemena","distance":"579.494147"}},{"type":"Feature","geometry":{"type":"LineString","coordinates":[[30.244893972597,13.1676489143],[26.969000000002,11.891000000004]]},"properties":{"title":"El Obeid to Likeliki","distance":"382.866673"}},{"type":"Feature","geometry":{"type":"LineString","coordinates":[[30.244893972597,13.1676489143],[24.067000000003,15.032999999997]]},"properties":{"distance":"697.741379","title":"El Obeid to Lil"}},{"type":"Feature","geometry":{"type":"LineString","coordinates":[[30.244893972597,13.1676489143],[25.118999999998,13.686000000001]]},"properties":{"title":"El Obeid to Mado Jenub","distance":"557.370487"}},{"type":"Feature","geometry":{"type":"LineString","coordinates":[[30.244893972597,13.1676489143],[26.040000000001,14.605]]},"properties":{"title":"El Obeid to Mado Shamal","distance":"481.195888"}},{"type":"Feature","geometry":{"type":"LineString","coordinates":[[30.244893972597,13.1676489143],[24.624999999997,14.456999999999]]},"properties":{"title":"El Obeid to Malagat","distance":"623.511216"}},{"type":"Feature","geometry":{"type":"LineString","coordinates":[[30.244893972597,13.1676489143],[26.1529557,15.082504199999]]},"properties":{"title":"El Obeid to Malha Town","distance":"489.905408"}},{"type":"Feature","geometry":{"type":"LineString","coordinates":[[30.244893972597,13.1676489143],[26.577000000002,14.817999999999]]},"properties":{"distance":"436.207713","title":"El Obeid to Marega"}},{"type":"Feature","geometry":{"type":"LineString","coordinates":[[30.244893972597,13.1676489143],[26.333999999999,14.969]]},"properties":{"distance":"466.945517","title":"El Obeid to Marsous"}},{"type":"Feature","geometry":{"type":"LineString","coordinates":[[30.244893972597,13.1676489143],[24.629316299996,14.099970799996]]},"properties":{"distance":"615.599362","title":"El Obeid to Masri (incl Dawa\/Beliga)"}},{"type":"Feature","geometry":{"type":"LineString","coordinates":[[30.244893972597,13.1676489143],[23.832230600001,13.550349999999]]},"properties":{"title":"El Obeid to Mastriha (Mastriha, Mithieb)","distance":"695.044462"}},{"type":"Feature","geometry":{"type":"LineString","coordinates":[[30.244893972597,13.1676489143],[25.549999999999,14.139999999999]]},"properties":{"title":"El Obeid to Mellit town- Residents","distance":"518.674366"}},{"type":"Feature","geometry":{"type":"LineString","coordinates":[[30.244893972597,13.1676489143],[24.218999999997,14.851999999997]]},"properties":{"title":"El Obeid to Miski","distance":"676.514664"}},{"type":"Feature","geometry":{"type":"LineString","coordinates":[[30.244893972597,13.1676489143],[25.736999999996,14.555999999999]]},"properties":{"title":"El Obeid to Mou","distance":"510.535328"}},{"type":"Feature","geometry":{"type":"LineString","coordinates":[[30.244893972597,13.1676489143],[24.915999999998,10.650000000002]]},"properties":{"distance":"643.785563","title":"El Obeid to Mulam Elhush"}},{"type":"Feature","geometry":{"type":"LineString","coordinates":[[30.244893972597,13.1676489143],[23.650000000001,15.167]]},"properties":{"distance":"744.897835","title":"El Obeid to Mustariha"}},{"type":"Feature","geometry":{"type":"LineString","coordinates":[[30.244893972597,13.1676489143],[24.228999999998,15.259000000004]]},"properties":{"title":"El Obeid to Muzbat","distance":"688.839041"}},{"type":"Feature","geometry":{"type":"LineString","coordinates":[[30.244893972597,13.1676489143],[24.901999999999,13.462999999999]]},"properties":{"distance":"579.051828","title":"El Obeid to Nina"}},{"type":"Feature","geometry":{"type":"LineString","coordinates":[[30.244893972597,13.1676489143],[24.039999999997,13.452000000004]]},"properties":{"distance":"672.146073","title":"El Obeid to Nomo"}},{"type":"Feature","geometry":{"type":"LineString","coordinates":[[30.244893972597,13.1676489143],[24.864,14.762999999999]]},"properties":{"distance":"607.103487","title":"El Obeid to Onyo"}},{"type":"Feature","geometry":{"type":"LineString","coordinates":[[30.244893972597,13.1676489143],[24.247000000004,15.066999999996]]},"properties":{"distance":"680.350844","title":"El Obeid to Oriri"}},{"type":"Feature","geometry":{"type":"LineString","coordinates":[[30.244893972597,13.1676489143],[23.8909,14.848295799998]]},"properties":{"distance":"710.489145","title":"El Obeid to Orschi (inclues Ana Bagi)"}},{"type":"Feature","geometry":{"type":"LineString","coordinates":[[30.244893972597,13.1676489143],[25.626649999996,13.373183299997]]},"properties":{"distance":"500.327711","title":"El Obeid to Sag El Naam"}},{"type":"Feature","geometry":{"type":"LineString","coordinates":[[30.244893972597,13.1676489143],[23.772279999999,13.588670000003]]},"properties":{"distance":"701.733133","title":"El Obeid to Sangir (Sangir, Jebel-Moos, Tege)"}},{"type":"Feature","geometry":{"type":"LineString","coordinates":[[30.244893972597,13.1676489143],[25.604,14.598999999998]]},"properties":{"title":"El Obeid to Sani Haye","distance":"525.621071"}},{"type":"Feature","geometry":{"type":"LineString","coordinates":[[30.244893972597,13.1676489143],[23.312000000002,13.477000000003]]},"properties":{"distance":"750.919879","title":"El Obeid to Saraf Omra"}},{"type":"Feature","geometry":{"type":"LineString","coordinates":[[30.244893972597,13.1676489143],[25.050297800001,13.693080600002]]},"properties":{"distance":"564.833855","title":"El Obeid to Sarfaya Area"}},{"type":"Feature","geometry":{"type":"LineString","coordinates":[[30.244893972597,13.1676489143],[25.752999999998,14.313000000001]]},"properties":{"distance":"501.602737","title":"El Obeid to Sayeh"}},{"type":"Feature","geometry":{"type":"LineString","coordinates":[[30.244893972597,13.1676489143],[26.412000000001,15.474999999998]]},"properties":{"title":"El Obeid to Sereif","distance":"486.133001"}},{"type":"Feature","geometry":{"type":"LineString","coordinates":[[30.244893972597,13.1676489143],[25.233133300002,13.650543300001]]},"properties":{"distance":"544.732044","title":"El Obeid to Shagra Area"}},{"type":"Feature","geometry":{"type":"LineString","coordinates":[[30.244893972597,13.1676489143],[26.481000000003,12.064000000003]]},"properties":{"distance":"426.449689","title":"El Obeid to Shak-Elkhadir"}},{"type":"Feature","geometry":{"type":"LineString","coordinates":[[30.244893972597,13.1676489143],[26.538000000001,15.005000000001]]},"properties":{"distance":"448.949132","title":"El Obeid to Shakhakha"}},{"type":"Feature","geometry":{"type":"LineString","coordinates":[[30.244893972597,13.1676489143],[25.189000000002,13.059999999998]]},"properties":{"distance":"547.650140","title":"El Obeid to Shangil Tobay Camp"}},{"type":"Feature","geometry":{"type":"LineString","coordinates":[[30.244893972597,13.1676489143],[24.004738000001,15.4488357]]},"properties":{"title":"El Obeid to Shegeg Karo","distance":"718.538228"}},{"type":"Feature","geometry":{"type":"LineString","coordinates":[[30.244893972597,13.1676489143],[25.073000000002,13.167999999998]]},"properties":{"distance":"559.957691","title":"El Obeid to Sherifa"}},{"type":"Feature","geometry":{"type":"LineString","coordinates":[[30.244893972597,13.1676489143],[25.072499999997,13.168333300004]]},"properties":{"distance":"560.011447","title":"El Obeid to Shewa Safaha"}},{"type":"Feature","geometry":{"type":"LineString","coordinates":[[30.244893972597,13.1676489143],[24.098999999999,13.606999999999]]},"properties":{"distance":"666.596093","title":"El Obeid to Shoba Mansour"}},{"type":"Feature","geometry":{"type":"LineString","coordinates":[[30.244893972597,13.1676489143],[25.881000000003,14.493999999999]]},"properties":{"distance":"493.698427","title":"El Obeid to Sindy"}},{"type":"Feature","geometry":{"type":"LineString","coordinates":[[30.244893972597,13.1676489143],[24.828249999999,13.726320000002]]},"properties":{"distance":"589.061728","title":"El Obeid to Ta'alba"}},{"type":"Feature","geometry":{"type":"LineString","coordinates":[[30.244893972597,13.1676489143],[25.1108407,13.196626000004]]},"properties":{"distance":"555.837652","title":"El Obeid to Tangrara"}},{"type":"Feature","geometry":{"type":"LineString","coordinates":[[30.244893972597,13.1676489143],[24.911024800004,13.4839056]]},"properties":{"distance":"578.188637","title":"El Obeid to Tawila & Rwanda"}},{"type":"Feature","geometry":{"type":"LineString","coordinates":[[30.244893972597,13.1676489143],[23.950000000001,15.333]]},"properties":{"distance":"719.816815","title":"El Obeid to Ternawdo"}},{"type":"Feature","geometry":{"type":"LineString","coordinates":[[30.244893972597,13.1676489143],[25.649999999996,14.035999999996]]},"properties":{"title":"El Obeid to Tofto","distance":"505.886297"}},{"type":"Feature","geometry":{"type":"LineString","coordinates":[[30.244893972597,13.1676489143],[24.091000000002,15.196999999998]]},"properties":{"distance":"700.694452","title":"El Obeid to Turba"}},{"type":"Feature","geometry":{"type":"LineString","coordinates":[[30.244893972597,13.1676489143],[25.383306500004,14.016666399998]]},"properties":{"distance":"533.843325","title":"El Obeid to Um Ajaja"}},{"type":"Feature","geometry":{"type":"LineString","coordinates":[[30.244893972597,13.1676489143],[23.704579999996,15.020690000001]]},"properties":{"distance":"734.779695","title":"El Obeid to Um Barru"}},{"type":"Feature","geometry":{"type":"LineString","coordinates":[[30.244893972597,13.1676489143],[26.898390200002,14.936087900002]]},"properties":{"title":"El Obeid to Um Bayada","distance":"411.046684"}},{"type":"Feature","geometry":{"type":"LineString","coordinates":[[30.244893972597,13.1676489143],[24.904612300001,13.499824600002]]},"properties":{"title":"El Obeid to Um Buranga","distance":"578.972299"}},{"type":"Feature","geometry":{"type":"LineString","coordinates":[[30.244893972597,13.1676489143],[25.153130600003,12.9799056]]},"properties":{"title":"El Obeid to Um Deressaya","distance":"551.888085"}},{"type":"Feature","geometry":{"type":"LineString","coordinates":[[30.244893972597,13.1676489143],[25.483197899998,13.033168200003]]},"properties":{"title":"El Obeid to Um Dul","distance":"515.905471"}},{"type":"Feature","geometry":{"type":"LineString","coordinates":[[30.244893972597,13.1676489143],[25.929379999997,13.579318000003]]},"properties":{"distance":"469.082588","title":"El Obeid to Um Dum Area"}},{"type":"Feature","geometry":{"type":"LineString","coordinates":[[30.244893972597,13.1676489143],[24.900000000004,13.633333299997]]},"properties":{"distance":"580.445151","title":"El Obeid to Um Gelbag"}},{"type":"Feature","geometry":{"type":"LineString","coordinates":[[30.244893972597,13.1676489143],[24.170999999998,14.941999999996]]},"properties":{"title":"El Obeid to Um Haraz","distance":"684.183486"}},{"type":"Feature","geometry":{"type":"LineString","coordinates":[[30.244893972597,13.1676489143],[26.691150600004,13.6024667]]},"properties":{"distance":"387.448480","title":"El Obeid to Um Kadada"}},{"type":"Feature","geometry":{"type":"LineString","coordinates":[[30.244893972597,13.1676489143],[25.171999999997,13.187999999999]]},"properties":{"title":"El Obeid to Um Khair","distance":"549.221599"}},{"type":"Feature","geometry":{"type":"LineString","coordinates":[[30.244893972597,13.1676489143],[25.072,13.348999999996]]},"properties":{"title":"El Obeid to Um Laota","distance":"560.220931"}},{"type":"Feature","geometry":{"type":"LineString","coordinates":[[30.244893972597,13.1676489143],[24.736999999998,13.994]]},"properties":{"title":"El Obeid to Um layona","distance":"602.356434"}},{"type":"Feature","geometry":{"type":"LineString","coordinates":[[30.244893972597,13.1676489143],[24.280000000003,14.729999999997]]},"properties":{"distance":"666.698793","title":"El Obeid to Um Mahareik"}},{"type":"Feature","geometry":{"type":"LineString","coordinates":[[30.244893972597,13.1676489143],[24.280085099997,14.729530399998]]},"properties":{"title":"El Obeid to Um Marahik Area","distance":"666.676970"}},{"type":"Feature","geometry":{"type":"LineString","coordinates":[[30.244893972597,13.1676489143],[24.893,14.672000000001]]},"properties":{"distance":"601.330024","title":"El Obeid to Um Rai"}},{"type":"Feature","geometry":{"type":"LineString","coordinates":[[30.244893972597,13.1676489143],[25.119500000003,13.381166699997]]},"properties":{"distance":"555.188229","title":"El Obeid to Um Sayalla - Alein"}},{"type":"Feature","geometry":{"type":"LineString","coordinates":[[30.244893972597,13.1676489143],[24.311999999999,14.625000000001]]},"properties":{"title":"El Obeid to Um Shidiq","distance":"660.548380"}},{"type":"Feature","geometry":{"type":"LineString","coordinates":[[30.244893972597,13.1676489143],[25.151999999996,14.424999999996]]},"properties":{"distance":"567.436265","title":"El Obeid to Um Sidr"}},{"type":"Feature","geometry":{"type":"LineString","coordinates":[[30.244893972597,13.1676489143],[23.532999999999,15.299999999996]]},"properties":{"title":"El Obeid to Uru","distance":"761.211357"}},{"type":"Feature","geometry":{"type":"LineString","coordinates":[[30.244893972597,13.1676489143],[25.750855599999,13.046483299998]]},"properties":{"title":"El Obeid to Wadi Kota","distance":"486.875641"}},{"type":"Feature","geometry":{"type":"LineString","coordinates":[[30.244893972597,13.1676489143],[26.239000000003,14.800000000002]]},"properties":{"title":"El Obeid to Wadi Osher","distance":"468.777680"}},{"type":"Feature","geometry":{"type":"LineString","coordinates":[[30.244893972597,13.1676489143],[25.381263099999,15.3759499]]},"properties":{"distance":"578.746041","title":"El Obeid to Wakahem"}},{"type":"Feature","geometry":{"type":"LineString","coordinates":[[30.244893972597,13.1676489143],[25.499000000003,13.892000000004]]},"properties":{"title":"El Obeid to Wama","distance":"519.345884"}},{"type":"Feature","geometry":{"type":"LineString","coordinates":[[30.244893972597,13.1676489143],[25.309,13.481000000001]]},"properties":{"distance":"535.197883","title":"El Obeid to Zam Zam Camp"}},{"type":"Feature","geometry":{"type":"LineString","coordinates":[[30.244893972597,13.1676489143],[25.309,13.481000000001]]},"properties":{"distance":"535.197883","title":"El Obeid to Zam Zam Camp"}},{"type":"Feature","geometry":{"type":"LineString","coordinates":[[30.244893972597,13.1676489143],[24.279000000001,12.513999999999]]},"properties":{"title":"El Obeid to A\/Jabar A","distance":"650.839543"}},{"type":"Feature","geometry":{"type":"LineString","coordinates":[[30.244893972597,13.1676489143],[24.676033300001,11.597016699999]]},"properties":{"distance":"629.503717","title":"El Obeid to Abu ajoura"}},{"type":"Feature","geometry":{"type":"LineString","coordinates":[[30.244893972597,13.1676489143],[26.739999999999,11.060000000004]]},"properties":{"distance":"447.327263","title":"El Obeid to Abu Jabra (Buram)"}},{"type":"Feature","geometry":{"type":"LineString","coordinates":[[30.244893972597,13.1676489143],[26.854000000004,11.065999999998]]},"properties":{"title":"El Obeid to Abu Jabra (Ed Daein)","distance":"436.458603"}},{"type":"Feature","geometry":{"type":"LineString","coordinates":[[30.244893972597,13.1676489143],[26.535701899999,11.586806300002]]},"properties":{"title":"El Obeid to Abu karinka HC","distance":"439.520977"}},{"type":"Feature","geometry":{"type":"LineString","coordinates":[[30.244893972597,13.1676489143],[26.201999999997,10.986000000002]]},"properties":{"title":"El Obeid to Abu Matariq IDPs","distance":"502.062781"}},{"type":"Feature","geometry":{"type":"LineString","coordinates":[[30.244893972597,13.1676489143],[25.104999999999,12.175999999998]]},"properties":{"title":"El Obeid to Abu Odam","distance":"568.390359"}},{"type":"Feature","geometry":{"type":"LineString","coordinates":[[30.244893972597,13.1676489143],[24.716436799999,11.186199700003]]},"properties":{"distance":"639.982671","title":"El Obeid to Abu Sallala"}},{"type":"Feature","geometry":{"type":"LineString","coordinates":[[30.244893972597,13.1676489143],[27.089,11.308000000001]]},"properties":{"distance":"400.446868","title":"El Obeid to Adilla IDPs"}},{"type":"Feature","geometry":{"type":"LineString","coordinates":[[30.244893972597,13.1676489143],[25.856104800004,12.443283399997]]},"properties":{"distance":"482.632542","title":"El Obeid to Ajara"}},{"type":"Feature","geometry":{"type":"LineString","coordinates":[[30.244893972597,13.1676489143],[24.286999999998,12.499000000004]]},"properties":{"title":"El Obeid to Al Battery","distance":"650.185321"}},{"type":"Feature","geometry":{"type":"LineString","coordinates":[[30.244893972597,13.1676489143],[25.794000000003,11.095000000001]]},"properties":{"distance":"535.916208","title":"El Obeid to Al Firdos"}},{"type":"Feature","geometry":{"type":"LineString","coordinates":[[30.244893972597,13.1676489143],[27.047999999996,11.251999999997]]},"properties":{"title":"El Obeid to Al Gora IDPs","distance":"407.519237"}},{"type":"Feature","geometry":{"type":"LineString","coordinates":[[30.244893972597,13.1676489143],[24.871000000004,12.916000000002]]},"properties":{"distance":"582.797034","title":"El Obeid to Al Malam"}},{"type":"Feature","geometry":{"type":"LineString","coordinates":[[30.244893972597,13.1676489143],[26.114999999997,11.469999999997]]},"properties":{"title":"El Obeid to Al Mashroot","distance":"486.723750"}},{"type":"Feature","geometry":{"type":"LineString","coordinates":[[30.244893972597,13.1676489143],[26.975999999997,11.578999999996]]},"properties":{"title":"El Obeid to Al Mazroub HC","distance":"396.546017"}},{"type":"Feature","geometry":{"type":"LineString","coordinates":[[30.244893972597,13.1676489143],[26.776000000003,11.541]]},"properties":{"title":"El Obeid to Al Neem","distance":"417.940872"}},{"type":"Feature","geometry":{"type":"LineString","coordinates":[[30.244893972597,13.1676489143],[25.5926667,11.352405599996]]},"properties":{"title":"El Obeid to Al Rouse","distance":"544.286448"}},{"type":"Feature","geometry":{"type":"LineString","coordinates":[[30.244893972597,13.1676489143],[24.577429999997,11.485100000004]]},"properties":{"distance":"643.429838","title":"El Obeid to Al Safia"}},{"type":"Feature","geometry":{"type":"LineString","coordinates":[[30.244893972597,13.1676489143],[26.399000000003,11.747999999998]]},"properties":{"distance":"446.401969","title":"El Obeid to Al Sahab"}},{"type":"Feature","geometry":{"type":"LineString","coordinates":[[30.244893972597,13.1676489143],[24.909999999996,12.101999999998]]},"properties":{"title":"El Obeid to Al Salam","distance":"590.832615"}},{"type":"Feature","geometry":{"type":"LineString","coordinates":[[30.244893972597,13.1676489143],[24.740999999997,12.192999999996]]},"properties":{"distance":"606.815209","title":"El Obeid to Amakasara"}},{"type":"Feature","geometry":{"type":"LineString","coordinates":[[30.244893972597,13.1676489143],[24.566999999997,12.088000000002]]},"properties":{"distance":"627.646717","title":"El Obeid to Amar Jaded"}},{"type":"Feature","geometry":{"type":"LineString","coordinates":[[30.244893972597,13.1676489143],[23.913000000004,12.205999999999]]},"properties":{"distance":"695.132055","title":"El Obeid to Ardeba"}},{"type":"Feature","geometry":{"type":"LineString","coordinates":[[30.244893972597,13.1676489143],[25.727999999997,11.377999999999]]},"properties":{"distance":"529.561515","title":"El Obeid to Assalaya"}},{"type":"Feature","geometry":{"type":"LineString","coordinates":[[30.244893972597,13.1676489143],[24.405000000001,12.124000000001]]},"properties":{"title":"El Obeid to Azomri","distance":"644.131036"}},{"type":"Feature","geometry":{"type":"LineString","coordinates":[[30.244893972597,13.1676489143],[26.572000000001,11.397999999999]]},"properties":{"title":"El Obeid to Bakhit","distance":"444.917444"}},{"type":"Feature","geometry":{"type":"LineString","coordinates":[[30.244893972597,13.1676489143],[25.026999999998,11.998000000004]]},"properties":{"distance":"580.991874","title":"El Obeid to Bileil"}},{"type":"Feature","geometry":{"type":"LineString","coordinates":[[30.244893972597,13.1676489143],[25.050000000004,11.868999999999]]},"properties":{"distance":"582.086456","title":"El Obeid to Couka"}},{"type":"Feature","geometry":{"type":"LineString","coordinates":[[30.244893972597,13.1676489143],[23.785,12.058999999999]]},"properties":{"title":"El Obeid to Dagadousa","distance":"711.699370"}},{"type":"Feature","geometry":{"type":"LineString","coordinates":[[30.244893972597,13.1676489143],[24.609000000003,12.007999999998]]},"properties":{"title":"El Obeid to Dalal Angra","distance":"625.041196"}},{"type":"Feature","geometry":{"type":"LineString","coordinates":[[30.244893972597,13.1676489143],[26.428999999996,11.425000000001]]},"properties":{"title":"El Obeid to Dar Alsalam","distance":"457.604542"}},{"type":"Feature","geometry":{"type":"LineString","coordinates":[[30.244893972597,13.1676489143],[24.924000000004,12.076000000002]]},"properties":{"distance":"589.960988","title":"El Obeid to Dereige"}},{"type":"Feature","geometry":{"type":"LineString","coordinates":[[30.244893972597,13.1676489143],[24.226319399998,12.5714639]]},"properties":{"distance":"655.764707","title":"El Obeid to Dibis"}},{"type":"Feature","geometry":{"type":"LineString","coordinates":[[30.244893972597,13.1676489143],[24.69455,11.698430599997]]},"properties":{"distance":"624.416999","title":"El Obeid to Dimo"}},{"type":"Feature","geometry":{"type":"LineString","coordinates":[[30.244893972597,13.1676489143],[24.579970040003,10.949843589997]]},"properties":{"distance":"663.489400","title":"El Obeid to Dimso"}},{"type":"Feature","geometry":{"type":"LineString","coordinates":[[30.244893972597,13.1676489143],[26.773999999999,11.534999999998]]},"properties":{"distance":"418.429546","title":"El Obeid to Direga"}},{"type":"Feature","geometry":{"type":"LineString","coordinates":[[30.244893972597,13.1676489143],[25.252000000002,11.436000000001]]},"properties":{"title":"El Obeid to Dito","distance":"575.568692"}},{"type":"Feature","geometry":{"type":"LineString","coordinates":[[30.244893972597,13.1676489143],[24.633151200003,11.516867600002]]},"properties":{"title":"El Obeid to Domaya","distance":"636.579274"}},{"type":"Feature","geometry":{"type":"LineString","coordinates":[[30.244893972597,13.1676489143],[25.067373300001,11.5221777]]},"properties":{"title":"El Obeid to Donkey Dressa","distance":"591.387525"}},{"type":"Feature","geometry":{"type":"LineString","coordinates":[[30.244893972597,13.1676489143],[25.029000000001,11.953]]},"properties":{"title":"El Obeid to Draib El Raih","distance":"581.968715"}},{"type":"Feature","geometry":{"type":"LineString","coordinates":[[30.244893972597,13.1676489143],[24.122999999999,12.706000000004]]},"properties":{"distance":"665.410173","title":"El Obeid to Dugu camp"}},{"type":"Feature","geometry":{"type":"LineString","coordinates":[[30.244893972597,13.1676489143],[24.865000000002,12.519999999997]]},"properties":{"title":"El Obeid to Duma Adwa","distance":"587.664353"}},{"type":"Feature","geometry":{"type":"LineString","coordinates":[[30.244893972597,13.1676489143],[25.504999999996,12.495999999999]]},"properties":{"distance":"519.277696","title":"El Obeid to Duma Duma"}},{"type":"Feature","geometry":{"type":"LineString","coordinates":[[30.244893972597,13.1676489143],[25.175000000003,11.856000000001]]},"properties":{"distance":"569.334334","title":"El Obeid to Dwana"}},{"type":"Feature","geometry":{"type":"LineString","coordinates":[[30.244893972597,13.1676489143],[26.149999999999,11.430000000001]]},"properties":{"distance":"485.006735","title":"El Obeid to Ed Daein Town"}},{"type":"Feature","geometry":{"type":"LineString","coordinates":[[30.244893972597,13.1676489143],[26.013077199999,11.848499699998]]},"properties":{"title":"El Obeid to El Ardieb","distance":"482.222009"}},{"type":"Feature","geometry":{"type":"LineString","coordinates":[[30.244893972597,13.1676489143],[26.512999999999,11.776000000003]]},"properties":{"distance":"433.706055","title":"El Obeid to El Fwileh"}},{"type":"Feature","geometry":{"type":"LineString","coordinates":[[30.244893972597,13.1676489143],[24.280999999996,12.508000000001]]},"properties":{"distance":"650.706555","title":"El Obeid to El Thanawia Banat"}},{"type":"Feature","geometry":{"type":"LineString","coordinates":[[30.244893972597,13.1676489143],[24.432500000003,10.67042]]},"properties":{"title":"El Obeid to El Tomat","distance":"690.591713"}},{"type":"Feature","geometry":{"type":"LineString","coordinates":[[30.244893972597,13.1676489143],[24.666000000001,12.010999999996]]},"properties":{"distance":"618.917468","title":"El Obeid to Elban Jadied"}},{"type":"Feature","geometry":{"type":"LineString","coordinates":[[30.244893972597,13.1676489143],[24.329999999997,12.561000000001]]},"properties":{"distance":"644.718844","title":"El Obeid to Erly"}},{"type":"Feature","geometry":{"type":"LineString","coordinates":[[30.244893972597,13.1676489143],[25.051999999999,12.224999999997]]},"properties":{"distance":"572.957396","title":"El Obeid to Fasha"}},{"type":"Feature","geometry":{"type":"LineString","coordinates":[[30.244893972597,13.1676489143],[25.029000000001,11.953]]},"properties":{"distance":"581.968715","title":"El Obeid to Gadi"}},{"type":"Feature","geometry":{"type":"LineString","coordinates":[[30.244893972597,13.1676489143],[25.147522499996,11.272931000004]]},"properties":{"distance":"592.635280","title":"El Obeid to Gereida"}},{"type":"Feature","geometry":{"type":"LineString","coordinates":[[30.244893972597,13.1676489143],[25.140000000001,11.274999999996]]},"properties":{"distance":"593.315770","title":"El Obeid to Gereida Camp"}},{"type":"Feature","geometry":{"type":"LineString","coordinates":[[30.244893972597,13.1676489143],[25.011000000004,12.558999999999]]},"properties":{"distance":"571.386401","title":"El Obeid to Goruf"}},{"type":"Feature","geometry":{"type":"LineString","coordinates":[[30.244893972597,13.1676489143],[24.854,12.246000000001]]},"properties":{"distance":"593.653789","title":"El Obeid to Halouf"}},{"type":"Feature","geometry":{"type":"LineString","coordinates":[[30.244893972597,13.1676489143],[24.340331499996,12.672603399996]]},"properties":{"distance":"642.281884","title":"El Obeid to Hashaba"}},{"type":"Feature","geometry":{"type":"LineString","coordinates":[[30.244893972597,13.1676489143],[25.067,10.683000000002]]},"properties":{"distance":"627.379682","title":"El Obeid to Heriga"}},{"type":"Feature","geometry":{"type":"LineString","coordinates":[[30.244893972597,13.1676489143],[22.587000000003,14.095000000003]]},"properties":{"distance":"833.888876","title":"El Obeid to Higliega"}},{"type":"Feature","geometry":{"type":"LineString","coordinates":[[30.244893972597,13.1676489143],[25.169000000001,11.792000000001]]},"properties":{"distance":"571.890769","title":"El Obeid to Hijaar"}},{"type":"Feature","geometry":{"type":"LineString","coordinates":[[30.244893972597,13.1676489143],[26.661999999998,11.425000000001]]},"properties":{"distance":"434.805757","title":"El Obeid to Hilal"}},{"type":"Feature","geometry":{"type":"LineString","coordinates":[[30.244893972597,13.1676489143],[26.069000000001,11.608000000004]]},"properties":{"title":"El Obeid to Hilat Ali","distance":"485.535437"}},{"type":"Feature","geometry":{"type":"LineString","coordinates":[[30.244893972597,13.1676489143],[24.390000000001,12.013999999999]]},"properties":{"title":"El Obeid to Hilat Hosa","distance":"648.173454"}},{"type":"Feature","geometry":{"type":"LineString","coordinates":[[30.244893972597,13.1676489143],[24.172,12.302000000003]]},"properties":{"title":"El Obeid to Humira School","distance":"665.637899"}},{"type":"Feature","geometry":{"type":"LineString","coordinates":[[30.244893972597,13.1676489143],[26.717000000001,11.682999999998]]},"properties":{"title":"El Obeid to Jad Elseid IDPs","distance":"417.137680"}},{"type":"Feature","geometry":{"type":"LineString","coordinates":[[30.244893972597,13.1676489143],[26.717000000001,11.682999999998]]},"properties":{"title":"El Obeid to Jad Elseid(Alnair)","distance":"417.137680"}},{"type":"Feature","geometry":{"type":"LineString","coordinates":[[30.244893972597,13.1676489143],[24.75875267,11.094817839998]]},"properties":{"title":"El Obeid to Jidad","distance":"639.352486"}},{"type":"Feature","geometry":{"type":"LineString","coordinates":[[30.244893972597,13.1676489143],[25.287999999997,11.111000000001]]},"properties":{"title":"El Obeid to Joghana","distance":"585.338791"}},{"type":"Feature","geometry":{"type":"LineString","coordinates":[[30.244893972597,13.1676489143],[25.015000000002,12.005000000004]]},"properties":{"distance":"582.080312","title":"El Obeid to Kalma"}},{"type":"Feature","geometry":{"type":"LineString","coordinates":[[30.244893972597,13.1676489143],[25.333,12.625999999999]]},"properties":{"title":"El Obeid to Karumji","distance":"535.785120"}},{"type":"Feature","geometry":{"type":"LineString","coordinates":[[30.244893972597,13.1676489143],[24.290039999998,12.502150000003]]},"properties":{"distance":"649.813958","title":"El Obeid to Kass Town (New Arrivals from WD)"}},{"type":"Feature","geometry":{"type":"LineString","coordinates":[[30.244893972597,13.1676489143],[24.285000000003,12.504999999997]]},"properties":{"title":"El Obeid to Kass Town (New Arrivals)","distance":"650.317198"}},{"type":"Feature","geometry":{"type":"LineString","coordinates":[[30.244893972597,13.1676489143],[25.098000000004,12.511000000002]]},"properties":{"distance":"562.743331","title":"El Obeid to Keri Kier"}},{"type":"Feature","geometry":{"type":"LineString","coordinates":[[30.244893972597,13.1676489143],[25.27,12.647000000001]]},"properties":{"title":"El Obeid to Khor Abechi","distance":"542.294011"}},{"type":"Feature","geometry":{"type":"LineString","coordinates":[[30.244893972597,13.1676489143],[26.166000000002,11.391999999996]]},"properties":{"title":"El Obeid to Khor Omer","distance":"485.145767"}},{"type":"Feature","geometry":{"type":"LineString","coordinates":[[30.244893972597,13.1676489143],[24.264199999999,12.547399999998]]},"properties":{"title":"El Obeid to Kideka","distance":"651.988152"}},{"type":"Feature","geometry":{"type":"LineString","coordinates":[[30.244893972597,13.1676489143],[24.825,12.726000000002]]},"properties":{"distance":"589.380865","title":"El Obeid to Koroly"}},{"type":"Feature","geometry":{"type":"LineString","coordinates":[[30.244893972597,13.1676489143],[23.802999999997,11.755000000001]]},"properties":{"title":"El Obeid to Kubum","distance":"716.816134"}},{"type":"Feature","geometry":{"type":"LineString","coordinates":[[30.244893972597,13.1676489143],[25.416000000001,11.569000000001]]},"properties":{"title":"El Obeid to Labado","distance":"553.766446"}},{"type":"Feature","geometry":{"type":"LineString","coordinates":[[30.244893972597,13.1676489143],[24.333179299996,12.6168337]]},"properties":{"title":"El Obeid to Limo","distance":"643.685279"}},{"type":"Feature","geometry":{"type":"LineString","coordinates":[[30.244893972597,13.1676489143],[25.024000000001,11.813999999997]]},"properties":{"distance":"586.418011","title":"El Obeid to Magarine"}},{"type":"Feature","geometry":{"type":"LineString","coordinates":[[30.244893972597,13.1676489143],[25.277999999997,11.851000000001]]},"properties":{"title":"El Obeid to Marla South","distance":"558.684838"}},{"type":"Feature","geometry":{"type":"LineString","coordinates":[[30.244893972597,13.1676489143],[24.977000000004,12.672000000004]]},"properties":{"distance":"573.575734","title":"El Obeid to Menawashi"}},{"type":"Feature","geometry":{"type":"LineString","coordinates":[[30.244893972597,13.1676489143],[25.141000000003,12.397000000001]]},"properties":{"distance":"560.043395","title":"El Obeid to Merier"}},{"type":"Feature","geometry":{"type":"LineString","coordinates":[[30.244893972597,13.1676489143],[24.903000000001,12.724000000001]]},"properties":{"distance":"580.979601","title":"El Obeid to Mershing"}},{"type":"Feature","geometry":{"type":"LineString","coordinates":[[30.244893972597,13.1676489143],[24.340999999999,12.073999999999]]},"properties":{"distance":"652.036642","title":"El Obeid to Moaro"}},{"type":"Feature","geometry":{"type":"LineString","coordinates":[[30.244893972597,13.1676489143],[24.880999999996,12.004000000001]]},"properties":{"distance":"596.292111","title":"El Obeid to Mosey"}},{"type":"Feature","geometry":{"type":"LineString","coordinates":[[30.244893972597,13.1676489143],[25.615999999996,11.974000000002]]},"properties":{"distance":"519.592176","title":"El Obeid to Muhajeria"}},{"type":"Feature","geometry":{"type":"LineString","coordinates":[[30.244893972597,13.1676489143],[24.508392200001,12.030815100001]]},"properties":{"distance":"635.191248","title":"El Obeid to Narri"}},{"type":"Feature","geometry":{"type":"LineString","coordinates":[[30.244893972597,13.1676489143],[25.407991700003,12.892969400002]]},"properties":{"distance":"524.871064","title":"El Obeid to Negaia"}},{"type":"Feature","geometry":{"type":"LineString","coordinates":[[30.244893972597,13.1676489143],[24.513999999997,12.541]]},"properties":{"distance":"625.155236","title":"El Obeid to Neima"}},{"type":"Feature","geometry":{"type":"LineString","coordinates":[[30.244893972597,13.1676489143],[24.460720000001,10.795139999998]]},"properties":{"distance":"682.172271","title":"El Obeid to Nekhara"}},{"type":"Feature","geometry":{"type":"LineString","coordinates":[[30.244893972597,13.1676489143],[25.524999999997,12.606999999998]]},"properties":{"distance":"515.382904","title":"El Obeid to Netiga"}},{"type":"Feature","geometry":{"type":"LineString","coordinates":[[30.244893972597,13.1676489143],[24.177,12.296000000002]]},"properties":{"distance":"665.205842","title":"El Obeid to Nyamma"}},{"type":"Feature","geometry":{"type":"LineString","coordinates":[[30.244893972597,13.1676489143],[24.177,12.296000000002]]},"properties":{"title":"El Obeid to Otash","distance":"665.205842"}},{"type":"Feature","geometry":{"type":"LineString","coordinates":[[30.244893972597,13.1676489143],[25.310000000002,11.534999999998]]},"properties":{"distance":"565.915223","title":"El Obeid to Rajella"}},{"type":"Feature","geometry":{"type":"LineString","coordinates":[[30.244893972597,13.1676489143],[24.705723870003,10.92237697]]},"properties":{"distance":"652.006769","title":"El Obeid to Rajraj"}},{"type":"Feature","geometry":{"type":"LineString","coordinates":[[30.244893972597,13.1676489143],[24.850000000001,11.983000000003]]},"properties":{"title":"El Obeid to Sakeley","distance":"600.107597"}},{"type":"Feature","geometry":{"type":"LineString","coordinates":[[30.244893972597,13.1676489143],[25.416000000001,11.732999999999]]},"properties":{"distance":"548.030274","title":"El Obeid to Sania Afandu"}},{"type":"Feature","geometry":{"type":"LineString","coordinates":[[30.244893972597,13.1676489143],[24.843918000001,11.739815]]},"properties":{"distance":"607.515737","title":"El Obeid to Sania Deliba"}},{"type":"Feature","geometry":{"type":"LineString","coordinates":[[30.244893972597,13.1676489143],[24.177,12.296000000002]]},"properties":{"distance":"665.205842","title":"El Obeid to Savana A"}},{"type":"Feature","geometry":{"type":"LineString","coordinates":[[30.244893972597,13.1676489143],[24.177,12.296000000002]]},"properties":{"distance":"665.205842","title":"El Obeid to Savana B"}},{"type":"Feature","geometry":{"type":"LineString","coordinates":[[30.244893972597,13.1676489143],[24.82,12.005000000004]]},"properties":{"distance":"602.730562","title":"El Obeid to Serif Camp"}},{"type":"Feature","geometry":{"type":"LineString","coordinates":[[30.244893972597,13.1676489143],[24.869092300001,12.166330900004]]},"properties":{"distance":"593.727478","title":"El Obeid to Shadida"}},{"type":"Feature","geometry":{"type":"LineString","coordinates":[[30.244893972597,13.1676489143],[25.606999999997,12.460000000001]]},"properties":{"distance":"508.975749","title":"El Obeid to Shaeria Town"}},{"type":"Feature","geometry":{"type":"LineString","coordinates":[[30.244893972597,13.1676489143],[27.083194399998,11.519666700003]]},"properties":{"distance":"389.253673","title":"El Obeid to Shag Tayeeb"}},{"type":"Feature","geometry":{"type":"LineString","coordinates":[[30.244893972597,13.1676489143],[27.188999999997,11.263]]},"properties":{"distance":"393.872953","title":"El Obeid to Sharif IDPs"}},{"type":"Feature","geometry":{"type":"LineString","coordinates":[[30.244893972597,13.1676489143],[25.698999999997,11.671000000002]]},"properties":{"distance":"520.928065","title":"El Obeid to Silia"}},{"type":"Feature","geometry":{"type":"LineString","coordinates":[[30.244893972597,13.1676489143],[26.916000000002,11.689999999996]]},"properties":{"distance":"397.058508","title":"El Obeid to Taalba"}},{"type":"Feature","geometry":{"type":"LineString","coordinates":[[30.244893972597,13.1676489143],[25.0343944,11.820180599999]]},"properties":{"title":"El Obeid to Tabeldiat","distance":"585.144764"}},{"type":"Feature","geometry":{"type":"LineString","coordinates":[[30.244893972597,13.1676489143],[25.228999999996,12.264000000004]]},"properties":{"distance":"553.248958","title":"El Obeid to Taisha"}},{"type":"Feature","geometry":{"type":"LineString","coordinates":[[30.244893972597,13.1676489143],[24.2040007,12.6494767]]},"properties":{"distance":"657.253621","title":"El Obeid to Taringa"}},{"type":"Feature","geometry":{"type":"LineString","coordinates":[[30.244893972597,13.1676489143],[24.304933299996,12.457333299999]]},"properties":{"title":"El Obeid to Tartur","distance":"648.854100"}},{"type":"Feature","geometry":{"type":"LineString","coordinates":[[30.244893972597,13.1676489143],[24.106000000003,12.854]]},"properties":{"title":"El Obeid to Thur East & West","distance":"665.986208"}},{"type":"Feature","geometry":{"type":"LineString","coordinates":[[30.244893972597,13.1676489143],[24.638999999996,11.844999999999]]},"properties":{"distance":"626.049605","title":"El Obeid to Timbisco"}},{"type":"Feature","geometry":{"type":"LineString","coordinates":[[30.244893972597,13.1676489143],[24.517000000003,11.216999999996]]},"properties":{"distance":"659.206986","title":"El Obeid to Tiwal"}},{"type":"Feature","geometry":{"type":"LineString","coordinates":[[30.244893972597,13.1676489143],[25.193000000001,12.316999999997]]},"properties":{"distance":"556.000610","title":"El Obeid to Um Alkhirat"}},{"type":"Feature","geometry":{"type":"LineString","coordinates":[[30.244893972597,13.1676489143],[25.944999999996,11.720000000003]]},"properties":{"distance":"493.845941","title":"El Obeid to Um Boim"}},{"type":"Feature","geometry":{"type":"LineString","coordinates":[[30.244893972597,13.1676489143],[26.442000000002,11.374999999997]]},"properties":{"distance":"458.748453","title":"El Obeid to Um Gogaya"}},{"type":"Feature","geometry":{"type":"LineString","coordinates":[[30.244893972597,13.1676489143],[25.165000000002,11.999999999999]]},"properties":{"distance":"566.353428","title":"El Obeid to Um Kurdos"}},{"type":"Feature","geometry":{"type":"LineString","coordinates":[[30.244893972597,13.1676489143],[23.982999999999,12.032999999999]]},"properties":{"distance":"691.106184","title":"El Obeid to Um Labasa"}},{"type":"Feature","geometry":{"type":"LineString","coordinates":[[30.244893972597,13.1676489143],[25.775788399998,12.5250872]]},"properties":{"title":"El Obeid to Um Lawaya","distance":"489.734362"}},{"type":"Feature","geometry":{"type":"LineString","coordinates":[[30.244893972597,13.1676489143],[25.048000000001,11.784000000003]]},"properties":{"distance":"584.800087","title":"El Obeid to Um-Kunya"}},{"type":"Feature","geometry":{"type":"LineString","coordinates":[[30.244893972597,13.1676489143],[26.638244300002,11.312797899999]]},"properties":{"distance":"442.861392","title":"El Obeid to Umrakuba"}},{"type":"Feature","geometry":{"type":"LineString","coordinates":[[30.244893972597,13.1676489143],[25.702000000003,12.650000000004]]},"properties":{"title":"El Obeid to Umridim","distance":"495.724766"}},{"type":"Feature","geometry":{"type":"LineString","coordinates":[[30.244893972597,13.1676489143],[24.850000000001,11.983000000003]]},"properties":{"distance":"600.107597","title":"El Obeid to Umsauna"}},{"type":"Feature","geometry":{"type":"LineString","coordinates":[[30.244893972597,13.1676489143],[25.504999999996,12.495999999999]]},"properties":{"title":"El Obeid to Wad al mairam","distance":"519.277696"}},{"type":"Feature","geometry":{"type":"LineString","coordinates":[[30.244893972597,13.1676489143],[27.101699999999,11.615666699999]]},"properties":{"distance":"382.494187","title":"El Obeid to Wad Joda"}},{"type":"Feature","geometry":{"type":"LineString","coordinates":[[30.244893972597,13.1676489143],[25.730838900002,11.491794399997]]},"properties":{"distance":"524.552541","title":"El Obeid to Wazazeen"}},{"type":"Feature","geometry":{"type":"LineString","coordinates":[[30.244893972597,13.1676489143],[24.293,12.504999999997]]},"properties":{"title":"El Obeid to Yahia Hajar","distance":"649.455526"}},{"type":"Feature","geometry":{"type":"LineString","coordinates":[[30.244893972597,13.1676489143],[25.011000000004,12.558999999999]]},"properties":{"distance":"571.386401","title":"El Obeid to Yara"}},{"type":"Feature","geometry":{"type":"LineString","coordinates":[[30.244893972597,13.1676489143],[25.490000000004,11.570000000001]]},"properties":{"distance":"546.123945","title":"El Obeid to Yassin"}},{"type":"Feature","geometry":{"type":"LineString","coordinates":[[30.244893972597,13.1676489143],[24.903000000001,12.724000000001]]},"properties":{"title":"El Obeid to Zalata","distance":"580.979601"}},{"type":"Feature","geometry":{"type":"LineString","coordinates":[[30.244893972597,13.1676489143],[28.975981000004,11.981235999996]]},"properties":{"title":"El Obeid to Abo Jonok","distance":"190.702846"}},{"type":"Feature","geometry":{"type":"LineString","coordinates":[[30.244893972597,13.1676489143],[31.235990999998,11.454376000002]]},"properties":{"title":"El Obeid to Abu Jebeeha","distance":"218.826428"}},{"type":"Feature","geometry":{"type":"LineString","coordinates":[[30.244893972597,13.1676489143],[29.416666999997,11.016667000001]]},"properties":{"title":"El Obeid to Abu Sinun","distance":"255.566787"}},{"type":"Feature","geometry":{"type":"LineString","coordinates":[[30.244893972597,13.1676489143],[30.516667000001,11.283332999999]]},"properties":{"title":"El Obeid to Angerri","distance":"211.597480"}},{"type":"Feature","geometry":{"type":"LineString","coordinates":[[30.244893972597,13.1676489143],[31.043333,12.246666999999]]},"properties":{"distance":"134.120201","title":"El Obeid to Banat El Moreib"}},{"type":"Feature","geometry":{"type":"LineString","coordinates":[[30.244893972597,13.1676489143],[30.866667000004,10.833332999996]]},"properties":{"distance":"268.227912","title":"El Obeid to El Azraq"}},{"type":"Feature","geometry":{"type":"LineString","coordinates":[[30.244893972597,13.1676489143],[31.567195,10.532300000001]]},"properties":{"title":"El Obeid to Fungor","distance":"326.456558"}},{"type":"Feature","geometry":{"type":"LineString","coordinates":[[30.244893972597,13.1676489143],[30.524800000004,11.210789999999]]},"properties":{"title":"El Obeid to Heiban","distance":"219.708995"}},{"type":"Feature","geometry":{"type":"LineString","coordinates":[[30.244893972597,13.1676489143],[29.491567999998,11.669126000001]]},"properties":{"distance":"185.625290","title":"El Obeid to Julud"}},{"type":"Feature","geometry":{"type":"LineString","coordinates":[[30.244893972597,13.1676489143],[30.301631999999,12.180841]]},"properties":{"distance":"109.900534","title":"El Obeid to Kafeir"}},{"type":"Feature","geometry":{"type":"LineString","coordinates":[[30.244893972597,13.1676489143],[30.975086000001,11.812918999996]]},"properties":{"distance":"170.222939","title":"El Obeid to Kaloba"}},{"type":"Feature","geometry":{"type":"LineString","coordinates":[[30.244893972597,13.1676489143],[29.674135000001,10.803581999998]]},"properties":{"distance":"270.102505","title":"El Obeid to Katcha"}},{"type":"Feature","geometry":{"type":"LineString","coordinates":[[30.244893972597,13.1676489143],[31.498284999996,10.614678]]},"properties":{"distance":"314.932301","title":"El Obeid to Kau"}},{"type":"Feature","geometry":{"type":"LineString","coordinates":[[30.244893972597,13.1676489143],[30.510939999999,11.084000000002]]},"properties":{"distance":"233.489267","title":"El Obeid to Kauda"}},{"type":"Feature","geometry":{"type":"LineString","coordinates":[[30.244893972597,13.1676489143],[29.247045999996,11.662171999998]]},"properties":{"distance":"199.410543","title":"El Obeid to Kayo"}},{"type":"Feature","geometry":{"type":"LineString","coordinates":[[30.244893972597,13.1676489143],[29.699600000001,11.467799999996]]},"properties":{"distance":"198.079195","title":"El Obeid to Kega"}},{"type":"Feature","geometry":{"type":"LineString","coordinates":[[30.244893972597,13.1676489143],[31.224722000004,11.973056000002]]},"properties":{"distance":"170.153721","title":"El Obeid to Khor Fidaila"}},{"type":"Feature","geometry":{"type":"LineString","coordinates":[[30.244893972597,13.1676489143],[29.600000000001,10.885832999996]]},"properties":{"title":"El Obeid to Korongo Abdalla","distance":"263.239879"}},{"type":"Feature","geometry":{"type":"LineString","coordinates":[[30.244893972597,13.1676489143],[29.362800000002,12.011500000002]]},"properties":{"title":"El Obeid to Kujuria","distance":"160.281776"}},{"type":"Feature","geometry":{"type":"LineString","coordinates":[[30.244893972597,13.1676489143],[29.400339999999,10.949315999996]]},"properties":{"distance":"263.206761","title":"El Obeid to Lima"}},{"type":"Feature","geometry":{"type":"LineString","coordinates":[[30.244893972597,13.1676489143],[31.749999999996,11.916667000002]]},"properties":{"title":"El Obeid to Managir","distance":"214.562056"}},{"type":"Feature","geometry":{"type":"LineString","coordinates":[[30.244893972597,13.1676489143],[31.509557000003,10.637733999998]]},"properties":{"distance":"313.157795","title":"El Obeid to Niaro"}},{"type":"Feature","geometry":{"type":"LineString","coordinates":[[30.244893972597,13.1676489143],[30.228833000001,10.828495000003]]},"properties":{"distance":"260.107913","title":"El Obeid to Saraf El Gamos"}},{"type":"Feature","geometry":{"type":"LineString","coordinates":[[30.244893972597,13.1676489143],[30.200000000001,10.616667000002]]},"properties":{"title":"El Obeid to Taboli","distance":"283.698297"}},{"type":"Feature","geometry":{"type":"LineString","coordinates":[[30.244893972597,13.1676489143],[30.981109999996,10.860559999996]]},"properties":{"title":"El Obeid to Talodi","distance":"268.740202"}},{"type":"Feature","geometry":{"type":"LineString","coordinates":[[30.244893972597,13.1676489143],[29.350000000004,11.716667000002]]},"properties":{"distance":"188.342056","title":"El Obeid to Tebeik"}},{"type":"Feature","geometry":{"type":"LineString","coordinates":[[30.244893972597,13.1676489143],[31.449999999996,10.783333000002]]},"properties":{"title":"El Obeid to Tereida","distance":"295.755249"}},{"type":"Feature","geometry":{"type":"LineString","coordinates":[[30.244893972597,13.1676489143],[29.244119999997,11.669379999996]]},"properties":{"title":"El Obeid to Timma","distance":"198.910795"}},{"type":"Feature","geometry":{"type":"LineString","coordinates":[[30.244893972597,13.1676489143],[31.083333000002,11.999999999999]]},"properties":{"title":"El Obeid to Tongi","distance":"158.544973"}},{"type":"Feature","geometry":{"type":"LineString","coordinates":[[30.244893972597,13.1676489143],[31.083333000002,11.766667000003]]},"properties":{"distance":"180.428278","title":"El Obeid to Tosomi"}},{"type":"Feature","geometry":{"type":"LineString","coordinates":[[30.244893972597,13.1676489143],[30.032799999998,10.861399999997]]},"properties":{"distance":"257.478381","title":"El Obeid to Umm Dorain"}},{"type":"Feature","geometry":{"type":"LineString","coordinates":[[30.244893972597,13.1676489143],[30.71635,11.04308]]},"properties":{"title":"El Obeid to Umm Dordo","distance":"241.737387"}},{"type":"Feature","geometry":{"type":"LineString","coordinates":[[30.244893972597,13.1676489143],[30.072309999996,11.48592]]},"properties":{"title":"El Obeid to Umm Heitan","distance":"187.937109"}},{"type":"Feature","geometry":{"type":"LineString","coordinates":[[30.244893972597,13.1676489143],[30.012200000001,11.009699999997]]},"properties":{"distance":"241.282953","title":"El Obeid to Umm Serdiba"}},{"type":"Feature","geometry":{"type":"LineString","coordinates":[[30.244893972597,13.1676489143],[29.352050999998,11.844202]]},"properties":{"distance":"176.210167","title":"El Obeid to Wali"}},{"type":"Feature","geometry":{"type":"LineString","coordinates":[[30.244893972597,13.1676489143],[31.176770999996,10.408779999998]]},"properties":{"distance":"323.103572","title":"El Obeid to Warni"}},{"type":"Feature","geometry":{"type":"LineString","coordinates":[[30.244893972597,13.1676489143],[22.491999999997,12.701000000002]]},"properties":{"title":"El Obeid to Abu Dahiyia","distance":"841.775036"}},{"type":"Feature","geometry":{"type":"LineString","coordinates":[[30.244893972597,13.1676489143],[22.398000000002,13.858000000002]]},"properties":{"title":"El Obeid to Abu Sourouge","distance":"851.804660"}},{"type":"Feature","geometry":{"type":"LineString","coordinates":[[30.244893972597,13.1676489143],[22.433999999997,13.430000000002]]},"properties":{"distance":"845.708609","title":"El Obeid to Abu Zar"}},{"type":"Feature","geometry":{"type":"LineString","coordinates":[[30.244893972597,13.1676489143],[22.6,13.583000000003]]},"properties":{"title":"El Obeid to Agoura","distance":"828.269342"}},{"type":"Feature","geometry":{"type":"LineString","coordinates":[[30.244893972597,13.1676489143],[23.482999999996,12.916999999997]]},"properties":{"title":"El Obeid to Al Hamedia","distance":"733.000017"}},{"type":"Feature","geometry":{"type":"LineString","coordinates":[[30.244893972597,13.1676489143],[22.907000000004,10.902000000003]]},"properties":{"title":"El Obeid to Al Karanik","distance":"836.746591"}},{"type":"Feature","geometry":{"type":"LineString","coordinates":[[30.244893972597,13.1676489143],[26.983000000001,11.733999999997]]},"properties":{"distance":"388.386851","title":"El Obeid to Al Shabab"}},{"type":"Feature","geometry":{"type":"LineString","coordinates":[[30.244893972597,13.1676489143],[22.168999999999,12.725000000001]]},"properties":{"title":"El Obeid to Arara","distance":"876.515763"}},{"type":"Feature","geometry":{"type":"LineString","coordinates":[[30.244893972597,13.1676489143],[22.499000000001,13.502999999999]]},"properties":{"title":"El Obeid to Arbokni","distance":"838.874431"}},{"type":"Feature","geometry":{"type":"LineString","coordinates":[[30.244893972597,13.1676489143],[22.495000000003,13.468999999996]]},"properties":{"distance":"839.206510","title":"El Obeid to Ardamata"}},{"type":"Feature","geometry":{"type":"LineString","coordinates":[[30.244893972597,13.1676489143],[22.166906199998,13.766854099997]]},"properties":{"title":"El Obeid to Armankul LRs","distance":"876.026268"}},{"type":"Feature","geometry":{"type":"LineString","coordinates":[[30.244893972597,13.1676489143],[22.660000000004,14.130000000002]]},"properties":{"distance":"826.496184","title":"El Obeid to Aro sharow"}},{"type":"Feature","geometry":{"type":"LineString","coordinates":[[30.244893972597,13.1676489143],[22.466999999996,14.333]]},"properties":{"distance":"849.958202","title":"El Obeid to Arwa"}},{"type":"Feature","geometry":{"type":"LineString","coordinates":[[30.244893972597,13.1676489143],[22.669000000003,13.511999999999]]},"properties":{"title":"El Obeid to Azirnie","distance":"820.532541"}},{"type":"Feature","geometry":{"type":"LineString","coordinates":[[30.244893972597,13.1676489143],[22.279211100001,13.614466700002]]},"properties":{"title":"El Obeid to Bangadeed","distance":"863.053391"}},{"type":"Feature","geometry":{"type":"LineString","coordinates":[[30.244893972597,13.1676489143],[22.595,14.381000000003]]},"properties":{"distance":"837.057890","title":"El Obeid to Batro"}},{"type":"Feature","geometry":{"type":"LineString","coordinates":[[30.244893972597,13.1676489143],[21.885000000002,12.711999999999]]},"properties":{"distance":"907.344441","title":"El Obeid to Beida"}},{"type":"Feature","geometry":{"type":"LineString","coordinates":[[30.244893972597,13.1676489143],[23.114000000002,11.941000000003]]},"properties":{"title":"El Obeid to Bindisi","distance":"785.847722"}},{"type":"Feature","geometry":{"type":"LineString","coordinates":[[30.244893972597,13.1676489143],[22.466999999996,13.716999999998]]},"properties":{"distance":"843.345365","title":"El Obeid to Bir Dagig"}},{"type":"Feature","geometry":{"type":"LineString","coordinates":[[30.244893972597,13.1676489143],[22.728999999997,13.778999999997]]},"properties":{"distance":"815.530715","title":"El Obeid to Buri Banat"}},{"type":"Feature","geometry":{"type":"LineString","coordinates":[[30.244893972597,13.1676489143],[22.738999999998,13.775999999999]]},"properties":{"distance":"814.430618","title":"El Obeid to Buri Nomads"}},{"type":"Feature","geometry":{"type":"LineString","coordinates":[[30.244893972597,13.1676489143],[23.237999999999,12.357]]},"properties":{"distance":"765.179942","title":"El Obeid to Deleij"}},{"type":"Feature","geometry":{"type":"LineString","coordinates":[[30.244893972597,13.1676489143],[22.576000000001,13.526999999997]]},"properties":{"title":"El Obeid to Deliaba","distance":"830.635284"}},{"type":"Feature","geometry":{"type":"LineString","coordinates":[[30.244893972597,13.1676489143],[22.486000000004,13.494999999998]]},"properties":{"distance":"840.254384","title":"El Obeid to Dorti"}},{"type":"Feature","geometry":{"type":"LineString","coordinates":[[30.244893972597,13.1676489143],[22.486000000004,13.494999999998]]},"properties":{"distance":"840.254384","title":"El Obeid to Dorti Falata"}},{"type":"Feature","geometry":{"type":"LineString","coordinates":[[30.244893972597,13.1676489143],[22.486000000004,13.494999999998]]},"properties":{"title":"El Obeid to Dorti Marareet","distance":"840.254384"}},{"type":"Feature","geometry":{"type":"LineString","coordinates":[[30.244893972597,13.1676489143],[22.521999999999,14.270000000001]]},"properties":{"distance":"843.154389","title":"El Obeid to Douhoush"}},{"type":"Feature","geometry":{"type":"LineString","coordinates":[[30.244893972597,13.1676489143],[22.427000000002,13.433000000001]]},"properties":{"title":"El Obeid to El Hujaj","distance":"846.471859"}},{"type":"Feature","geometry":{"type":"LineString","coordinates":[[30.244893972597,13.1676489143],[22.437000000003,13.464000000003]]},"properties":{"distance":"845.463535","title":"El Obeid to El Riad"}},{"type":"Feature","geometry":{"type":"LineString","coordinates":[[30.244893972597,13.1676489143],[22.59,12.124999999996]]},"properties":{"title":"El Obeid to Fur Buranga (NA)","distance":"838.546230"}},{"type":"Feature","geometry":{"type":"LineString","coordinates":[[30.244893972597,13.1676489143],[22.59,12.124999999996]]},"properties":{"title":"El Obeid to Fur Buranga Res","distance":"838.546230"}},{"type":"Feature","geometry":{"type":"LineString","coordinates":[[30.244893972597,13.1676489143],[22.897000000004,13.344000000002]]},"properties":{"distance":"795.491715","title":"El Obeid to Galala"}},{"type":"Feature","geometry":{"type":"LineString","coordinates":[[30.244893972597,13.1676489143],[23.139999999997,12.379999999996]]},"properties":{"title":"El Obeid to Garsila","distance":"775.406290"}},{"type":"Feature","geometry":{"type":"LineString","coordinates":[[30.244893972597,13.1676489143],[13.018583300002,21.938983299997]]},"properties":{"distance":"2067.799399","title":"El Obeid to Gemieza Babiker Res"}},{"type":"Feature","geometry":{"type":"LineString","coordinates":[[30.244893972597,13.1676489143],[22.935000000002,13.123000000003]]},"properties":{"distance":"791.511946","title":"El Obeid to Genderni"}},{"type":"Feature","geometry":{"type":"LineString","coordinates":[[30.244893972597,13.1676489143],[22.451000000002,12.438]]},"properties":{"distance":"848.942590","title":"El Obeid to Gobe"}},{"type":"Feature","geometry":{"type":"LineString","coordinates":[[30.244893972597,13.1676489143],[22.463999999999,13.226]]},"properties":{"distance":"842.338610","title":"El Obeid to Goker"}},{"type":"Feature","geometry":{"type":"LineString","coordinates":[[30.244893972597,13.1676489143],[22.432000000003,14.547999999996]]},"properties":{"title":"El Obeid to Goz digga","distance":"857.258278"}},{"type":"Feature","geometry":{"type":"LineString","coordinates":[[30.244893972597,13.1676489143],[22.688000000002,13.875000000002]]},"properties":{"title":"El Obeid to Goz Shido","distance":"820.736978"}},{"type":"Feature","geometry":{"type":"LineString","coordinates":[[30.244893972597,13.1676489143],[22.510999999997,12.055000000002]]},"properties":{"title":"El Obeid to Gumeiza","distance":"848.247369"}},{"type":"Feature","geometry":{"type":"LineString","coordinates":[[30.244893972597,13.1676489143],[22.767999999998,12.150000000002]]},"properties":{"distance":"818.998350","title":"El Obeid to Gungar"}},{"type":"Feature","geometry":{"type":"LineString","coordinates":[[30.244893972597,13.1676489143],[22.678000000001,13.515000000002]]},"properties":{"distance":"819.570509","title":"El Obeid to Gurf Elahmar"}},{"type":"Feature","geometry":{"type":"LineString","coordinates":[[30.244893972597,13.1676489143],[22.562000000001,12.680000000004]]},"properties":{"distance":"834.387589","title":"El Obeid to Habilla"}},{"type":"Feature","geometry":{"type":"LineString","coordinates":[[30.244893972597,13.1676489143],[22.7832105,13.783172400004]]},"properties":{"title":"El Obeid to Habilla LRs","distance":"809.721939"}},{"type":"Feature","geometry":{"type":"LineString","coordinates":[[30.244893972597,13.1676489143],[14.398025000002,22.5537556]]},"properties":{"distance":"1972.867150","title":"El Obeid to Hajer Laben"}},{"type":"Feature","geometry":{"type":"LineString","coordinates":[[30.244893972597,13.1676489143],[22.980999999998,13.152999999998]]},"properties":{"distance":"786.469492","title":"El Obeid to Hajer Tama"}},{"type":"Feature","geometry":{"type":"LineString","coordinates":[[30.244893972597,13.1676489143],[22.587000000003,14.095000000003]]},"properties":{"title":"El Obeid to Hejieliga","distance":"833.888876"}},{"type":"Feature","geometry":{"type":"LineString","coordinates":[[30.244893972597,13.1676489143],[22.702000000001,14.302999999996]]},"properties":{"title":"El Obeid to Helilat","distance":"824.420761"}},{"type":"Feature","geometry":{"type":"LineString","coordinates":[[30.244893972597,13.1676489143],[22.702000000001,14.302999999996]]},"properties":{"title":"El Obeid to Helilat","distance":"824.420761"}},{"type":"Feature","geometry":{"type":"LineString","coordinates":[[30.244893972597,13.1676489143],[23.479999999999,12.909999999997]]},"properties":{"distance":"733.365061","title":"El Obeid to Hesahesa"}},{"type":"Feature","geometry":{"type":"LineString","coordinates":[[30.244893972597,13.1676489143],[22.703999999996,13.988000000001]]},"properties":{"distance":"820.122524","title":"El Obeid to Jabal"}},{"type":"Feature","geometry":{"type":"LineString","coordinates":[[30.244893972597,13.1676489143],[22.428999999997,13.431999999996]]},"properties":{"distance":"846.253475","title":"El Obeid to Jama"}},{"type":"Feature","geometry":{"type":"LineString","coordinates":[[30.244893972597,13.1676489143],[22.771999999996,11.759999999997]]},"properties":{"distance":"826.275030","title":"El Obeid to Jugma El Garbia (NA)"}},{"type":"Feature","geometry":{"type":"LineString","coordinates":[[30.244893972597,13.1676489143],[22.495999999996,13.653000000001]]},"properties":{"distance":"839.842833","title":"El Obeid to Kandobi"}},{"type":"Feature","geometry":{"type":"LineString","coordinates":[[30.244893972597,13.1676489143],[22.504000000002,13.661000000003]]},"properties":{"distance":"839.023094","title":"El Obeid to Kandobi Nomads"}},{"type":"Feature","geometry":{"type":"LineString","coordinates":[[30.244893972597,13.1676489143],[22.669000000003,13.521000000002]]},"properties":{"distance":"820.564503","title":"El Obeid to Kangok"}},{"type":"Feature","geometry":{"type":"LineString","coordinates":[[30.244893972597,13.1676489143],[22.669000000003,13.521000000002]]},"properties":{"distance":"820.564503","title":"El Obeid to Kangok"}},{"type":"Feature","geometry":{"type":"LineString","coordinates":[[30.244893972597,13.1676489143],[22.907000000004,10.902000000003]]},"properties":{"distance":"836.746591","title":"El Obeid to Karanik"}},{"type":"Feature","geometry":{"type":"LineString","coordinates":[[30.244893972597,13.1676489143],[22.897000000004,13.344000000002]]},"properties":{"distance":"795.491715","title":"El Obeid to Kerinik IDPs"}},{"type":"Feature","geometry":{"type":"LineString","coordinates":[[30.244893972597,13.1676489143],[23.973749999998,12.971720000002]]},"properties":{"distance":"679.587422","title":"El Obeid to Khor-Ramla"}},{"type":"Feature","geometry":{"type":"LineString","coordinates":[[30.244893972597,13.1676489143],[22.468999999999,13.428]]},"properties":{"distance":"841.919695","title":"El Obeid to Kirinding-1"}},{"type":"Feature","geometry":{"type":"LineString","coordinates":[[30.244893972597,13.1676489143],[22.476000000003,13.424000000001]]},"properties":{"title":"El Obeid to Kirinding-2","distance":"841.154518"}},{"type":"Feature","geometry":{"type":"LineString","coordinates":[[30.244893972597,13.1676489143],[22.721,13.623]]},"properties":{"title":"El Obeid to Kirkir","distance":"815.398058"}},{"type":"Feature","geometry":{"type":"LineString","coordinates":[[30.244893972597,13.1676489143],[21.901999999998,12.926999999999]]},"properties":{"title":"El Obeid to Kongo Haraza","distance":"904.092781"}},{"type":"Feature","geometry":{"type":"LineString","coordinates":[[30.244893972597,13.1676489143],[22.379999999996,13.494999999998]]},"properties":{"title":"El Obeid to Korti","distance":"851.711370"}},{"type":"Feature","geometry":{"type":"LineString","coordinates":[[30.244893972597,13.1676489143],[22.460000000001,14.363999999996]]},"properties":{"distance":"851.181192","title":"El Obeid to Kulbus"}},{"type":"Feature","geometry":{"type":"LineString","coordinates":[[30.244893972597,13.1676489143],[22.674999999996,13.689000000004]]},"properties":{"distance":"820.736265","title":"El Obeid to Lambo"}},{"type":"Feature","geometry":{"type":"LineString","coordinates":[[30.244893972597,13.1676489143],[22.640000000003,12.268999999997]]},"properties":{"title":"El Obeid to Mangarasa (NA)","distance":"830.869045"}},{"type":"Feature","geometry":{"type":"LineString","coordinates":[[30.244893972597,13.1676489143],[22.520000000004,13.997999999999]]},"properties":{"title":"El Obeid to Manjura","distance":"839.991235"}},{"type":"Feature","geometry":{"type":"LineString","coordinates":[[30.244893972597,13.1676489143],[22.190000000002,13.129999999998]]},"properties":{"distance":"872.154059","title":"El Obeid to Mastari"}},{"type":"Feature","geometry":{"type":"LineString","coordinates":[[30.244893972597,13.1676489143],[22.476999999996,14.551000000001]]},"properties":{"distance":"852.534557","title":"El Obeid to Mastura"}},{"type":"Feature","geometry":{"type":"LineString","coordinates":[[30.244893972597,13.1676489143],[22.867000000002,12.954000000003]]},"properties":{"title":"El Obeid to Mornie","distance":"799.485881"}},{"type":"Feature","geometry":{"type":"LineString","coordinates":[[30.244893972597,13.1676489143],[23.110305600001,13.238255599996]]},"properties":{"title":"El Obeid to Muhajir","distance":"772.373823"}},{"type":"Feature","geometry":{"type":"LineString","coordinates":[[30.244893972597,13.1676489143],[23.328999999997,11.989]]},"properties":{"distance":"761.875837","title":"El Obeid to Mukjar"}},{"type":"Feature","geometry":{"type":"LineString","coordinates":[[30.244893972597,13.1676489143],[22.273999999997,13.609000000001]]},"properties":{"title":"El Obeid to Muli","distance":"863.591171"}},{"type":"Feature","geometry":{"type":"LineString","coordinates":[[30.244893972597,13.1676489143],[24.033579999996,12.966800000004]]},"properties":{"distance":"673.135441","title":"El Obeid to Nertiti"}},{"type":"Feature","geometry":{"type":"LineString","coordinates":[[30.244893972597,13.1676489143],[24.034999999997,12.958000000002]]},"properties":{"title":"El Obeid to Nertiti","distance":"673.026868"}},{"type":"Feature","geometry":{"type":"LineString","coordinates":[[30.244893972597,13.1676489143],[22.542,12.689000000001]]},"properties":{"title":"El Obeid to Nur El Huda","distance":"836.471127"}},{"type":"Feature","geometry":{"type":"LineString","coordinates":[[30.244893972597,13.1676489143],[22.737999999996,12.027]]},"properties":{"distance":"824.405951","title":"El Obeid to Ras El Feel"}},{"type":"Feature","geometry":{"type":"LineString","coordinates":[[30.244893972597,13.1676489143],[22.954000000002,13.054999999997]]},"properties":{"title":"El Obeid to Romalia","distance":"789.647885"}},{"type":"Feature","geometry":{"type":"LineString","coordinates":[[30.244893972597,13.1676489143],[22.855999999999,13.428999999997]]},"properties":{"title":"El Obeid to Rosi","distance":"800.074400"}},{"type":"Feature","geometry":{"type":"LineString","coordinates":[[30.244893972597,13.1676489143],[22.666999999999,12.522999999997]]},"properties":{"title":"El Obeid to Sala + Ior","distance":"824.622474"}},{"type":"Feature","geometry":{"type":"LineString","coordinates":[[30.244893972597,13.1676489143],[22.666999999999,12.522999999997]]},"properties":{"title":"El Obeid to Sala + Ior (NA)","distance":"824.622474"}},{"type":"Feature","geometry":{"type":"LineString","coordinates":[[30.244893972597,13.1676489143],[23.086999999997,13.738999999999]]},"properties":{"title":"El Obeid to Sanidadi","distance":"776.653021"}},{"type":"Feature","geometry":{"type":"LineString","coordinates":[[30.244893972597,13.1676489143],[22.250911099996,13.709655599998]]},"properties":{"title":"El Obeid to Saraf Gidad","distance":"866.608420"}},{"type":"Feature","geometry":{"type":"LineString","coordinates":[[30.244893972597,13.1676489143],[22.620000000001,13.999999999996]]},"properties":{"title":"El Obeid to Selea","distance":"829.271818"}},{"type":"Feature","geometry":{"type":"LineString","coordinates":[[30.244893972597,13.1676489143],[22.500000000003,13.809999999998]]},"properties":{"distance":"840.438036","title":"El Obeid to Sirba"}},{"type":"Feature","geometry":{"type":"LineString","coordinates":[[30.244893972597,13.1676489143],[22.738999999998,13.191999999997]]},"properties":{"title":"El Obeid to Sisi","distance":"812.607130"}},{"type":"Feature","geometry":{"type":"LineString","coordinates":[[30.244893972597,13.1676489143],[22.466999999996,13.483000000003]]},"properties":{"distance":"842.272355","title":"El Obeid to Sultan house"}},{"type":"Feature","geometry":{"type":"LineString","coordinates":[[30.244893972597,13.1676489143],[22.471000000003,13.445999999998]]},"properties":{"title":"El Obeid to Tandicraw","distance":"841.743253"}},{"type":"Feature","geometry":{"type":"LineString","coordinates":[[30.244893972597,13.1676489143],[22.616999999996,13.616999999999]]},"properties":{"distance":"826.594704","title":"El Obeid to Tanjaki"}},{"type":"Feature","geometry":{"type":"LineString","coordinates":[[30.244893972597,13.1676489143],[22.411,12.808000000001]]},"properties":{"distance":"849.711455","title":"El Obeid to Tawang"}},{"type":"Feature","geometry":{"type":"LineString","coordinates":[[30.244893972597,13.1676489143],[21.982966699996,13.076933299996]]},"properties":{"distance":"894.712171","title":"El Obeid to Terbeba"}},{"type":"Feature","geometry":{"type":"LineString","coordinates":[[30.244893972597,13.1676489143],[23.479999999999,12.909999999997]]},"properties":{"title":"El Obeid to Teyba","distance":"733.365061"}},{"type":"Feature","geometry":{"type":"LineString","coordinates":[[30.244893972597,13.1676489143],[22.518000000001,13.52]]},"properties":{"distance":"836.877784","title":"El Obeid to Tilaihaya"}},{"type":"Feature","geometry":{"type":"LineString","coordinates":[[30.244893972597,13.1676489143],[22.462000000004,12.306999999997]]},"properties":{"title":"El Obeid to Tundosa","distance":"849.488372"}},{"type":"Feature","geometry":{"type":"LineString","coordinates":[[30.244893972597,13.1676489143],[22.964000000002,11.138999999996]]},"properties":{"distance":"822.903997","title":"El Obeid to Um Dukhon"}},{"type":"Feature","geometry":{"type":"LineString","coordinates":[[30.244893972597,13.1676489143],[23.012000000002,13.997999999999]]},"properties":{"title":"El Obeid to Um Haraza","distance":"787.164129"}},{"type":"Feature","geometry":{"type":"LineString","coordinates":[[30.244893972597,13.1676489143],[22.637999999999,12.104000000003]]},"properties":{"title":"El Obeid to Um Jokoti","distance":"833.750471"}},{"type":"Feature","geometry":{"type":"LineString","coordinates":[[30.244893972597,13.1676489143],[22.74,12.306000000003]]},"properties":{"co2e":"0","title":"El Obeid to Um Kher","distance":"819.554019"}},{"type":"Feature","geometry":{"type":"LineString","coordinates":[[30.244893972597,13.1676489143],[22.505999999996,12.450999999997]]},"properties":{"title":"El Obeid to Um Samgamti","distance":"842.847887"}},{"type":"Feature","geometry":{"type":"LineString","coordinates":[[30.244893972597,13.1676489143],[22.974999999996,13.119000000004]]},"properties":{"distance":"787.190589","title":"El Obeid to Um Shalaya"}},{"type":"Feature","geometry":{"type":"LineString","coordinates":[[30.244893972597,13.1676489143],[22.526999999999,13.567000000003]]},"properties":{"title":"El Obeid to Um Sibaiga","distance":"836.084744"}},{"type":"Feature","geometry":{"type":"LineString","coordinates":[[30.244893972597,13.1676489143],[22.689999999997,13.897999999996]]},"properties":{"title":"El Obeid to Umdaraba","distance":"820.731179"}},{"type":"Feature","geometry":{"type":"LineString","coordinates":[[30.244893972597,13.1676489143],[22.689999999997,13.897999999996]]},"properties":{"title":"El Obeid to Umdaraba","distance":"820.731179"}},{"type":"Feature","geometry":{"type":"LineString","coordinates":[[30.244893972597,13.1676489143],[23.144000000004,13.418]]},"properties":{"distance":"768.905950","title":"El Obeid to Umtajok"}},{"type":"Feature","geometry":{"type":"LineString","coordinates":[[30.244893972597,13.1676489143],[22.487999999999,14.417000000002]]},"properties":{"title":"El Obeid to Wadi Bardi","distance":"849.043666"}},{"type":"Feature","geometry":{"type":"LineString","coordinates":[[30.244893972597,13.1676489143],[23.220000000002,13.809999999998]]},"properties":{"title":"El Obeid to Warda","distance":"762.905736"}}],"properties":{"title":"sorghum","description":"","tags":""}}