{"supplychain":{"category":null,"created":1361818942,"enable_comments":true,"flags":0,"id":5388,"modified":1361909875,"other_perms":1,"passcode":null,"user_featured":false,"usergroup_id":null,"usergroup_perms":0,"user_id":4968,"owner":{"id":4968,"name":"ultrafro","avatar":"http:\/\/free.sourcemap.com\/assets\/images\/default-user.png","banner_url":null,"display_name":null},"taxonomy":null,"attributes":{"title":"sorghum","description":"","tags":""},"stops":[{"local_stop_id":484,"id":484,"geometry":"POINT(0 -0)","attributes":{"description":"","title":"Sorghum","placename":"0,0","address":"0,0"}},{"local_stop_id":483,"id":483,"geometry":"POINT(0 -0)","attributes":{"description":"","title":"Sorghum"}},{"local_stop_id":482,"id":482,"geometry":"POINT(4142777.11377 2224476.263129)","attributes":{"description":"","title":"Port Sudan","placename":"19.5896,37.2152","address":"19.5896,37.2152"}},{"local_stop_id":481,"id":481,"geometry":"POINT(3621935.480246 1755268.29694)","attributes":{"description":"","title":"Khartoum","placename":"15.5725,32.5364","address":"15.5725,32.5364"}},{"local_stop_id":480,"id":480,"geometry":"POINT(3366846.196126 1478892.266091)","attributes":{"description":"","title":"El Obeid","placename":"13.1676489143,30.2448939726","address":"13.1676489143,30.2448939726"}},{"local_stop_id":479,"id":479,"geometry":"POINT(2498610.943929 1510191.292916)","attributes":{"description":"","title":"El Geniena","placename":"13.4412664,22.445404","address":"13.4412664,22.445404"}},{"local_stop_id":478,"id":478,"geometry":"POINT(2822610.184669 1531388.222391)","attributes":{"description":"","title":"El Fasher","placename":"13.6263941,25.3559387","address":"13.6263941,25.3559387"}},{"local_stop_id":477,"id":477,"geometry":"POINT(2770807.002844 1352033.626425)","attributes":{"description":"","title":"Nyala","placename":"12.055573,24.8905828","address":"12.055573,24.8905828"}},{"local_stop_id":476,"id":476,"geometry":"POINT(0 -0)","attributes":{"description":"","title":"Sorghum Local"}},{"local_stop_id":475,"id":475,"geometry":"POINT(2498610.943929 1510191.292916)","attributes":{"description":"","title":"El Geniena","placename":"13.4412664,22.445404","address":"13.4412664,22.445404"}},{"local_stop_id":474,"id":474,"geometry":"POINT(2822610.184669 1531388.222391)","attributes":{"description":"","title":"El Fasher","placename":"13.6263941,25.3559387","address":"13.6263941,25.3559387"}},{"local_stop_id":473,"id":473,"geometry":"POINT(2770807.002844 1352033.626425)","attributes":{"description":"","title":"Nyala","placename":"12.055573,24.8905828","address":"12.055573,24.8905828"}},{"local_stop_id":472,"id":472,"geometry":"POINT(3939220.519295 1578768.635734)","attributes":{"description":"","title":"Gedaref","placename":"14.039674,35.38662","address":"14.039674,35.386620"}},{"local_stop_id":471,"id":471,"geometry":"POINT(3366846.196126 1478892.266091)","attributes":{"description":"","title":"El Obeid","placename":"13.1676489143,30.2448939726","address":"13.1676489143,30.2448939726"}},{"local_stop_id":470,"id":470,"geometry":"POINT(3824922.561156 1321794.685003)","attributes":{"description":"","title":"Ed Damazin","placename":"11.7897922643,34.3598639726","address":"11.7897922643,34.3598639726"}},{"local_stop_id":469,"id":469,"geometry":"POINT(4053198.319528 1738760.266515)","attributes":{"description":"","title":"Kassala","placename":"15.4296,36.4105","address":"15.4296,36.4105"}},{"local_stop_id":468,"id":468,"geometry":"POINT(3309461.780909 1233721.473163)","attributes":{"description":"","title":"Kadugli","placename":"11.014238,29.729401","address":"11.014238,29.729401"}},{"local_stop_id":467,"id":467,"geometry":"POINT(3817093.019141 1182135.214199)","attributes":{"description":"","title":"Kurmuk","placename":"10.55902,34.28953","address":"10.55902,34.28953"}},{"local_stop_id":466,"id":466,"geometry":"POINT(2511582.926268 1423202.08873)","attributes":{"description":"","title":"Habila","placename":"12.68005,22.5619333","address":"12.68005,22.5619333"}},{"local_stop_id":465,"id":465,"geometry":"POINT(2545534.780966 1454505.557494)","attributes":{"description":"","title":"Mornie","placename":"12.9542468,22.866928","address":"12.9542468,22.866928"}},{"local_stop_id":464,"id":464,"geometry":"POINT(2591869.292619 1340019.70599)","attributes":{"description":"","title":"Mukjar","placename":"11.9500096,23.283158","address":"11.9500096,23.283158"}},{"local_stop_id":463,"id":463,"geometry":"POINT(2613900.076632 1448308.557351)","attributes":{"description":"","title":"Zalingie","placename":"12.8999891,23.4810639","address":"12.8999891,23.4810639"}},{"local_stop_id":462,"id":462,"geometry":"POINT(2682895.788011 1536166.345865)","attributes":{"description":"","title":"Kabkabiya","placename":"13.6681048679,24.1008629207","address":"13.6681048679,24.1008629207"}},{"local_stop_id":461,"id":461,"geometry":"POINT(2744011.778021 1597915.136658)","attributes":{"description":"","title":"Kutum","placename":"14.2064711,24.6498772","address":"14.2064711,24.6498772"}},{"local_stop_id":460,"id":460,"geometry":"POINT(2911004.684244 1280906.163477)","attributes":{"description":"","title":"Ed Daein","placename":"11.43,26.15","address":"11.43,26.15"}},{"local_stop_id":459,"id":459,"geometry":"POINT(2798601.375757 1263355.869614)","attributes":{"description":"","title":"Gerida","placename":"11.2754278,25.1402639","address":"11.2754278,25.1402639"}},{"local_stop_id":458,"id":458,"geometry":"POINT(2514662.769224 1359950.810874)","attributes":{"description":"","title":"Furubaranga","placename":"12.1251167,22.5896","address":"12.1251167,22.5896"}},{"local_stop_id":457,"id":457,"geometry":"POINT(2575659.582891 1388134.433051)","attributes":{"description":"","title":"Garsila","placename":"12.3725308,23.1375437","address":"12.3725308,23.1375437"}},{"local_stop_id":456,"id":456,"geometry":"POINT(2614115.602298 1450251.298883)","attributes":{"description":"","title":"Hamidiya","placename":"12.917,23.483","address":"12.917,23.483"}},{"local_stop_id":455,"id":455,"geometry":"POINT(2613781.643826 1449451.843062)","attributes":{"description":"","title":"HasaHisa","placename":"12.91,23.48","address":"12.91,23.48"}},{"local_stop_id":454,"id":454,"geometry":"POINT(3003733.820075 1315450.715024)","attributes":{"description":"","title":"Shabab","placename":"11.734,26.983","address":"11.734,26.983"}},{"local_stop_id":453,"id":453,"geometry":"POINT(2613781.643826 1449451.843062)","attributes":{"description":"","title":"Taiba","placename":"12.91,23.48","address":"12.91,23.48"}},{"local_stop_id":452,"id":452,"geometry":"POINT(2556563.425558 1247873.555506)","attributes":{"description":"","title":"Um Dukhun","placename":"11.139,22.966","address":"11.139,22.966"}},{"local_stop_id":451,"id":451,"geometry":"POINT(2738125.515042 1621527.061619)","attributes":{"description":"","title":"Abdul Shakour","placename":"14.412,24.597","address":"14.412,24.597"}},{"local_stop_id":450,"id":450,"geometry":"POINT(2854243.989084 1493845.626657)","attributes":{"description":"","title":"Abu Delek","placename":"13.2984104,25.64011","address":"13.2984104,25.64011"}},{"local_stop_id":449,"id":449,"geometry":"POINT(2606211.918452 1612218.899312)","attributes":{"description":"","title":"Abu Gamera","placename":"14.331,23.412","address":"14.331,23.412"}},{"local_stop_id":448,"id":448,"geometry":"POINT(2873403.433773 1583970.183391)","attributes":{"description":"","title":"Abu Geira","placename":"14.085,25.81222222","address":"14.085,25.81222222"}},{"local_stop_id":447,"id":447,"geometry":"POINT(2653062.581848 1651149.343197)","attributes":{"description":"","title":"Abu Liha","placename":"14.66957778,23.83286667","address":"14.66957778,23.83286667"}},{"local_stop_id":446,"id":446,"geometry":"POINT(2851448.75667 1639808.495022)","attributes":{"description":"","title":"Abu Noshab","placename":"14.571,25.615","address":"14.571,25.615"}},{"local_stop_id":445,"id":445,"geometry":"POINT(2821281.174665 1535925.20518)","attributes":{"description":"","title":"Abu Shouk Camp","placename":"13.666,25.344","address":"13.666,25.344"}},{"local_stop_id":444,"id":444,"geometry":"POINT(2832797.621265 1520335.515901)","attributes":{"description":"","title":"Abudwiel","placename":"13.529881,25.447454","address":"13.529881,25.447454"}},{"local_stop_id":443,"id":443,"geometry":"POINT(2950077.825513 1347415.552444)","attributes":{"description":"","title":"Al Khamsat","placename":"12.015,26.501","address":"12.015,26.501"}},{"local_stop_id":442,"id":442,"geometry":"POINT(2975923.239044 1341939.416152)","attributes":{"description":"","title":"Al Saat","placename":"11.9668804,26.7331733","address":"11.9668804,26.7331733"}},{"local_stop_id":441,"id":441,"geometry":"POINT(2769517.611446 1580297.801704)","attributes":{"description":"","title":"Amar Jedid","placename":"14.053,24.879","address":"14.053,24.879"}},{"local_stop_id":440,"id":440,"geometry":"POINT(2719906.224678 1606742.828431)","attributes":{"description":"","title":"Amow","placename":"14.28333333,24.43333333","address":"14.28333333,24.43333333"}},{"local_stop_id":439,"id":439,"geometry":"POINT(2766289.346213 1652578.815075)","attributes":{"description":"","title":"Anka","placename":"14.682,24.85","address":"14.682,24.85"}},{"local_stop_id":438,"id":438,"geometry":"POINT(2792566.623709 1490322.498449)","attributes":{"description":"","title":"Arasho","placename":"13.2676083,25.0860528","address":"13.2676083,25.0860528"}},{"local_stop_id":437,"id":437,"geometry":"POINT(2734674.610828 1633138.276055)","attributes":{"description":"","title":"Areida","placename":"14.513,24.566","address":"14.513,24.566"}},{"local_stop_id":436,"id":436,"geometry":"POINT(2754712.11917 1597516.548777)","attributes":{"description":"","title":"Argala","placename":"14.203,24.746","address":"14.203,24.746"}},{"local_stop_id":435,"id":435,"geometry":"POINT(2835864.027959 1577199.629017)","attributes":{"description":"","title":"Armadyat","placename":"14.026,25.475","address":"14.026,25.475"}},{"local_stop_id":434,"id":434,"geometry":"POINT(2804734.144616 1645506.780602)","attributes":{"description":"","title":"Ba'ashim\/Tima","placename":"14.6205366,25.1953555","address":"14.6205366,25.1953555"}},{"local_stop_id":433,"id":433,"geometry":"POINT(2738793.431987 1649586.989453)","attributes":{"description":"","title":"Bakuri","placename":"14.656,24.603","address":"14.656,24.603"}},{"local_stop_id":432,"id":432,"geometry":"POINT(2862055.03285 1586999.011569)","attributes":{"description":"","title":"Benama","placename":"14.1113889,25.7102778","address":"14.1113889,25.7102778"}},{"local_stop_id":431,"id":431,"geometry":"POINT(2754155.521716 1639693.476397)","attributes":{"description":"","title":"Bere","placename":"14.57,24.741","address":"14.57,24.741"}},{"local_stop_id":430,"id":430,"geometry":"POINT(2753487.604772 1656146.456769)","attributes":{"description":"","title":"Beridik","placename":"14.713,24.735","address":"14.713,24.735"}},{"local_stop_id":429,"id":429,"geometry":"POINT(2783432.547795 1542341.486698)","attributes":{"description":"","title":"Birka Saira (Nimra)","placename":"13.722,25.004","address":"13.722,25.004"}},{"local_stop_id":428,"id":428,"geometry":"POINT(2738125.515042 1650622.581186)","attributes":{"description":"","title":"Birmaza","placename":"14.665,24.597","address":"14.665,24.597"}},{"local_stop_id":427,"id":427,"geometry":"POINT(2611221.295538 1736958.820105)","attributes":{"description":"","title":"Boba","placename":"15.414,23.457","address":"15.414,23.457"}},{"local_stop_id":426,"id":426,"geometry":"POINT(2823396.24499 1596827.580652)","attributes":{"description":"","title":"Daba Toga","placename":"14.197,25.363","address":"14.197,25.363"}},{"local_stop_id":425,"id":425,"geometry":"POINT(2773525.113114 1511534.289677)","attributes":{"description":"","title":"Dali Camp","placename":"13.453,24.915","address":"13.453,24.915"}},{"local_stop_id":424,"id":424,"geometry":"POINT(2968668.180475 1328642.17175)","attributes":{"description":"","title":"Dalil Babiker","placename":"11.85,26.668","address":"11.85,26.668"}},{"local_stop_id":423,"id":423,"geometry":"POINT(2952638.173801 1749317.620062)","attributes":{"description":"","title":"Dar Deifa","placename":"15.521,26.524","address":"15.521,26.524"}},{"local_stop_id":422,"id":422,"geometry":"POINT(2828340.684964 1493005.614029)","attributes":{"description":"","title":"Dar El Neeim","placename":"13.29106667,25.40741666","address":"13.29106667,25.40741666"}},{"local_stop_id":421,"id":421,"geometry":"POINT(2841108.734448 1466191.771112)","attributes":{"description":"","title":"Dar Elsalam Town","placename":"13.056533,25.522114","address":"13.056533,25.522114"}},{"local_stop_id":420,"id":420,"geometry":"POINT(2728312.701929 1580575.507609)","attributes":{"description":"","title":"Dawa","placename":"14.05542,24.50885","address":"14.05542,24.50885"}},{"local_stop_id":419,"id":419,"geometry":"POINT(2736789.681153 1643949.513357)","attributes":{"description":"","title":"Deesa","placename":"14.607,24.585","address":"14.607,24.585"}},{"local_stop_id":418,"id":418,"geometry":"POINT(2878054.114969 1634173.195285)","attributes":{"description":"","title":"Dekelik","placename":"14.522,25.854","address":"14.522,25.854"}},{"local_stop_id":417,"id":417,"geometry":"POINT(2704242.088434 1614742.112555)","attributes":{"description":"","title":"Deliba","placename":"14.35296,24.29262","address":"14.35296,24.29262"}},{"local_stop_id":416,"id":416,"geometry":"POINT(2800724.171654 1493471.412955)","attributes":{"description":"","title":"Demsilik","placename":"13.2951389,25.1593333","address":"13.2951389,25.1593333"}},{"local_stop_id":415,"id":415,"geometry":"POINT(2768181.777556 1583396.33986)","attributes":{"description":"","title":"Durum","placename":"14.08,24.867","address":"14.08,24.867"}},{"local_stop_id":414,"id":414,"geometry":"POINT(2863098.864583 1472673.802636)","attributes":{"description":"","title":"Ed Al Bideda","placename":"13.1132502,25.7196547","address":"13.1132502,25.7196547"}},{"local_stop_id":413,"id":413,"geometry":"POINT(2586680.913792 1658819.962982)","attributes":{"description":"","title":"Eid Elkhair","placename":"14.73622778,23.23655","address":"14.73622778,23.23655"}},{"local_stop_id":412,"id":412,"geometry":"POINT(2980468.046499 1734534.009603)","attributes":{"description":"","title":"Ein Bessaro","placename":"15.393,26.774","address":"15.393,26.774"}},{"local_stop_id":411,"id":411,"geometry":"POINT(2726325.649018 1639923.514169)","attributes":{"description":"","title":"El Dur","placename":"14.572,24.491","address":"14.572,24.491"}},{"local_stop_id":410,"id":410,"geometry":"POINT(2822617.008554 1531343.080797)","attributes":{"description":"","title":"El Fasher Town IDPs","placename":"13.626,25.356","address":"13.626,25.356"}},{"local_stop_id":409,"id":409,"geometry":"POINT(2976015.266867 1675950.355335)","attributes":{"description":"","title":"El Fula","placename":"14.885,26.734","address":"14.885,26.734"}},{"local_stop_id":408,"id":408,"geometry":"POINT(2921913.994342 1757059.568974)","attributes":{"description":"","title":"El Hara","placename":"15.588,26.248","address":"15.588,26.248"}},{"local_stop_id":407,"id":407,"geometry":"POINT(3002064.027713 1708569.175276)","attributes":{"description":"","title":"El Hatan","placename":"15.168,26.968","address":"15.168,26.968"}},{"local_stop_id":406,"id":406,"geometry":"POINT(2824175.481425 1536612.590868)","attributes":{"description":"","title":"El Salam Camp","placename":"13.672,25.37","address":"13.672,25.37"}},{"local_stop_id":405,"id":405,"geometry":"POINT(2602575.645021 1572931.69012)","attributes":{"description":"","title":"El Sereif Bn Hussein","placename":"13.9888005,23.3793348","address":"13.9888005,23.3793348"}},{"local_stop_id":404,"id":404,"geometry":"POINT(2607102.474378 1572898.52407)","attributes":{"description":"","title":"El-Serief IDPs","placename":"13.9885114,23.42","address":"13.9885114,23.42"}},{"local_stop_id":403,"id":403,"geometry":"POINT(2734245.474191 1601288.398932)","attributes":{"description":"","title":"ElSheikh A\/AlBagi","placename":"14.235845,24.562145","address":"14.235845,24.562145"}},{"local_stop_id":402,"id":402,"geometry":"POINT(2990357.235915 1369411.796675)","attributes":{"description":"","title":"Eyal Amin","placename":"12.2081972,26.8628361","address":"12.2081972,26.8628361"}},{"local_stop_id":401,"id":401,"geometry":"POINT(2660976.632879 1510224.084163)","attributes":{"description":"","title":"Fago","placename":"13.4415529,23.9039598","address":"13.4415529,23.9039598"}},{"local_stop_id":400,"id":400,"geometry":"POINT(2734118.013374 1591660.900912)","attributes":{"description":"","title":"Fata Borno","placename":"14.152,24.561","address":"14.152,24.561"}},{"local_stop_id":399,"id":399,"geometry":"POINT(2839982.849118 1570774.951113)","attributes":{"description":"","title":"Fazi Dor","placename":"13.97,25.512","address":"13.97,25.512"}},{"local_stop_id":398,"id":398,"geometry":"POINT(2672780.973946 1666161.581909)","attributes":{"description":"","title":"Frog","placename":"14.8,24.01","address":"14.8,24.01"}},{"local_stop_id":397,"id":397,"geometry":"POINT(2629366.372537 1751859.474743)","attributes":{"description":"","title":"Furawiya","placename":"15.543,23.62","address":"15.543,23.62"}},{"local_stop_id":396,"id":396,"geometry":"POINT(2657661.226748 1544056.382387)","attributes":{"description":"","title":"Gara-Ferjawia","placename":"13.736965,23.874177","address":"13.736965,23.874177"}},{"local_stop_id":395,"id":395,"geometry":"POINT(2656676.138311 1546679.072498)","attributes":{"description":"","title":"Gara-Zawia","placename":"13.75985,23.8653278","address":"13.75985,23.8653278"}},{"local_stop_id":394,"id":394,"geometry":"POINT(2821949.091609 1527448.884806)","attributes":{"description":"","title":"Garni Area","placename":"13.592,25.35","address":"13.592,25.35"}},{"local_stop_id":393,"id":393,"geometry":"POINT(2587407.582938 1707049.971285)","attributes":{"description":"","title":"Gasimba","placename":"15.15482778,23.24307778","address":"15.15482778,23.24307778"}},{"local_stop_id":392,"id":392,"geometry":"POINT(2658131.562729 1530934.954259)","attributes":{"description":"","title":"Gergo (Gergo, Sabrna, Sanabiel)","placename":"13.6224369,23.8784021","address":"13.6224369,23.8784021"}},{"local_stop_id":391,"id":391,"geometry":"POINT(2831743.351437 1489145.446397)","attributes":{"description":"","title":"Gerwit Beshim","placename":"13.257316667,25.437983333","address":"13.257316667,25.437983333"}},{"local_stop_id":390,"id":390,"geometry":"POINT(2756493.231023 1599468.724326)","attributes":{"description":"","title":"Goba","placename":"14.22,24.762","address":"14.22,24.762"}},{"local_stop_id":389,"id":389,"geometry":"POINT(2834505.930171 1507378.430355)","attributes":{"description":"","title":"Gos Beina","placename":"13.4166889,25.4628","address":"13.4166889,25.4628"}},{"local_stop_id":388,"id":388,"geometry":"POINT(2812481.368918 1495382.981348)","attributes":{"description":"","title":"Gos Diges","placename":"13.31185,25.26495","address":"13.31185,25.26495"}},{"local_stop_id":387,"id":387,"geometry":"POINT(2884733.284417 1595105.240174)","attributes":{"description":"","title":"Goz Laben","placename":"14.182,25.914","address":"14.182,25.914"}},{"local_stop_id":386,"id":386,"geometry":"POINT(2662316.941812 1705916.556349)","attributes":{"description":"","title":"Gurbura","placename":"15.145,23.916","address":"15.145,23.916"}},{"local_stop_id":385,"id":385,"geometry":"POINT(2666435.762971 1597286.890707)","attributes":{"description":"","title":"Hareiga","placename":"14.201,23.953","address":"14.201,23.953"}},{"local_stop_id":384,"id":384,"geometry":"POINT(2686510.37744 1534092.262222)","attributes":{"description":"","title":"Harra","placename":"13.65,24.13333333","address":"13.65,24.13333333"}},{"local_stop_id":383,"id":383,"geometry":"POINT(2827515.066149 1591316.492013)","attributes":{"description":"","title":"Hashaba Baraka","placename":"14.149,25.4","address":"14.149,25.4"}},{"local_stop_id":382,"id":382,"geometry":"POINT(2791892.829095 1618768.735944)","attributes":{"description":"","title":"Hashaba Center","placename":"14.388,25.08","address":"14.388,25.08"}},{"local_stop_id":381,"id":381,"geometry":"POINT(2780872.199507 1624515.582862)","attributes":{"description":"","title":"Hashaba North","placename":"14.438,24.981","address":"14.438,24.981"}},{"local_stop_id":380,"id":380,"geometry":"POINT(2798683.318034 1606130.193842)","attributes":{"description":"","title":"Hashaba South","placename":"14.278,25.141","address":"14.278,25.141"}},{"local_stop_id":379,"id":379,"geometry":"POINT(2964771.998297 1341042.699023)","attributes":{"description":"","title":"Haskanita","placename":"11.959,26.633","address":"11.959,26.633"}},{"local_stop_id":378,"id":378,"geometry":"POINT(2578827.323717 1682171.109375)","attributes":{"description":"","title":"Hilaliya","placename":"14.939,23.166","address":"14.939,23.166"}},{"local_stop_id":377,"id":377,"geometry":"POINT(2826290.55175 1658448.430025)","attributes":{"description":"","title":"Hilif Jenub","placename":"14.733,25.389","address":"14.733,25.389"}},{"local_stop_id":376,"id":376,"geometry":"POINT(2826290.55175 1658448.430025)","attributes":{"description":"","title":"Hilif Saniya","placename":"14.733,25.389","address":"14.733,25.389"}},{"local_stop_id":375,"id":375,"geometry":"POINT(2833081.040689 1664779.947004)","attributes":{"description":"","title":"Hilif Shamal","placename":"14.788,25.45","address":"14.788,25.45"}},{"local_stop_id":374,"id":374,"geometry":"POINT(2854009.104958 1592120.119852)","attributes":{"description":"","title":"Hillat Kharif","placename":"14.156,25.638","address":"14.156,25.638"}},{"local_stop_id":373,"id":373,"geometry":"POINT(2745806.559907 1562516.945087)","attributes":{"description":"","title":"Jabir","placename":"13.898,24.666","address":"13.898,24.666"}},{"local_stop_id":372,"id":372,"geometry":"POINT(2756159.272551 1589594.515683)","attributes":{"description":"","title":"Jamboli","placename":"14.134,24.759","address":"14.134,24.759"}},{"local_stop_id":371,"id":371,"geometry":"POINT(2841314.972729 1476977.505718)","attributes":{"description":"","title":"Jauwr","placename":"13.1509,25.52396667","address":"13.1509,25.52396667"}},{"local_stop_id":370,"id":370,"geometry":"POINT(2900206.693637 1734303.088035)","attributes":{"description":"","title":"Jebel Eisa","placename":"15.391,26.053","address":"15.391,26.053"}},{"local_stop_id":369,"id":369,"geometry":"POINT(2825882.584741 1523749.693958)","attributes":{"description":"","title":"Jougojougo Area","placename":"13.55969806,25.38533517","address":"13.55969806,25.38533517"}},{"local_stop_id":368,"id":368,"geometry":"POINT(2596409.012773 1686841.273543)","attributes":{"description":"","title":"Jourbokay","placename":"14.979531,23.323939","address":"14.979531,23.323939"}},{"local_stop_id":367,"id":367,"geometry":"POINT(2679126.184922 1723798.498982)","attributes":{"description":"","title":"Juktora","placename":"15.3,24.067","address":"15.3,24.067"}},{"local_stop_id":366,"id":366,"geometry":"POINT(2606654.413428 1680242.316205)","attributes":{"description":"","title":"Jurageem","placename":"14.92225833,23.415975","address":"14.92225833,23.415975"}},{"local_stop_id":365,"id":365,"geometry":"POINT(2648491.675539 1577314.361614)","attributes":{"description":"","title":"Kabkabeiya Town","placename":"14.02699993,23.79180552","address":"14.02699993,23.79180552"}},{"local_stop_id":364,"id":364,"geometry":"POINT(2777721.24566 1575678.089361)","attributes":{"description":"","title":"Kafot","placename":"14.0127389,24.9526945","address":"14.0127389,24.9526945"}},{"local_stop_id":363,"id":363,"geometry":"POINT(2650442.558521 1508940.619336)","attributes":{"description":"","title":"Kala","placename":"13.4303389,23.8093306","address":"13.4303389,23.8093306"}},{"local_stop_id":362,"id":362,"geometry":"POINT(2887572.37671 1454416.597934)","attributes":{"description":"","title":"Kalamindo","placename":"12.953468,25.939504","address":"12.953468,25.939504"}},{"local_stop_id":361,"id":361,"geometry":"POINT(2608498.297228 1692369.299589)","attributes":{"description":"","title":"Kamo","placename":"15.02749722,23.43253889","address":"15.02749722,23.43253889"}},{"local_stop_id":360,"id":360,"geometry":"POINT(2744582.045508 1601076.508515)","attributes":{"description":"","title":"Kassab Camp","placename":"14.234,24.655","address":"14.234,24.655"}},{"local_stop_id":359,"id":359,"geometry":"POINT(2860910.913387 1626469.804733)","attributes":{"description":"","title":"Kedrin","placename":"14.455,25.7","address":"14.455,25.7"}},{"local_stop_id":358,"id":358,"geometry":"POINT(2776792.030701 1503205.078824)","attributes":{"description":"","title":"Khartoum-Jadid","placename":"13.38021944,24.94434722","address":"13.38021944,24.94434722"}},{"local_stop_id":357,"id":357,"geometry":"POINT(2752819.687827 1591775.704889)","attributes":{"description":"","title":"Korgay","placename":"14.153,24.729","address":"14.153,24.729"}},{"local_stop_id":356,"id":356,"geometry":"POINT(2755686.832632 1557280.292283)","attributes":{"description":"","title":"Korma","placename":"13.852331,24.754756","address":"13.852331,24.754756"}},{"local_stop_id":355,"id":355,"geometry":"POINT(2895308.636042 1620492.654723)","attributes":{"description":"","title":"Koskorie","placename":"14.403,26.009","address":"14.403,26.009"}},{"local_stop_id":354,"id":354,"geometry":"POINT(2808590.752714 1591316.492013)","attributes":{"description":"","title":"Kul Kul","placename":"14.149,25.23","address":"14.149,25.23"}},{"local_stop_id":353,"id":353,"geometry":"POINT(2772984.078125 1568402.483449)","attributes":{"description":"","title":"Kuma","placename":"13.9493172,24.9101398","address":"13.9493172,24.9101398"}},{"local_stop_id":352,"id":352,"geometry":"POINT(2771146.048617 1517696.647833)","attributes":{"description":"","title":"Kunjarra","placename":"13.5068324,24.8936285","address":"13.5068324,24.8936285"}},{"local_stop_id":351,"id":351,"geometry":"POINT(2696680.600703 1645737.722556)","attributes":{"description":"","title":"Kurbia (includes Um Mahareik)","placename":"14.622544,24.224694","address":"14.622544,24.224694"}},{"local_stop_id":350,"id":350,"geometry":"POINT(2744025.448054 1597861.039687)","attributes":{"description":"","title":"Kutum Town","placename":"14.206,24.65","address":"14.206,24.65"}},{"local_stop_id":349,"id":349,"geometry":"POINT(2779202.407145 1583970.183391)","attributes":{"description":"","title":"Lemena","placename":"14.085,24.966","address":"14.085,24.966"}},{"local_stop_id":348,"id":348,"geometry":"POINT(3002175.347204 1333306.006983)","attributes":{"description":"","title":"Likeliki","placename":"11.891,26.969","address":"11.891,26.969"}},{"local_stop_id":347,"id":347,"geometry":"POINT(2679126.184922 1693003.565081)","attributes":{"description":"","title":"Lil","placename":"15.033,24.067","address":"15.033,24.067"}},{"local_stop_id":346,"id":346,"geometry":"POINT(2796234.289236 1538216.558917)","attributes":{"description":"","title":"Mado Jenub","placename":"13.686,25.119","address":"13.686,25.119"}},{"local_stop_id":345,"id":345,"geometry":"POINT(2898759.540257 1643719.439009)","attributes":{"description":"","title":"Mado Shamal","placename":"14.605,26.04","address":"14.605,26.04"}},{"local_stop_id":344,"id":344,"geometry":"POINT(2741242.460784 1626699.723012)","attributes":{"description":"","title":"Malagat","placename":"14.457,24.625","address":"14.457,24.625"}},{"local_stop_id":343,"id":343,"geometry":"POINT(2911333.711263 1698710.291162)","attributes":{"description":"","title":"Malha Town","placename":"15.0825042,26.1529557","address":"15.0825042,26.1529557"}},{"local_stop_id":342,"id":342,"geometry":"POINT(2958538.106813 1668234.177644)","attributes":{"description":"","title":"Marega","placename":"14.818,26.577","address":"14.818,26.577"}},{"local_stop_id":341,"id":341,"geometry":"POINT(2931487.47055 1685627.759445)","attributes":{"description":"","title":"Marsous","placename":"14.969,26.334","address":"14.969,26.334"}},{"local_stop_id":340,"id":340,"geometry":"POINT(2741722.949102 1585688.437888)","attributes":{"description":"","title":"Masri (incl Dawa\/Beliga)","placename":"14.0999708,24.6293163","address":"14.0999708,24.6293163"}},{"local_stop_id":339,"id":339,"geometry":"POINT(2652991.77486 1522679.255929)","attributes":{"description":"","title":"Mastriha (Mastriha, Mithieb)","placename":"13.55035,23.8322306","address":"13.55035,23.8322306"}},{"local_stop_id":338,"id":338,"geometry":"POINT(2844212.989768 1590283.292585)","attributes":{"description":"","title":"Mellit town- Residents","placename":"14.14,25.55","address":"14.14,25.55"}},{"local_stop_id":337,"id":337,"geometry":"POINT(2696046.747522 1672149.550883)","attributes":{"description":"","title":"Miski","placename":"14.852,24.219","address":"14.852,24.219"}},{"local_stop_id":336,"id":336,"geometry":"POINT(2865029.734546 1638083.270418)","attributes":{"description":"","title":"Mou","placename":"14.556,25.737","address":"14.556,25.737"}},{"local_stop_id":335,"id":335,"geometry":"POINT(2773636.432605 1192439.043079)","attributes":{"description":"","title":"Mulam Elhush","placename":"10.65,24.916","address":"10.65,24.916"}},{"local_stop_id":334,"id":334,"geometry":"POINT(2632705.957261 1708453.838019)","attributes":{"description":"","title":"Mustariha","placename":"15.167,23.65","address":"15.167,23.65"}},{"local_stop_id":333,"id":333,"geometry":"POINT(2697159.94243 1719067.15511)","attributes":{"description":"","title":"Muzbat","placename":"15.259,24.229","address":"15.259,24.229"}},{"local_stop_id":332,"id":332,"geometry":"POINT(2772077.959734 1512678.915104)","attributes":{"description":"","title":"Nina","placename":"13.463,24.902","address":"13.463,24.902"}},{"local_stop_id":331,"id":331,"geometry":"POINT(2676120.55867 1511419.829764)","attributes":{"description":"","title":"Nomo","placename":"13.452,24.04","address":"13.452,24.04"}},{"local_stop_id":330,"id":330,"geometry":"POINT(2767847.819084 1661901.786214)","attributes":{"description":"","title":"Onyo","placename":"14.763,24.864","address":"14.763,24.864"}},{"local_stop_id":329,"id":329,"geometry":"POINT(2699163.693265 1696922.861273)","attributes":{"description":"","title":"Oriri","placename":"15.067,24.247","address":"15.067,24.247"}},{"local_stop_id":328,"id":328,"geometry":"POINT(2659522.822593 1671722.952604)","attributes":{"description":"","title":"Orschi (inclues Ana Bagi)","placename":"14.8482958,23.8909","address":"14.8482958,23.8909"}},{"local_stop_id":327,"id":327,"geometry":"POINT(2852745.628737 1502399.976915)","attributes":{"description":"","title":"Sag El Naam","placename":"13.3731833,25.62665","address":"13.3731833,25.62665"}},{"local_stop_id":326,"id":326,"geometry":"POINT(2646318.104595 1527067.512732)","attributes":{"description":"","title":"Sangir (Sangir, Jebel-Moos, Tege)","placename":"13.58867,23.77228","address":"13.58867,23.77228"}},{"local_stop_id":325,"id":325,"geometry":"POINT(2850224.242271 1643029.228521)","attributes":{"description":"","title":"Sani Haye","placename":"14.599,25.604","address":"14.599,25.604"}},{"local_stop_id":324,"id":324,"geometry":"POINT(2595079.969373 1514281.471059)","attributes":{"description":"","title":"Saraf Omra","placename":"13.477,23.312","address":"13.477,23.312"}},{"local_stop_id":323,"id":323,"geometry":"POINT(2788586.395316 1539027.81355)","attributes":{"description":"","title":"Sarfaya Area","placename":"13.6930806,25.0502978","address":"13.6930806,25.0502978"}},{"local_stop_id":322,"id":322,"geometry":"POINT(2866810.846399 1610150.875998)","attributes":{"description":"","title":"Sayeh","placename":"14.313,25.753","address":"14.313,25.753"}},{"local_stop_id":321,"id":321,"geometry":"POINT(2940170.390832 1744003.708332)","attributes":{"description":"","title":"Sereif","placename":"15.475,26.412","address":"15.475,26.412"}},{"local_stop_id":320,"id":320,"geometry":"POINT(2808939.550075 1534154.500052)","attributes":{"description":"","title":"Shagra Area","placename":"13.6505433,25.2331333","address":"13.6505433,25.2331333"}},{"local_stop_id":319,"id":319,"geometry":"POINT(2947851.435697 1352992.886532)","attributes":{"description":"","title":"Shak-Elkhadir","placename":"12.064,26.481","address":"12.064,26.481"}},{"local_stop_id":318,"id":318,"geometry":"POINT(2954196.646672 1689776.378432)","attributes":{"description":"","title":"Shakhakha","placename":"15.005,26.538","address":"15.005,26.538"}},{"local_stop_id":317,"id":317,"geometry":"POINT(2804026.653592 1466587.960939)","attributes":{"description":"","title":"Shangil Tobay Camp","placename":"13.06,25.189","address":"13.06,25.189"}},{"local_stop_id":316,"id":316,"geometry":"POINT(2672195.210786 1740981.740267)","attributes":{"description":"","title":"Shegeg Karo","placename":"15.4488357,24.004738","address":"15.4488357,24.004738"}},{"local_stop_id":315,"id":315,"geometry":"POINT(2791113.59266 1478932.404122)","attributes":{"description":"","title":"Sherifa","placename":"13.168,25.073","address":"13.168,25.073"}},{"local_stop_id":314,"id":314,"geometry":"POINT(2791057.932914 1478970.508849)","attributes":{"description":"","title":"Shewa Safaha","placename":"13.1683333,25.0725","address":"13.1683333,25.0725"}},{"local_stop_id":313,"id":313,"geometry":"POINT(2682688.408627 1529166.84349)","attributes":{"description":"","title":"Shoba Mansour","placename":"13.607,24.099","address":"13.607,24.099"}},{"local_stop_id":312,"id":312,"geometry":"POINT(2881059.741221 1630953.584727)","attributes":{"description":"","title":"Sindy","placename":"14.494,25.881","address":"14.494,25.881"}},{"local_stop_id":311,"id":311,"geometry":"POINT(2763868.147288 1542836.520527)","attributes":{"description":"","title":"Ta'alba","placename":"13.72632,24.82825","address":"13.72632,24.82825"}},{"local_stop_id":310,"id":310,"geometry":"POINT(2795326.000115 1482205.278272)","attributes":{"description":"","title":"Tangrara","placename":"13.196626,25.1108407","address":"13.196626,25.1108407"}},{"local_stop_id":309,"id":309,"geometry":"POINT(2773082.595875 1515071.977785)","attributes":{"description":"","title":"Tawila & Rwanda","placename":"13.4839056,24.9110248","address":"13.4839056,24.9110248"}},{"local_stop_id":308,"id":308,"geometry":"POINT(2666101.804499 1727607.326502)","attributes":{"description":"","title":"Ternawdo","placename":"15.333,23.95","address":"15.333,23.95"}},{"local_stop_id":307,"id":307,"geometry":"POINT(2855344.938847 1578347.057818)","attributes":{"description":"","title":"Tofto","placename":"14.036,25.65","address":"14.036,25.65"}},{"local_stop_id":306,"id":306,"geometry":"POINT(2681797.852701 1711914.193282)","attributes":{"description":"","title":"Turba","placename":"15.197,24.091","address":"15.197,24.091"}},{"local_stop_id":305,"id":305,"geometry":"POINT(2825656.75423 1576128.710009)","attributes":{"description":"","title":"Um Ajaja","placename":"14.0166664,25.3833065","address":"14.0166664,25.3833065"}},{"local_stop_id":304,"id":304,"geometry":"POINT(2638781.775068 1691584.703398)","attributes":{"description":"","title":"Um Barru","placename":"15.02069,23.70458","address":"15.02069,23.70458"}},{"local_stop_id":303,"id":303,"geometry":"POINT(2994315.100223 1681835.598081)","attributes":{"description":"","title":"Um Bayada","placename":"14.9360879,26.8983902","address":"14.9360879,26.8983902"}},{"local_stop_id":302,"id":302,"geometry":"POINT(2772368.75964 1516894.365087)","attributes":{"description":"","title":"Um Buranga","placename":"13.4998246,24.9046123","address":"13.4998246,24.9046123"}},{"local_stop_id":301,"id":301,"geometry":"POINT(2800033.690249 1457436.626778)","attributes":{"description":"","title":"Um Deressaya","placename":"12.9799056,25.1531306","address":"12.9799056,25.1531306"}},{"local_stop_id":300,"id":300,"geometry":"POINT(2836776.614012 1463521.914265)","attributes":{"description":"","title":"Um Dul","placename":"13.0331682,25.4831979","address":"13.0331682,25.4831979"}},{"local_stop_id":299,"id":299,"geometry":"POINT(2886445.378185 1525996.49284)","attributes":{"description":"","title":"Um Dum Area","placename":"13.579318,25.92938","address":"13.579318,25.92938"}},{"local_stop_id":298,"id":298,"geometry":"POINT(2771855.320753 1532183.074996)","attributes":{"description":"","title":"Um Gelbag","placename":"13.6333333,24.9","address":"13.6333333,24.9"}},{"local_stop_id":297,"id":297,"geometry":"POINT(2690703.411964 1682516.752635)","attributes":{"description":"","title":"Um Haraz","placename":"14.942,24.171","address":"14.942,24.171"}},{"local_stop_id":296,"id":296,"geometry":"POINT(2971245.293479 1528647.630543)","attributes":{"description":"","title":"Um Kadada","placename":"13.6024667,26.6911506","address":"13.6024667,26.6911506"}},{"local_stop_id":295,"id":295,"geometry":"POINT(2802134.222248 1481219.008213)","attributes":{"description":"","title":"Um Khair","placename":"13.188,25.172","address":"13.188,25.172"}},{"local_stop_id":294,"id":294,"geometry":"POINT(2791002.273169 1499633.010861)","attributes":{"description":"","title":"Um Laota","placename":"13.349,25.072","address":"13.349,25.072"}},{"local_stop_id":293,"id":293,"geometry":"POINT(2753710.243753 1573528.19284)","attributes":{"description":"","title":"Um layona","placename":"13.994,24.737","address":"13.994,24.737"}},{"local_stop_id":292,"id":292,"geometry":"POINT(2702837.236461 1658103.120573)","attributes":{"description":"","title":"Um Mahareik","placename":"14.73,24.28","address":"14.73,24.28"}},{"local_stop_id":291,"id":291,"geometry":"POINT(2702846.709749 1658049.068564)","attributes":{"description":"","title":"Um Marahik Area","placename":"14.7295304,24.2800851","address":"14.7295304,24.2800851"}},{"local_stop_id":290,"id":290,"geometry":"POINT(2771076.084317 1651428.070852)","attributes":{"description":"","title":"Um Rai","placename":"14.672,24.893","address":"14.672,24.893"}},{"local_stop_id":289,"id":289,"geometry":"POINT(2796289.948982 1503313.469713)","attributes":{"description":"","title":"Um Sayalla - Alein","placename":"13.3811667,25.1195","address":"13.3811667,25.1195"}},{"local_stop_id":288,"id":288,"geometry":"POINT(2706399.460166 1646020.276708)","attributes":{"description":"","title":"Um Shidiq","placename":"14.625,24.312","address":"14.625,24.312"}},{"local_stop_id":287,"id":287,"geometry":"POINT(2799907.832432 1623021.278636)","attributes":{"description":"","title":"Um Sidr","placename":"14.425,25.152","address":"14.425,25.152"}},{"local_stop_id":286,"id":286,"geometry":"POINT(2619681.576838 1723798.498982)","attributes":{"description":"","title":"Uru","placename":"15.3,23.533","address":"15.3,23.533"}},{"local_stop_id":285,"id":285,"geometry":"POINT(2866572.132883 1465043.377685)","attributes":{"description":"","title":"Wadi Kota","placename":"13.0464833,25.7508556","address":"13.0464833,25.7508556"}},{"local_stop_id":284,"id":284,"geometry":"POINT(2920912.118925 1666161.581909)","attributes":{"description":"","title":"Wadi Osher","placename":"14.8,26.239","address":"14.8,26.239"}},{"local_stop_id":283,"id":283,"geometry":"POINT(2825429.283982 1732565.462848)","attributes":{"description":"","title":"Wakahem","placename":"15.3759499,25.3812631","address":"15.3759499,25.3812631"}},{"local_stop_id":282,"id":282,"geometry":"POINT(2838535.695738 1561828.894008)","attributes":{"description":"","title":"Wama","placename":"13.892,25.499","address":"13.892,25.499"}},{"local_stop_id":281,"id":281,"geometry":"POINT(2817384.992487 1514739.361421)","attributes":{"description":"","title":"Zam Zam Camp","placename":"13.481,25.309","address":"13.481,25.309"}},{"local_stop_id":280,"id":280,"geometry":"POINT(2817384.992487 1514739.361421)","attributes":{"description":"","title":"Zam Zam Camp","placename":"13.481,25.309","address":"13.481,25.309"}},{"local_stop_id":279,"id":279,"geometry":"POINT(2702725.91697 1404261.545057)","attributes":{"description":"","title":"A\/Jabar A","placename":"12.514,24.279","address":"12.514,24.279"}},{"local_stop_id":278,"id":278,"geometry":"POINT(2746923.461754 1299880.186084)","attributes":{"description":"","title":"Abu ajoura","placename":"11.5970167,24.6760333","address":"11.5970167,24.6760333"}},{"local_stop_id":277,"id":277,"geometry":"POINT(2976683.183812 1238911.677171)","attributes":{"description":"","title":"Abu Jabra (Buram)","placename":"11.06,26.74","address":"11.06,26.74"}},{"local_stop_id":276,"id":276,"geometry":"POINT(2989373.605763 1239592.241183)","attributes":{"description":"","title":"Abu Jabra (Ed Daein)","placename":"11.066,26.854","address":"11.066,26.854"}},{"local_stop_id":275,"id":275,"geometry":"POINT(2953940.82335 1298719.904007)","attributes":{"description":"","title":"Abu karinka HC","placename":"11.5868063,26.5357019","address":"11.5868063,26.5357019"}},{"local_stop_id":274,"id":274,"geometry":"POINT(2916793.297765 1230519.197251)","attributes":{"description":"","title":"Abu Matariq IDPs","placename":"10.986,26.202","address":"10.986,26.202"}},{"local_stop_id":273,"id":273,"geometry":"POINT(2794675.816365 1365744.914284)","attributes":{"description":"","title":"Abu Odam","placename":"12.176,25.105","address":"12.176,25.105"}},{"local_stop_id":272,"id":272,"geometry":"POINT(2751421.1588 1253229.120235)","attributes":{"description":"","title":"Abu Sallala","placename":"11.1861997,24.7164368","address":"11.1861997,24.7164368"}},{"local_stop_id":271,"id":271,"geometry":"POINT(3015533.686099 1267053.362813)","attributes":{"description":"","title":"Adilla IDPs","placename":"11.308,27.089","address":"11.308,27.089"}},{"local_stop_id":270,"id":270,"geometry":"POINT(2878288.420234 1396198.942703)","attributes":{"description":"","title":"Ajara","placename":"12.4432834,25.8561048","address":"12.4432834,25.8561048"}},{"local_stop_id":269,"id":269,"geometry":"POINT(2703616.472896 1402551.167915)","attributes":{"description":"","title":"Al Battery","placename":"12.499,24.287","address":"12.499,24.287"}},{"local_stop_id":268,"id":268,"geometry":"POINT(2871374.945522 1242881.830551)","attributes":{"description":"","title":"Al Firdos","placename":"11.095,25.794","address":"11.095,25.794"}},{"local_stop_id":267,"id":267,"geometry":"POINT(3010969.586976 1260696.678979)","attributes":{"description":"","title":"Al Gora IDPs","placename":"11.252,27.048","address":"11.252,27.048"}},{"local_stop_id":266,"id":266,"geometry":"POINT(2768627.05552 1450137.089538)","attributes":{"description":"","title":"Al Malam","placename":"12.916,24.871","address":"12.916,24.871"}},{"local_stop_id":265,"id":265,"geometry":"POINT(2907108.502066 1285449.360492)","attributes":{"description":"","title":"Al Mashroot","placename":"11.47,26.115","address":"11.47,26.115"}},{"local_stop_id":264,"id":264,"geometry":"POINT(3002954.583639 1297832.84591)","attributes":{"description":"","title":"Al Mazroub HC","placename":"11.579,26.976","address":"11.579,26.976"}},{"local_stop_id":263,"id":263,"geometry":"POINT(2980690.685481 1293515.121826)","attributes":{"description":"","title":"Al Neem","placename":"11.541,26.776","address":"11.541,26.776"}},{"local_stop_id":262,"id":262,"geometry":"POINT(2848962.625086 1272094.823588)","attributes":{"description":"","title":"Al Rouse","placename":"11.3524056,25.5926667","address":"11.3524056,25.5926667"}},{"local_stop_id":261,"id":261,"geometry":"POINT(2735946.992607 1287164.584579)","attributes":{"description":"","title":"Al Safia","placename":"11.4851,24.57743","address":"11.4851,24.57743"}},{"local_stop_id":260,"id":260,"geometry":"POINT(2938723.237452 1317042.491934)","attributes":{"description":"","title":"Al Sahab","placename":"11.748,26.399","address":"11.748,26.399"}},{"local_stop_id":259,"id":259,"geometry":"POINT(2772968.51566 1357318.867697)","attributes":{"description":"","title":"Al Salam","placename":"12.102,24.91","address":"12.102,24.91"}},{"local_stop_id":258,"id":258,"geometry":"POINT(2754155.521716 1367680.958858)","attributes":{"description":"","title":"Amakasara","placename":"12.193,24.741","address":"12.193,24.741"}},{"local_stop_id":257,"id":257,"geometry":"POINT(2734785.930318 1355725.013695)","attributes":{"description":"","title":"Amar Jaded","placename":"12.088,24.567","address":"12.088,24.567"}},{"local_stop_id":256,"id":256,"geometry":"POINT(2661982.98334 1369161.547277)","attributes":{"description":"","title":"Ardeba","placename":"12.206,23.913","address":"12.206,23.913"}},{"local_stop_id":255,"id":255,"geometry":"POINT(2864027.859129 1275000.965623)","attributes":{"description":"","title":"Assalaya","placename":"11.378,25.728","address":"11.378,25.728"}},{"local_stop_id":254,"id":254,"geometry":"POINT(2716752.17281 1359823.664175)","attributes":{"description":"","title":"Azomri","placename":"12.124,24.405","address":"12.124,24.405"}},{"local_stop_id":253,"id":253,"geometry":"POINT(2957981.509359 1277272.067658)","attributes":{"description":"","title":"Bakhit","placename":"11.398,26.572","address":"11.398,26.572"}},{"local_stop_id":252,"id":252,"geometry":"POINT(2785992.896083 1345480.796385)","attributes":{"description":"","title":"Bileil","placename":"11.998,25.027","address":"11.998,25.027"}},{"local_stop_id":251,"id":251,"geometry":"POINT(2788553.244372 1330803.374034)","attributes":{"description":"","title":"Couka","placename":"11.869,25.05","address":"11.869,25.05"}},{"local_stop_id":250,"id":250,"geometry":"POINT(2647734.088518 1352423.724175)","attributes":{"description":"","title":"Dagadousa","placename":"12.059,23.785","address":"12.059,23.785"}},{"local_stop_id":249,"id":249,"geometry":"POINT(2739461.348932 1346618.873398)","attributes":{"description":"","title":"Dalal Angra","placename":"12.008,24.609","address":"12.008,24.609"}},{"local_stop_id":248,"id":248,"geometry":"POINT(2942062.822175 1280338.308985)","attributes":{"description":"","title":"Dar Alsalam","placename":"11.425,26.429","address":"11.425,26.429"}},{"local_stop_id":247,"id":247,"geometry":"POINT(2774526.988532 1354358.919508)","attributes":{"description":"","title":"Dereige","placename":"12.076,24.924","address":"12.076,24.924"}},{"local_stop_id":246,"id":246,"geometry":"POINT(2696861.539403 1410814.795263)","attributes":{"description":"","title":"Dibis","placename":"12.5714639,24.2263194","address":"12.5714639,24.2263194"}},{"local_stop_id":245,"id":245,"geometry":"POINT(2748984.731369 1311406.896029)","attributes":{"description":"","title":"Dimo","placename":"11.6984306,24.69455","address":"11.6984306,24.69455"}},{"local_stop_id":244,"id":244,"geometry":"POINT(2736229.748567 1226419.396485)","attributes":{"description":"","title":"Dimso","placename":"10.94984359,24.57997004","address":"10.94984359,24.57997004"}},{"local_stop_id":243,"id":243,"geometry":"POINT(2980468.046499 1292833.42942)","attributes":{"description":"","title":"Direga","placename":"11.535,26.774","address":"11.535,26.774"}},{"local_stop_id":242,"id":242,"geometry":"POINT(2811039.781512 1281587.602093)","attributes":{"description":"","title":"Dito","placename":"11.436,25.252","address":"11.436,25.252"}},{"local_stop_id":241,"id":241,"geometry":"POINT(2742149.848218 1290773.398034)","attributes":{"description":"","title":"Domaya","placename":"11.5168676,24.6331512","address":"11.5168676,24.6331512"}},{"local_stop_id":240,"id":240,"geometry":"POINT(2790487.231281 1291376.66749)","attributes":{"description":"","title":"Donkey Dressa","placename":"11.5221777,25.0673733","address":"11.5221777,25.0673733"}},{"local_stop_id":239,"id":239,"geometry":"POINT(2786215.535065 1340359.971657)","attributes":{"description":"","title":"Draib El Raih","placename":"11.953,25.029","address":"11.953,25.029"}},{"local_stop_id":238,"id":238,"geometry":"POINT(2685360.076406 1426163.195135)","attributes":{"description":"","title":"Dugu camp","placename":"12.706,24.123","address":"12.706,24.123"}},{"local_stop_id":237,"id":237,"geometry":"POINT(2767959.138575 1404945.723735)","attributes":{"description":"","title":"Duma Adwa","placename":"12.52,24.865","address":"12.52,24.865"}},{"local_stop_id":236,"id":236,"geometry":"POINT(2839203.612682 1402209.104401)","attributes":{"description":"","title":"Duma Duma","placename":"12.496,25.505","address":"12.496,25.505"}},{"local_stop_id":235,"id":235,"geometry":"POINT(2802468.180721 1329324.640425)","attributes":{"description":"","title":"Dwana","placename":"11.856,25.175","address":"11.856,25.175"}},{"local_stop_id":234,"id":234,"geometry":"POINT(2911004.684244 1280906.163477)","attributes":{"description":"","title":"Ed Daein Town","placename":"11.43,26.15","address":"11.43,26.15"}},{"local_stop_id":233,"id":233,"geometry":"POINT(2895762.50787 1328471.522802)","attributes":{"description":"","title":"El Ardieb","placename":"11.8484997,26.0130772","address":"11.8484997,26.0130772"}},{"local_stop_id":232,"id":232,"geometry":"POINT(2951413.659402 1320226.288523)","attributes":{"description":"","title":"El Fwileh","placename":"11.776,26.513","address":"11.776,26.513"}},{"local_stop_id":231,"id":231,"geometry":"POINT(2702948.555951 1403577.382281)","attributes":{"description":"","title":"El Thanawia Banat","placename":"12.508,24.281","address":"12.508,24.281"}},{"local_stop_id":230,"id":230,"geometry":"POINT(2719813.458807 1194752.107112)","attributes":{"description":"","title":"El Tomat","placename":"10.67042,24.4325","address":"10.67042,24.4325"}},{"local_stop_id":229,"id":229,"geometry":"POINT(2745806.559907 1346960.304739)","attributes":{"description":"","title":"Elban Jadied","placename":"12.011,24.666","address":"12.011,24.666"}},{"local_stop_id":228,"id":228,"geometry":"POINT(2708403.211 1409621.370951)","attributes":{"description":"","title":"Erly","placename":"12.561,24.33","address":"12.561,24.33"}},{"local_stop_id":227,"id":227,"geometry":"POINT(2788775.883353 1371325.61494)","attributes":{"description":"","title":"Fasha","placename":"12.225,25.052","address":"12.225,25.052"}},{"local_stop_id":226,"id":226,"geometry":"POINT(2786215.535065 1340359.971657)","attributes":{"description":"","title":"Gadi","placename":"11.953,25.029","address":"11.953,25.029"}},{"local_stop_id":225,"id":225,"geometry":"POINT(2799409.399412 1263072.458079)","attributes":{"description":"","title":"Gereida","placename":"11.272931,25.1475225","address":"11.272931,25.1475225"}},{"local_stop_id":224,"id":224,"geometry":"POINT(2798571.998543 1263307.309901)","attributes":{"description":"","title":"Gereida Camp","placename":"11.275,25.14","address":"11.275,25.14"}},{"local_stop_id":223,"id":223,"geometry":"POINT(2784211.784231 1409393.273323)","attributes":{"description":"","title":"Goruf","placename":"12.559,25.011","address":"12.559,25.011"}},{"local_stop_id":222,"id":222,"geometry":"POINT(2766734.624176 1373717.660114)","attributes":{"description":"","title":"Halouf","placename":"12.246,24.854","address":"12.246,24.854"}},{"local_stop_id":221,"id":221,"geometry":"POINT(2709553.308319 1422352.42675)","attributes":{"description":"","title":"Hashaba","placename":"12.6726034,24.3403315","address":"12.6726034,24.3403315"}},{"local_stop_id":220,"id":220,"geometry":"POINT(2790445.675715 1196177.176851)","attributes":{"description":"","title":"Heriga","placename":"10.683,25.067","address":"10.683,25.067"}},{"local_stop_id":219,"id":219,"geometry":"POINT(2514373.338548 1585117.908152)","attributes":{"description":"","title":"Higliega","placename":"14.095,22.587","address":"14.095,22.587"}},{"local_stop_id":218,"id":218,"geometry":"POINT(2801800.263776 1322045.746446)","attributes":{"description":"","title":"Hijaar","placename":"11.792,25.169","address":"11.792,25.169"}},{"local_stop_id":217,"id":217,"geometry":"POINT(2968000.26353 1280338.308985)","attributes":{"description":"","title":"Hilal","placename":"11.425,26.662","address":"11.425,26.662"}},{"local_stop_id":216,"id":216,"geometry":"POINT(2901987.80549 1301128.345789)","attributes":{"description":"","title":"Hilat Ali","placename":"11.608,26.069","address":"11.608,26.069"}},{"local_stop_id":215,"id":215,"geometry":"POINT(2715082.380448 1347301.739884)","attributes":{"description":"","title":"Hilat Hosa","placename":"12.014,24.39","address":"12.014,24.39"}},{"local_stop_id":214,"id":214,"geometry":"POINT(2690814.731455 1380097.378556)","attributes":{"description":"","title":"Humira School","placename":"12.302,24.172","address":"12.302,24.172"}},{"local_stop_id":213,"id":213,"geometry":"POINT(2974122.835524 1309652.78154)","attributes":{"description":"","title":"Jad Elseid IDPs","placename":"11.683,26.717","address":"11.683,26.717"}},{"local_stop_id":212,"id":212,"geometry":"POINT(2974122.835524 1309652.78154)","attributes":{"description":"","title":"Jad Elseid(Alnair)","placename":"11.683,26.717","address":"11.683,26.717"}},{"local_stop_id":211,"id":211,"geometry":"POINT(2756131.739901 1242861.166374)","attributes":{"description":"","title":"Jidad","placename":"11.09481784,24.75875267","address":"11.09481784,24.75875267"}},{"local_stop_id":210,"id":210,"geometry":"POINT(2815047.28318 1244696.916125)","attributes":{"description":"","title":"Joghana","placename":"11.111,25.288","address":"11.111,25.288"}},{"local_stop_id":209,"id":209,"geometry":"POINT(2784657.062194 1346277.44586)","attributes":{"description":"","title":"Kalma","placename":"12.005,25.015","address":"12.005,25.015"}},{"local_stop_id":208,"id":208,"geometry":"POINT(2820056.660266 1417035.511352)","attributes":{"description":"","title":"Karumji","placename":"12.626,25.333","address":"12.626,25.333"}},{"local_stop_id":207,"id":207,"geometry":"POINT(2703954.884148 1402910.338877)","attributes":{"description":"","title":"Kass Town (New Arrivals from WD)","placename":"12.50215,24.29004","address":"12.50215,24.29004"}},{"local_stop_id":206,"id":206,"geometry":"POINT(2703393.833915 1403235.306853)","attributes":{"description":"","title":"Kass Town (New Arrivals)","placename":"12.505,24.285","address":"12.505,24.285"}},{"local_stop_id":205,"id":205,"geometry":"POINT(2793896.57993 1403919.461682)","attributes":{"description":"","title":"Keri Kier","placename":"12.511,25.098","address":"12.511,25.098"}},{"local_stop_id":204,"id":204,"geometry":"POINT(2813043.532346 1419431.251251)","attributes":{"description":"","title":"Khor Abechi","placename":"12.647,25.27","address":"12.647,25.27"}},{"local_stop_id":203,"id":203,"geometry":"POINT(2912785.796097 1276590.720279)","attributes":{"description":"","title":"Khor Omer","placename":"11.392,26.166","address":"11.392,26.166"}},{"local_stop_id":202,"id":202,"geometry":"POINT(2701078.388506 1408070.342051)","attributes":{"description":"","title":"Kideka","placename":"12.5474,24.2642","address":"12.5474,24.2642"}},{"local_stop_id":201,"id":201,"geometry":"POINT(2763506.358943 1428445.564375)","attributes":{"description":"","title":"Koroly","placename":"12.726,24.825","address":"12.726,24.825"}},{"local_stop_id":200,"id":200,"geometry":"POINT(2649737.839352 1317838.410716)","attributes":{"description":"","title":"Kubum","placename":"11.755,23.803","address":"11.755,23.803"}},{"local_stop_id":199,"id":199,"geometry":"POINT(2829296.178002 1296696.545926)","attributes":{"description":"","title":"Labado","placename":"11.569,25.416","address":"11.569,25.416"}},{"local_stop_id":198,"id":198,"geometry":"POINT(2708757.129057 1415989.855386)","attributes":{"description":"","title":"Limo","placename":"12.6168337,24.3331793","address":"12.6168337,24.3331793"}},{"local_stop_id":197,"id":197,"geometry":"POINT(2785658.937611 1324547.674321)","attributes":{"description":"","title":"Magarine","placename":"11.814,25.024","address":"11.814,25.024"}},{"local_stop_id":196,"id":196,"geometry":"POINT(2813934.088272 1328755.915488)","attributes":{"description":"","title":"Marla South","placename":"11.851,25.278","address":"11.851,25.278"}},{"local_stop_id":195,"id":195,"geometry":"POINT(2780426.921544 1422283.5795)","attributes":{"description":"","title":"Menawashi","placename":"12.672,24.977","address":"12.672,24.977"}},{"local_stop_id":194,"id":194,"geometry":"POINT(2798683.318034 1390923.22908)","attributes":{"description":"","title":"Merier","placename":"12.397,25.141","address":"12.397,25.141"}},{"local_stop_id":193,"id":193,"geometry":"POINT(2772189.279225 1428217.319359)","attributes":{"description":"","title":"Mershing","placename":"12.724,24.903","address":"12.724,24.903"}},{"local_stop_id":192,"id":192,"geometry":"POINT(2709627.725399 1354131.243096)","attributes":{"description":"","title":"Moaro","placename":"12.074,24.341","address":"12.074,24.341"}},{"local_stop_id":191,"id":191,"geometry":"POINT(2769740.250427 1346163.637525)","attributes":{"description":"","title":"Mosey","placename":"12.004,24.881","address":"12.004,24.881"}},{"local_stop_id":190,"id":190,"geometry":"POINT(2851560.07616 1342749.583707)","attributes":{"description":"","title":"Muhajeria","placename":"11.974,25.616","address":"11.974,25.616"}},{"local_stop_id":189,"id":189,"geometry":"POINT(2728261.739866 1349215.565706)","attributes":{"description":"","title":"Narri","placename":"12.0308151,24.5083922","address":"12.0308151,24.5083922"}},{"local_stop_id":188,"id":188,"geometry":"POINT(2828404.698124 1447506.906199)","attributes":{"description":"","title":"Negaia","placename":"12.8929694,25.4079917","address":"12.8929694,25.4079917"}},{"local_stop_id":187,"id":187,"geometry":"POINT(2728885.997306 1407340.474456)","attributes":{"description":"","title":"Neima","placename":"12.541,24.514","address":"12.541,24.514"}},{"local_stop_id":186,"id":186,"geometry":"POINT(2722954.894837 1208883.078325)","attributes":{"description":"","title":"Nekhara","placename":"10.79514,24.46072","address":"10.79514,24.46072"}},{"local_stop_id":185,"id":185,"geometry":"POINT(2841430.002498 1414868.106647)","attributes":{"description":"","title":"Netiga","placename":"12.607,25.525","address":"12.607,25.525"}},{"local_stop_id":184,"id":184,"geometry":"POINT(2691371.328909 1379413.772365)","attributes":{"description":"","title":"Nyamma","placename":"12.296,24.177","address":"12.296,24.177"}},{"local_stop_id":183,"id":183,"geometry":"POINT(2691371.328909 1379413.772365)","attributes":{"description":"","title":"Otash","placename":"12.296,24.177","address":"12.296,24.177"}},{"local_stop_id":182,"id":182,"geometry":"POINT(2817496.311978 1292833.42942)","attributes":{"description":"","title":"Rajella","placename":"11.535,25.31","address":"11.535,25.31"}},{"local_stop_id":181,"id":181,"geometry":"POINT(2750228.600888 1223305.271746)","attributes":{"description":"","title":"Rajraj","placename":"10.92237697,24.70572387","address":"10.92237697,24.70572387"}},{"local_stop_id":180,"id":180,"geometry":"POINT(2766289.346213 1343773.760001)","attributes":{"description":"","title":"Sakeley","placename":"11.983,24.85","address":"11.983,24.85"}},{"local_stop_id":179,"id":179,"geometry":"POINT(2829296.178002 1315337.019766)","attributes":{"description":"","title":"Sania Afandu","placename":"11.733,25.416","address":"11.733,25.416"}},{"local_stop_id":178,"id":178,"geometry":"POINT(2765612.30107 1316111.861119)","attributes":{"description":"","title":"Sania Deliba","placename":"11.739815,24.843918","address":"11.739815,24.843918"}},{"local_stop_id":177,"id":177,"geometry":"POINT(2691371.328909 1379413.772365)","attributes":{"description":"","title":"Savana A","placename":"12.296,24.177","address":"12.296,24.177"}},{"local_stop_id":176,"id":176,"geometry":"POINT(2691371.328909 1379413.772365)","attributes":{"description":"","title":"Savana B","placename":"12.296,24.177","address":"12.296,24.177"}},{"local_stop_id":175,"id":175,"geometry":"POINT(2762949.761489 1346277.44586)","attributes":{"description":"","title":"Serif Camp","placename":"12.005,24.82","address":"12.005,24.82"}},{"local_stop_id":174,"id":174,"geometry":"POINT(2768414.691327 1364643.80438)","attributes":{"description":"","title":"Shadida","placename":"12.1663309,24.8690923","address":"12.1663309,24.8690923"}},{"local_stop_id":173,"id":173,"geometry":"POINT(2850558.200743 1398104.651552)","attributes":{"description":"","title":"Shaeria Town","placename":"12.46,25.607","address":"12.46,25.607"}},{"local_stop_id":172,"id":172,"geometry":"POINT(3014887.409663 1291091.396564)","attributes":{"description":"","title":"Shag Tayeeb","placename":"11.5196667,27.0831944","address":"11.5196667,27.0831944"}},{"local_stop_id":171,"id":171,"geometry":"POINT(3026665.635178 1261945.215555)","attributes":{"description":"","title":"Sharif IDPs","placename":"11.263,27.189","address":"11.263,27.189"}},{"local_stop_id":170,"id":170,"geometry":"POINT(2860799.593896 1308288.717157)","attributes":{"description":"","title":"Silia","placename":"11.671,25.699","address":"11.671,25.699"}},{"local_stop_id":169,"id":169,"geometry":"POINT(2996275.414192 1310448.513041)","attributes":{"description":"","title":"Taalba","placename":"11.69,26.916","address":"11.69,26.916"}},{"local_stop_id":168,"id":168,"geometry":"POINT(2786816.036926 1325250.59298)","attributes":{"description":"","title":"Tabeldiat","placename":"11.8201806,25.0343944","address":"11.8201806,25.0343944"}},{"local_stop_id":167,"id":167,"geometry":"POINT(2808479.433223 1375768.135999)","attributes":{"description":"","title":"Taisha","placename":"12.264,25.229","address":"12.264,25.229"}},{"local_stop_id":166,"id":166,"geometry":"POINT(2694377.033084 1419713.813234)","attributes":{"description":"","title":"Taringa","placename":"12.6494767,24.2040007","address":"12.6494767,24.2040007"}},{"local_stop_id":165,"id":165,"geometry":"POINT(2705612.79872 1397800.636896)","attributes":{"description":"","title":"Tartur","placename":"12.4573333,24.3049333","address":"12.4573333,24.3049333"}},{"local_stop_id":164,"id":164,"geometry":"POINT(2683467.645063 1443057.001337)","attributes":{"description":"","title":"Thur East & West","placename":"12.854,24.106","address":"12.854,24.106"}},{"local_stop_id":163,"id":163,"geometry":"POINT(2742800.933655 1328073.45931)","attributes":{"description":"","title":"Timbisco","placename":"11.845,24.639","address":"11.845,24.639"}},{"local_stop_id":162,"id":162,"geometry":"POINT(2729219.955779 1256724.379621)","attributes":{"description":"","title":"Tiwal","placename":"11.217,24.517","address":"11.217,24.517"}},{"local_stop_id":161,"id":161,"geometry":"POINT(2804471.931555 1381806.46235)","attributes":{"description":"","title":"Um Alkhirat","placename":"12.317,25.193","address":"12.317,25.193"}},{"local_stop_id":160,"id":160,"geometry":"POINT(2888184.188631 1313859.0189)","attributes":{"description":"","title":"Um Boim","placename":"11.72,25.945","address":"11.72,25.945"}},{"local_stop_id":159,"id":159,"geometry":"POINT(2943509.975556 1274660.314084)","attributes":{"description":"","title":"Um Gogaya","placename":"11.375,26.442","address":"11.375,26.442"}},{"local_stop_id":158,"id":158,"geometry":"POINT(2801354.985813 1345708.408409)","attributes":{"description":"","title":"Um Kurdos","placename":"12,25.165","address":"12,25.165"}},{"local_stop_id":157,"id":157,"geometry":"POINT(2669775.347695 1349464.25086)","attributes":{"description":"","title":"Um Labasa","placename":"12.033,23.983","address":"12.033,23.983"}},{"local_stop_id":156,"id":156,"geometry":"POINT(2869347.639483 1405525.828494)","attributes":{"description":"","title":"Um Lawaya","placename":"12.5250872,25.7757884","address":"12.5250872,25.7757884"}},{"local_stop_id":155,"id":155,"geometry":"POINT(2788330.60539 1321136.004235)","attributes":{"description":"","title":"Um-Kunya","placename":"11.784,25.048","address":"11.784,25.048"}},{"local_stop_id":154,"id":154,"geometry":"POINT(2965355.791103 1267598.040745)","attributes":{"description":"","title":"Umrakuba","placename":"11.3127979,26.6382443","address":"11.3127979,26.6382443"}},{"local_stop_id":153,"id":153,"geometry":"POINT(2861133.552369 1419773.515885)","attributes":{"description":"","title":"Umridim","placename":"12.65,25.702","address":"12.65,25.702"}},{"local_stop_id":152,"id":152,"geometry":"POINT(2766289.346213 1343773.760001)","attributes":{"description":"","title":"Umsauna","placename":"11.983,24.85","address":"11.983,24.85"}},{"local_stop_id":151,"id":151,"geometry":"POINT(2839203.612682 1402209.104401)","attributes":{"description":"","title":"Wad al mairam","placename":"12.496,25.505","address":"12.496,25.505"}},{"local_stop_id":150,"id":150,"geometry":"POINT(3016947.443632 1301999.630912)","attributes":{"description":"","title":"Wad Joda","placename":"11.6156667,27.1017","address":"11.6156667,27.1017"}},{"local_stop_id":149,"id":149,"geometry":"POINT(2864343.884032 1287925.037541)","attributes":{"description":"","title":"Wazazeen","placename":"11.4917944,25.7308389","address":"11.4917944,25.7308389"}},{"local_stop_id":148,"id":148,"geometry":"POINT(2704284.389841 1403235.306853)","attributes":{"description":"","title":"Yahia Hajar","placename":"12.505,24.293","address":"12.505,24.293"}},{"local_stop_id":147,"id":147,"geometry":"POINT(2784211.784231 1409393.273323)","attributes":{"description":"","title":"Yara","placename":"12.559,25.011","address":"12.559,25.011"}},{"local_stop_id":146,"id":146,"geometry":"POINT(2837533.820321 1296810.174097)","attributes":{"description":"","title":"Yassin","placename":"11.57,25.49","address":"11.57,25.49"}},{"local_stop_id":145,"id":145,"geometry":"POINT(2772189.279225 1428217.319359)","attributes":{"description":"","title":"Zalata","placename":"12.724,24.903","address":"12.724,24.903"}},{"local_stop_id":144,"id":144,"geometry":"POINT(3225591.450156 1343573.018757)","attributes":{"description":"","title":"Abo Jonok","placename":"11.981236,28.975981","address":"11.981236,28.975981"}},{"local_stop_id":143,"id":143,"geometry":"POINT(3477174.612543 1283674.71127)","attributes":{"description":"","title":"Abu Jebeeha","placename":"11.454376,31.235991","address":"11.454376,31.235991"}},{"local_stop_id":142,"id":142,"geometry":"POINT(3274648.391275 1233996.943559)","attributes":{"description":"","title":"Abu Sinun","placename":"11.016667,29.416667","address":"11.016667,29.416667"}},{"local_stop_id":141,"id":141,"geometry":"POINT(3397099.831148 1264253.204374)","attributes":{"description":"","title":"Angerri","placename":"11.283333,30.516667","address":"11.283333,30.516667"}},{"local_stop_id":140,"id":140,"geometry":"POINT(3455728.022086 1373793.639141)","attributes":{"description":"","title":"Banat El Moreib","placename":"12.246667,31.043333","address":"12.246667,31.043333"}},{"local_stop_id":139,"id":139,"geometry":"POINT(3436061.652926 1213211.57496)","attributes":{"description":"","title":"El Azraq","placename":"10.833333,30.866667","address":"10.833333,30.866667"}},{"local_stop_id":138,"id":138,"geometry":"POINT(3514044.073172 1179109.65375)","attributes":{"description":"","title":"Fungor","placename":"10.5323,31.567195","address":"10.5323,31.567195"}},{"local_stop_id":137,"id":137,"geometry":"POINT(3398005.192567 1256019.630529)","attributes":{"description":"","title":"Heiban","placename":"11.21079,30.5248","address":"11.21079,30.5248"}},{"local_stop_id":136,"id":136,"geometry":"POINT(3282986.332455 1308075.701098)","attributes":{"description":"","title":"Julud","placename":"11.669126,29.491568","address":"11.669126,29.491568"}},{"local_stop_id":135,"id":135,"geometry":"POINT(3373162.244445 1366296.218818)","attributes":{"description":"","title":"Kafeir","placename":"12.180841,30.301632","address":"12.180841,30.301632"}},{"local_stop_id":134,"id":134,"geometry":"POINT(3448130.800798 1324424.733992)","attributes":{"description":"","title":"Kaloba","placename":"11.812919,30.975086","address":"11.812919,30.975086"}},{"local_stop_id":133,"id":133,"geometry":"POINT(3303309.597931 1209839.781308)","attributes":{"description":"","title":"Katcha","placename":"10.803582,29.674135","address":"10.803582,29.674135"}},{"local_stop_id":132,"id":132,"geometry":"POINT(3506373.047061 1188438.329167)","attributes":{"description":"","title":"Kau","placename":"10.614678,31.498285","address":"10.614678,31.498285"}},{"local_stop_id":131,"id":131,"geometry":"POINT(3396462.304424 1241634.016885)","attributes":{"description":"","title":"Kauda","placename":"11.084,30.51094","address":"11.084,30.51094"}},{"local_stop_id":130,"id":130,"geometry":"POINT(3255766.267927 1307285.258137)","attributes":{"description":"","title":"Kayo","placename":"11.662172,29.247046","address":"11.662172,29.247046"}},{"local_stop_id":129,"id":129,"geometry":"POINT(3306144.348764 1285199.467952)","attributes":{"description":"","title":"Kega","placename":"11.4678,29.6996","address":"11.4678,29.6996"}},{"local_stop_id":128,"id":128,"geometry":"POINT(3475920.153202 1342642.160971)","attributes":{"description":"","title":"Khor Fidaila","placename":"11.973056,31.224722","address":"11.973056,31.224722"}},{"local_stop_id":127,"id":127,"geometry":"POINT(3295056.927481 1219162.416969)","attributes":{"description":"","title":"Korongo Abdalla","placename":"10.885833,29.6","address":"10.885833,29.6"}},{"local_stop_id":126,"id":126,"geometry":"POINT(3268651.944265 1347017.210333)","attributes":{"description":"","title":"Kujuria","placename":"12.0115,29.3628","address":"12.0115,29.3628"}},{"local_stop_id":125,"id":125,"geometry":"POINT(3272830.877949 1226359.576393)","attributes":{"description":"","title":"Lima","placename":"10.949316,29.40034","address":"10.949316,29.40034"}},{"local_stop_id":124,"id":124,"geometry":"POINT(3534393.832686 1336226.039126)","attributes":{"description":"","title":"Managir","placename":"11.916667,31.75","address":"11.916667,31.75"}},{"local_stop_id":123,"id":123,"geometry":"POINT(3507627.840362 1191049.693361)","attributes":{"description":"","title":"Niaro","placename":"10.637734,31.509557","address":"10.637734,31.509557"}},{"local_stop_id":122,"id":122,"geometry":"POINT(3365058.296835 1212663.243287)","attributes":{"description":"","title":"Saraf El Gamos","placename":"10.828495,30.228833","address":"10.828495,30.228833"}},{"local_stop_id":121,"id":121,"geometry":"POINT(3361848.621957 1188663.599131)","attributes":{"description":"","title":"Taboli","placename":"10.616667,30.2","address":"10.616667,30.2"}},{"local_stop_id":120,"id":120,"geometry":"POINT(3448801.38941 1216297.607722)","attributes":{"description":"","title":"Talodi","placename":"10.86056,30.98111","address":"10.86056,30.98111"}},{"local_stop_id":119,"id":119,"geometry":"POINT(3267227.054783 1313480.093424)","attributes":{"description":"","title":"Tebeik","placename":"11.716667,29.35","address":"11.716667,29.35"}},{"local_stop_id":118,"id":118,"geometry":"POINT(3500997.985448 1207545.07648)","attributes":{"description":"","title":"Tereida","placename":"10.783333,31.45","address":"10.783333,31.45"}},{"local_stop_id":117,"id":117,"geometry":"POINT(3255440.547097 1308104.572987)","attributes":{"description":"","title":"Timma","placename":"11.66938,29.24412","address":"11.66938,29.24412"}},{"local_stop_id":116,"id":116,"geometry":"POINT(3460180.801718 1345708.408409)","attributes":{"description":"","title":"Tongi","placename":"12,31.083333","address":"12,31.083333"}},{"local_stop_id":115,"id":115,"geometry":"POINT(3460180.801718 1319165.024895)","attributes":{"description":"","title":"Tosomi","placename":"11.766667,31.083333","address":"11.766667,31.083333"}},{"local_stop_id":114,"id":114,"geometry":"POINT(3343236.003096 1216392.821636)","attributes":{"description":"","title":"Umm Dorain","placename":"10.8614,30.0328","address":"10.8614,30.0328"}},{"local_stop_id":113,"id":113,"geometry":"POINT(3419328.441028 1236992.561661)","attributes":{"description":"","title":"Umm Dordo","placename":"11.04308,30.71635","address":"11.04308,30.71635"}},{"local_stop_id":112,"id":112,"geometry":"POINT(3347634.236177 1287257.731826)","attributes":{"description":"","title":"Umm Heitan","placename":"11.48592,30.07231","address":"11.48592,30.07231"}},{"local_stop_id":111,"id":111,"geometry":"POINT(3340942.821586 1233206.829332)","attributes":{"description":"","title":"Umm Serdiba","placename":"11.0097,30.0122","address":"11.0097,30.0122"}},{"local_stop_id":110,"id":110,"geometry":"POINT(3267455.371058 1327982.693768)","attributes":{"description":"","title":"Wali","placename":"11.844202,29.352051","address":"11.844202,29.352051"}},{"local_stop_id":109,"id":109,"geometry":"POINT(3470582.272298 1165126.628759)","attributes":{"description":"","title":"Warni","placename":"10.40878,31.176771","address":"10.40878,31.176771"}},{"local_stop_id":108,"id":108,"geometry":"POINT(2503797.986922 1425592.630903)","attributes":{"description":"","title":"Abu Dahiyia","placename":"12.701,22.492","address":"12.701,22.492"}},{"local_stop_id":107,"id":107,"geometry":"POINT(2493333.954788 1557930.274245)","attributes":{"description":"","title":"Abu Sourouge","placename":"13.858,22.398","address":"13.858,22.398"}},{"local_stop_id":106,"id":106,"geometry":"POINT(2497341.456456 1508901.832485)","attributes":{"description":"","title":"Abu Zar","placename":"13.43,22.434","address":"13.43,22.434"}},{"local_stop_id":105,"id":105,"geometry":"POINT(2515820.491928 1526418.161798)","attributes":{"description":"","title":"Agoura","placename":"13.583,22.6","address":"13.583,22.6"}},{"local_stop_id":104,"id":104,"geometry":"POINT(2614115.602298 1450251.298883)","attributes":{"description":"","title":"Al Hamedia","placename":"12.917,23.483","address":"12.917,23.483"}},{"local_stop_id":103,"id":103,"geometry":"POINT(2549995.575602 1220995.14721)","attributes":{"description":"","title":"Al Karanik","placename":"10.902,22.907","address":"10.902,22.907"}},{"local_stop_id":102,"id":102,"geometry":"POINT(3003733.820075 1315450.715024)","attributes":{"description":"","title":"Al Shabab","placename":"11.734,26.983","address":"11.734,26.983"}},{"local_stop_id":101,"id":101,"geometry":"POINT(2467841.791396 1428331.441642)","attributes":{"description":"","title":"Arara","placename":"12.725,22.169","address":"12.725,22.169"}},{"local_stop_id":100,"id":100,"geometry":"POINT(2504577.223358 1517257.895463)","attributes":{"description":"","title":"Arbokni","placename":"13.503,22.499","address":"13.503,22.499"}},{"local_stop_id":99,"id":99,"geometry":"POINT(2504131.945395 1513365.713314)","attributes":{"description":"","title":"Ardamata","placename":"13.469,22.495","address":"13.469,22.495"}},{"local_stop_id":98,"id":98,"geometry":"POINT(2467608.710646 1547481.81476)","attributes":{"description":"","title":"Armankul LRs","placename":"13.7668541,22.1669062","address":"13.7668541,22.1669062"}},{"local_stop_id":97,"id":97,"geometry":"POINT(2522499.661376 1589135.341172)","attributes":{"description":"","title":"Aro sharow","placename":"14.13,22.66","address":"14.13,22.66"}},{"local_stop_id":96,"id":96,"geometry":"POINT(2501014.999652 1612448.689922)","attributes":{"description":"","title":"Arwa","placename":"14.333,22.467","address":"14.333,22.467"}},{"local_stop_id":95,"id":95,"geometry":"POINT(2523501.536793 1518288.271755)","attributes":{"description":"","title":"Azirnie","placename":"13.512,22.669","address":"13.512,22.669"}},{"local_stop_id":94,"id":94,"geometry":"POINT(2480110.434928 1530022.049541)","attributes":{"description":"","title":"Bangadeed","placename":"13.6144667,22.2792111","address":"13.6144667,22.2792111"}},{"local_stop_id":93,"id":93,"geometry":"POINT(2515263.894474 1617964.280143)","attributes":{"description":"","title":"Batro","placename":"14.381,22.595","address":"14.381,22.595"}},{"local_stop_id":92,"id":92,"geometry":"POINT(2436227.056011 1426847.887032)","attributes":{"description":"","title":"Beida","placename":"12.712,21.885","address":"12.712,21.885"}},{"local_stop_id":91,"id":91,"geometry":"POINT(2573038.710196 1338994.562324)","attributes":{"description":"","title":"Bindisi","placename":"11.941,23.114","address":"11.941,23.114"}},{"local_stop_id":90,"id":90,"geometry":"POINT(2501014.999652 1541768.542255)","attributes":{"description":"","title":"Bir Dagig","placename":"13.717,22.467","address":"13.717,22.467"}},{"local_stop_id":89,"id":89,"geometry":"POINT(2530180.70624 1548873.91746)","attributes":{"description":"","title":"Buri Banat","placename":"13.779,22.729","address":"13.779,22.729"}},{"local_stop_id":88,"id":88,"geometry":"POINT(2531293.901148 1548530.065641)","attributes":{"description":"","title":"Buri Nomads","placename":"13.776,22.739","address":"13.776,22.739"}},{"local_stop_id":87,"id":87,"geometry":"POINT(2586842.327054 1386364.497124)","attributes":{"description":"","title":"Deleij","placename":"12.357,23.238","address":"12.357,23.238"}},{"local_stop_id":86,"id":86,"geometry":"POINT(2513148.824149 1520005.652019)","attributes":{"description":"","title":"Deliaba","placename":"13.527,22.576","address":"13.527,22.576"}},{"local_stop_id":85,"id":85,"geometry":"POINT(2503130.069978 1516342.038054)","attributes":{"description":"","title":"Dorti","placename":"13.495,22.486","address":"13.495,22.486"}},{"local_stop_id":84,"id":84,"geometry":"POINT(2503130.069978 1516342.038054)","attributes":{"description":"","title":"Dorti Falata","placename":"13.495,22.486","address":"13.495,22.486"}},{"local_stop_id":83,"id":83,"geometry":"POINT(2503130.069978 1516342.038054)","attributes":{"description":"","title":"Dorti Marareet","placename":"13.495,22.486","address":"13.495,22.486"}},{"local_stop_id":82,"id":82,"geometry":"POINT(2507137.571646 1605211.268594)","attributes":{"description":"","title":"Douhoush","placename":"14.27,22.522","address":"14.27,22.522"}},{"local_stop_id":81,"id":81,"geometry":"POINT(2496562.220021 1509245.182147)","attributes":{"description":"","title":"El Hujaj","placename":"13.433,22.427","address":"13.433,22.427"}},{"local_stop_id":80,"id":80,"geometry":"POINT(2497675.414929 1512793.380277)","attributes":{"description":"","title":"El Riad","placename":"13.464,22.437","address":"13.464,22.437"}},{"local_stop_id":79,"id":79,"geometry":"POINT(2514707.29702 1359937.523466)","attributes":{"description":"","title":"Fur Buranga (NA)","placename":"12.125,22.59","address":"12.125,22.59"}},{"local_stop_id":78,"id":78,"geometry":"POINT(2514707.29702 1359937.523466)","attributes":{"description":"","title":"Fur Buranga Res","placename":"12.125,22.59","address":"12.125,22.59"}},{"local_stop_id":77,"id":77,"geometry":"POINT(2548882.380694 1499060.963465)","attributes":{"description":"","title":"Galala","placename":"13.344,22.897","address":"13.344,22.897"}},{"local_stop_id":76,"id":76,"geometry":"POINT(2575933.016956 1388985.682655)","attributes":{"description":"","title":"Garsila","placename":"12.38,23.14","address":"12.38,23.14"}},{"local_stop_id":75,"id":75,"geometry":"POINT(1449222.063806 2504201.025748)","attributes":{"description":"","title":"Gemieza Babiker Res","placename":"21.9389833,13.0185833","address":"21.9389833,13.0185833"}},{"local_stop_id":74,"id":74,"geometry":"POINT(2553112.521344 1473788.227188)","attributes":{"description":"","title":"Genderni","placename":"13.123,22.935","address":"13.123,22.935"}},{"local_stop_id":73,"id":73,"geometry":"POINT(2499233.8878 1395596.655428)","attributes":{"description":"","title":"Gobe","placename":"12.438,22.451","address":"12.438,22.451"}},{"local_stop_id":72,"id":72,"geometry":"POINT(2500681.04118 1485564.071541)","attributes":{"description":"","title":"Goker","placename":"13.226,22.464","address":"13.226,22.464"}},{"local_stop_id":71,"id":71,"geometry":"POINT(2497118.817475 1637163.19859)","attributes":{"description":"","title":"Goz digga","placename":"14.548,22.432","address":"14.548,22.432"}},{"local_stop_id":70,"id":70,"geometry":"POINT(2525616.607118 1559879.512694)","attributes":{"description":"","title":"Goz Shido","placename":"13.875,22.688","address":"13.875,22.688"}},{"local_stop_id":69,"id":69,"geometry":"POINT(2505913.057247 1351968.40193)","attributes":{"description":"","title":"Gumeiza","placename":"12.055,22.511","address":"12.055,22.511"}},{"local_stop_id":68,"id":68,"geometry":"POINT(2534522.166381 1362784.144607)","attributes":{"description":"","title":"Gungar","placename":"12.15,22.768","address":"12.15,22.768"}},{"local_stop_id":67,"id":67,"geometry":"POINT(2524503.41221 1518631.739161)","attributes":{"description":"","title":"Gurf Elahmar","placename":"13.515,22.678","address":"13.515,22.678"}},{"local_stop_id":66,"id":66,"geometry":"POINT(2511590.351278 1423196.383615)","attributes":{"description":"","title":"Habilla","placename":"12.68,22.562","address":"12.68,22.562"}},{"local_stop_id":65,"id":65,"geometry":"POINT(2536215.391496 1549352.153912)","attributes":{"description":"","title":"Habilla LRs","placename":"13.7831724,22.7832105","address":"13.7831724,22.7832105"}},{"local_stop_id":64,"id":64,"geometry":"POINT(1602780.811429 2578141.391751)","attributes":{"description":"","title":"Hajer Laben","placename":"22.5537556,14.398025","address":"22.5537556,14.398025"}},{"local_stop_id":63,"id":63,"geometry":"POINT(2558233.21792 1477217.573614)","attributes":{"description":"","title":"Hajer Tama","placename":"13.153,22.981","address":"13.153,22.981"}},{"local_stop_id":62,"id":62,"geometry":"POINT(2514373.338548 1585117.908152)","attributes":{"description":"","title":"Hejieliga","placename":"14.095,22.587","address":"14.095,22.587"}},{"local_stop_id":61,"id":61,"geometry":"POINT(2527175.079989 1609002.045793)","attributes":{"description":"","title":"Helilat","placename":"14.303,22.702","address":"14.303,22.702"}},{"local_stop_id":60,"id":60,"geometry":"POINT(2527175.079989 1609002.045793)","attributes":{"description":"","title":"Helilat","placename":"14.303,22.702","address":"14.303,22.702"}},{"local_stop_id":59,"id":59,"geometry":"POINT(2613781.643826 1449451.843062)","attributes":{"description":"","title":"Hesahesa","placename":"12.91,23.48","address":"12.91,23.48"}},{"local_stop_id":58,"id":58,"geometry":"POINT(2527397.71897 1572839.855483)","attributes":{"description":"","title":"Jabal","placename":"13.988,22.704","address":"13.988,22.704"}},{"local_stop_id":57,"id":57,"geometry":"POINT(2496784.859002 1509130.731782)","attributes":{"description":"","title":"Jama","placename":"13.432,22.429","address":"13.432,22.429"}},{"local_stop_id":56,"id":56,"geometry":"POINT(2534967.444344 1318406.936519)","attributes":{"description":"","title":"Jugma El Garbia (NA)","placename":"11.76,22.772","address":"11.76,22.772"}},{"local_stop_id":55,"id":55,"geometry":"POINT(2504243.264885 1534435.929554)","attributes":{"description":"","title":"Kandobi","placename":"13.653,22.496","address":"13.653,22.496"}},{"local_stop_id":54,"id":54,"geometry":"POINT(2505133.820812 1535352.397144)","attributes":{"description":"","title":"Kandobi Nomads","placename":"13.661,22.504","address":"13.661,22.504"}},{"local_stop_id":53,"id":53,"geometry":"POINT(2523501.536793 1519318.686941)","attributes":{"description":"","title":"Kangok","placename":"13.521,22.669","address":"13.521,22.669"}},{"local_stop_id":52,"id":52,"geometry":"POINT(2523501.536793 1519318.686941)","attributes":{"description":"","title":"Kangok","placename":"13.521,22.669","address":"13.521,22.669"}},{"local_stop_id":51,"id":51,"geometry":"POINT(2549995.575602 1220995.14721)","attributes":{"description":"","title":"Karanik","placename":"10.902,22.907","address":"10.902,22.907"}},{"local_stop_id":50,"id":50,"geometry":"POINT(2548882.380694 1499060.963465)","attributes":{"description":"","title":"Kerinik IDPs","placename":"13.344,22.897","address":"13.344,22.897"}},{"local_stop_id":49,"id":49,"geometry":"POINT(2668745.642405 1456501.532259)","attributes":{"description":"","title":"Khor-Ramla","placename":"12.97172,23.97375","address":"12.97172,23.97375"}},{"local_stop_id":48,"id":48,"geometry":"POINT(2501237.638634 1508672.935095)","attributes":{"description":"","title":"Kirinding-1","placename":"13.428,22.469","address":"13.428,22.469"}},{"local_stop_id":47,"id":47,"geometry":"POINT(2502016.87507 1508215.146038)","attributes":{"description":"","title":"Kirinding-2","placename":"13.424,22.476","address":"13.424,22.476"}},{"local_stop_id":46,"id":46,"geometry":"POINT(2529290.150314 1530999.452756)","attributes":{"description":"","title":"Kirkir","placename":"13.623,22.721","address":"13.623,22.721"}},{"local_stop_id":45,"id":45,"geometry":"POINT(2438119.487354 1451393.417489)","attributes":{"description":"","title":"Kongo Haraza","placename":"12.927,21.902","address":"12.927,21.902"}},{"local_stop_id":44,"id":44,"geometry":"POINT(2491330.203953 1516342.038054)","attributes":{"description":"","title":"Korti","placename":"13.495,22.38","address":"13.495,22.38"}},{"local_stop_id":43,"id":43,"geometry":"POINT(2500235.763217 1616010.706653)","attributes":{"description":"","title":"Kulbus","placename":"14.364,22.46","address":"14.364,22.46"}},{"local_stop_id":42,"id":42,"geometry":"POINT(2524169.453737 1538560.27877)","attributes":{"description":"","title":"Lambo","placename":"13.689,22.675","address":"13.689,22.675"}},{"local_stop_id":41,"id":41,"geometry":"POINT(2520273.27156 1376337.737475)","attributes":{"description":"","title":"Mangarasa (NA)","placename":"12.269,22.64","address":"12.269,22.64"}},{"local_stop_id":40,"id":40,"geometry":"POINT(2506914.932665 1573987.094391)","attributes":{"description":"","title":"Manjura","placename":"13.998,22.52","address":"13.998,22.52"}},{"local_stop_id":39,"id":39,"geometry":"POINT(2470179.500703 1474588.370542)","attributes":{"description":"","title":"Mastari","placename":"13.13,22.19","address":"13.13,22.19"}},{"local_stop_id":38,"id":38,"geometry":"POINT(2502128.19456 1637508.221618)","attributes":{"description":"","title":"Mastura","placename":"14.551,22.477","address":"14.551,22.477"}},{"local_stop_id":37,"id":37,"geometry":"POINT(2545542.79597 1454477.366376)","attributes":{"description":"","title":"Mornie","placename":"12.954,22.867","address":"12.954,22.867"}},{"local_stop_id":36,"id":36,"geometry":"POINT(2572627.451469 1486965.567422)","attributes":{"description":"","title":"Muhajir","placename":"13.2382556,23.1103056","address":"13.2382556,23.1103056"}},{"local_stop_id":35,"id":35,"geometry":"POINT(2596972.400716 1344456.563165)","attributes":{"description":"","title":"Mukjar","placename":"11.989,23.329","address":"11.989,23.329"}},{"local_stop_id":34,"id":34,"geometry":"POINT(2479530.337929 1529395.912871)","attributes":{"description":"","title":"Muli","placename":"13.609,22.274","address":"13.609,22.274"}},{"local_stop_id":33,"id":33,"geometry":"POINT(2675405.887539 1455939.503352)","attributes":{"description":"","title":"Nertiti","placename":"12.9668,24.03358","address":"12.9668,24.03358"}},{"local_stop_id":32,"id":32,"geometry":"POINT(2675563.961216 1454934.276106)","attributes":{"description":"","title":"Nertiti","placename":"12.958,24.035","address":"12.958,24.035"}},{"local_stop_id":31,"id":31,"geometry":"POINT(2509363.961462 1424223.322522)","attributes":{"description":"","title":"Nur El Huda","placename":"12.689,22.542","address":"12.689,22.542"}},{"local_stop_id":30,"id":30,"geometry":"POINT(2531182.581657 1348781.336155)","attributes":{"description":"","title":"Ras El Feel","placename":"12.027,22.738","address":"12.027,22.738"}},{"local_stop_id":29,"id":29,"geometry":"POINT(2555227.591669 1466016.590016)","attributes":{"description":"","title":"Romalia","placename":"13.055,22.954","address":"13.055,22.954"}},{"local_stop_id":28,"id":28,"geometry":"POINT(2544318.281571 1508787.383551)","attributes":{"description":"","title":"Rosi","placename":"13.429,22.856","address":"13.429,22.856"}},{"local_stop_id":27,"id":27,"geometry":"POINT(2523278.897811 1405287.81904)","attributes":{"description":"","title":"Sala + Ior","placename":"12.523,22.667","address":"12.523,22.667"}},{"local_stop_id":26,"id":26,"geometry":"POINT(2523278.897811 1405287.81904)","attributes":{"description":"","title":"Sala + Ior (NA)","placename":"12.523,22.667","address":"12.523,22.667"}},{"local_stop_id":25,"id":25,"geometry":"POINT(2570033.083944 1544289.589153)","attributes":{"description":"","title":"Sanidadi","placename":"13.739,23.087","address":"13.739,23.087"}},{"local_stop_id":24,"id":24,"geometry":"POINT(2476960.093338 1540926.97775)","attributes":{"description":"","title":"Saraf Gidad","placename":"13.7096556,22.2509111","address":"13.7096556,22.2509111"}},{"local_stop_id":23,"id":23,"geometry":"POINT(2518046.881744 1574216.548161)","attributes":{"description":"","title":"Selea","placename":"14,22.62","address":"14,22.62"}},{"local_stop_id":22,"id":22,"geometry":"POINT(2504688.542849 1552427.311656)","attributes":{"description":"","title":"Sirba","placename":"13.81,22.5","address":"13.81,22.5"}},{"local_stop_id":21,"id":21,"geometry":"POINT(2531293.901148 1481676.351466)","attributes":{"description":"","title":"Sisi","placename":"13.192,22.739","address":"13.192,22.739"}},{"local_stop_id":20,"id":20,"geometry":"POINT(2501014.999652 1514968.309476)","attributes":{"description":"","title":"Sultan house","placename":"13.483,22.467","address":"13.483,22.467"}},{"local_stop_id":19,"id":19,"geometry":"POINT(2501460.277616 1510733.080314)","attributes":{"description":"","title":"Tandicraw","placename":"13.446,22.471","address":"13.446,22.471"}},{"local_stop_id":18,"id":18,"geometry":"POINT(2517712.923271 1530312.209755)","attributes":{"description":"","title":"Tanjaki","placename":"13.617,22.617","address":"13.617,22.617"}},{"local_stop_id":17,"id":17,"geometry":"POINT(2494781.108168 1437805.162745)","attributes":{"description":"","title":"Tawang","placename":"12.808,22.411","address":"12.808,22.411"}},{"local_stop_id":16,"id":16,"geometry":"POINT(2447132.659169 1468523.085934)","attributes":{"description":"","title":"Terbeba","placename":"13.0769333,21.9829667","address":"13.0769333,21.9829667"}},{"local_stop_id":15,"id":15,"geometry":"POINT(2613781.643826 1449451.843062)","attributes":{"description":"","title":"Teyba","placename":"12.91,23.48","address":"12.91,23.48"}},{"local_stop_id":14,"id":14,"geometry":"POINT(2506692.293683 1519204.194443)","attributes":{"description":"","title":"Tilaihaya","placename":"13.52,22.518","address":"13.52,22.518"}},{"local_stop_id":13,"id":13,"geometry":"POINT(2500458.402199 1380667.062306)","attributes":{"description":"","title":"Tundosa","placename":"12.307,22.462","address":"12.307,22.462"}},{"local_stop_id":12,"id":12,"geometry":"POINT(2556340.786577 1247873.555506)","attributes":{"description":"","title":"Um Dukhon","placename":"11.139,22.964","address":"11.139,22.964"}},{"local_stop_id":11,"id":11,"geometry":"POINT(2561684.122135 1573987.094391)","attributes":{"description":"","title":"Um Haraza","placename":"13.998,23.012","address":"13.998,23.012"}},{"local_stop_id":10,"id":10,"geometry":"POINT(2520050.632578 1357546.567941)","attributes":{"description":"","title":"Um Jokoti","placename":"12.104,22.638","address":"12.104,22.638"}},{"local_stop_id":9,"id":9,"geometry":"POINT(2531405.220639 1380553.124689)","attributes":{"description":"","title":"Um Kher","placename":"12.306,22.74","address":"12.306,22.74"}},{"local_stop_id":8,"id":8,"geometry":"POINT(2505356.459793 1397078.62744)","attributes":{"description":"","title":"Um Samgamti","placename":"12.451,22.506","address":"12.451,22.506"}},{"local_stop_id":7,"id":7,"geometry":"POINT(2557565.300975 1473331.012647)","attributes":{"description":"","title":"Um Shalaya","placename":"13.119,22.975","address":"13.119,22.975"}},{"local_stop_id":6,"id":6,"geometry":"POINT(2507694.1691 1524585.861908)","attributes":{"description":"","title":"Um Sibaiga","placename":"13.567,22.527","address":"13.567,22.527"}},{"local_stop_id":5,"id":5,"geometry":"POINT(2525839.246099 1562516.945087)","attributes":{"description":"","title":"Umdaraba","placename":"13.898,22.69","address":"13.898,22.69"}},{"local_stop_id":4,"id":4,"geometry":"POINT(2525839.246099 1562516.945087)","attributes":{"description":"","title":"Umdaraba","placename":"13.898,22.69","address":"13.898,22.69"}},{"local_stop_id":3,"id":3,"geometry":"POINT(2576378.29492 1507528.476754)","attributes":{"description":"","title":"Umtajok","placename":"13.418,23.144","address":"13.418,23.144"}},{"local_stop_id":2,"id":2,"geometry":"POINT(2503352.708959 1622101.750157)","attributes":{"description":"","title":"Wadi Bardi","placename":"14.417,22.488","address":"14.417,22.488"}},{"local_stop_id":1,"id":1,"geometry":"POINT(2584838.57622 1552427.311656)","attributes":{"description":"","title":"Warda","placename":"13.81,23.22","address":"13.81,23.22"}}],"hops":[{"from_stop_id":483,"to_stop_id":482,"geometry":"MULTILINESTRING((0 0,4142777.11377 2224476.263129))","attributes":{"distance":"4601.897233","title":"Sorghum to Port Sudan"}},{"from_stop_id":482,"to_stop_id":481,"geometry":"MULTILINESTRING((4142777.11377 2224476.263129,3621935.480246 1755268.29694))","attributes":{"title":"Port Sudan to Khartoum","distance":"667.348942"}},{"from_stop_id":481,"to_stop_id":480,"geometry":"MULTILINESTRING((3621935.480246 1755268.29694,3366846.196126 1478892.266091))","attributes":{"title":"Khartoum to El Obeid","distance":"363.897446"}},{"from_stop_id":480,"to_stop_id":479,"geometry":"MULTILINESTRING((3366846.196126 1478892.266091,2498610.943929 1510191.292916))","attributes":{"title":"El Obeid to El Geniena","distance":"844.499931"}},{"from_stop_id":480,"to_stop_id":478,"geometry":"MULTILINESTRING((3366846.196126 1478892.266091,2822610.184669 1531388.222391))","attributes":{"title":"El Obeid to El Fasher","distance":"531.278045"}},{"from_stop_id":480,"to_stop_id":477,"geometry":"MULTILINESTRING((3366846.196126 1478892.266091,2770807.002844 1352033.626425))","attributes":{"distance":"594.000680","title":"El Obeid to Nyala"}},{"from_stop_id":476,"to_stop_id":475,"geometry":"MULTILINESTRING((0 0,2498610.943929 1510191.292916))","attributes":{"title":"Sorghum Local to El Geniena","distance":"2889.127402"}},{"from_stop_id":480,"to_stop_id":474,"geometry":"MULTILINESTRING((3366846.196126 1478892.266091,2822610.184669 1531388.222391))","attributes":{"title":"El Obeid to El Fasher","distance":"531.278045"}},{"from_stop_id":480,"to_stop_id":473,"geometry":"MULTILINESTRING((3366846.196126 1478892.266091,2770807.002844 1352033.626425))","attributes":{"distance":"594.000680","title":"El Obeid to Nyala"}},{"from_stop_id":476,"to_stop_id":472,"geometry":"MULTILINESTRING((0 0,3939220.519295 1578768.635734))","attributes":{"title":"Sorghum Local to Gedaref","distance":"4195.319370"}},{"from_stop_id":472,"to_stop_id":471,"geometry":"MULTILINESTRING((3939220.519295 1578768.635734,3366846.196126 1478892.266091))","attributes":{"distance":"564.074430","title":"Gedaref to El Obeid"}},{"from_stop_id":480,"to_stop_id":470,"geometry":"MULTILINESTRING((3366846.196126 1478892.266091,3824922.561156 1321794.685003))","attributes":{"distance":"472.279585","title":"El Obeid to Ed Damazin"}},{"from_stop_id":480,"to_stop_id":469,"geometry":"MULTILINESTRING((3366846.196126 1478892.266091,4053198.319528 1738760.266515))","attributes":{"title":"El Obeid to Kassala","distance":"710.297077"}},{"from_stop_id":480,"to_stop_id":468,"geometry":"MULTILINESTRING((3366846.196126 1478892.266091,3309461.780909 1233721.473163))","attributes":{"title":"El Obeid to Kadugli","distance":"245.919802"}},{"from_stop_id":480,"to_stop_id":467,"geometry":"MULTILINESTRING((3366846.196126 1478892.266091,3817093.019141 1182135.214199))","attributes":{"distance":"527.084041","title":"El Obeid to Kurmuk"}},{"from_stop_id":480,"to_stop_id":466,"geometry":"MULTILINESTRING((3366846.196126 1478892.266091,2511582.926268 1423202.08873))","attributes":{"distance":"834.394358","title":"El Obeid to Habila"}},{"from_stop_id":480,"to_stop_id":465,"geometry":"MULTILINESTRING((3366846.196126 1478892.266091,2545534.780966 1454505.557494))","attributes":{"distance":"799.492463","title":"El Obeid to Mornie"}},{"from_stop_id":480,"to_stop_id":464,"geometry":"MULTILINESTRING((3366846.196126 1478892.266091,2591869.292619 1340019.70599))","attributes":{"title":"El Obeid to Mukjar","distance":"767.585085"}},{"from_stop_id":480,"to_stop_id":463,"geometry":"MULTILINESTRING((3366846.196126 1478892.266091,2613900.076632 1448308.557351))","attributes":{"distance":"733.309014","title":"El Obeid to Zalingie"}},{"from_stop_id":480,"to_stop_id":462,"geometry":"MULTILINESTRING((3366846.196126 1478892.266091,2682895.788011 1536166.345865))","attributes":{"title":"El Obeid to Kabkabiya","distance":"666.842880"}},{"from_stop_id":480,"to_stop_id":461,"geometry":"MULTILINESTRING((3366846.196126 1478892.266091,2744011.778021 1597915.136658))","attributes":{"distance":"615.385527","title":"El Obeid to Kutum"}},{"from_stop_id":480,"to_stop_id":460,"geometry":"MULTILINESTRING((3366846.196126 1478892.266091,2911004.684244 1280906.163477))","attributes":{"title":"El Obeid to Ed Daein","distance":"485.006735"}},{"from_stop_id":480,"to_stop_id":459,"geometry":"MULTILINESTRING((3366846.196126 1478892.266091,2798601.375757 1263355.869614))","attributes":{"title":"El Obeid to Gerida","distance":"593.271678"}},{"from_stop_id":480,"to_stop_id":458,"geometry":"MULTILINESTRING((3366846.196126 1478892.266091,2514662.769224 1359950.810874))","attributes":{"title":"El Obeid to Furubaranga","distance":"838.587228"}},{"from_stop_id":480,"to_stop_id":457,"geometry":"MULTILINESTRING((3366846.196126 1478892.266091,2575659.582891 1388134.433051))","attributes":{"title":"El Obeid to Garsila","distance":"775.776338"}},{"from_stop_id":480,"to_stop_id":456,"geometry":"MULTILINESTRING((3366846.196126 1478892.266091,2614115.602298 1450251.298883))","attributes":{"distance":"733.000017","title":"El Obeid to Hamidiya"}},{"from_stop_id":480,"to_stop_id":455,"geometry":"MULTILINESTRING((3366846.196126 1478892.266091,2613781.643826 1449451.843062))","attributes":{"title":"El Obeid to HasaHisa","distance":"733.365061"}},{"from_stop_id":480,"to_stop_id":454,"geometry":"MULTILINESTRING((3366846.196126 1478892.266091,3003733.820075 1315450.715024))","attributes":{"title":"El Obeid to Shabab","distance":"388.386851"}},{"from_stop_id":480,"to_stop_id":453,"geometry":"MULTILINESTRING((3366846.196126 1478892.266091,2613781.643826 1449451.843062))","attributes":{"title":"El Obeid to Taiba","distance":"733.365061"}},{"from_stop_id":480,"to_stop_id":452,"geometry":"MULTILINESTRING((3366846.196126 1478892.266091,2556563.425558 1247873.555506))","attributes":{"title":"El Obeid to Um Dukhun","distance":"822.694953"}},{"from_stop_id":480,"to_stop_id":451,"geometry":"MULTILINESTRING((3366846.196126 1478892.266091,2738125.515042 1621527.061619))","attributes":{"distance":"625.385994","title":"El Obeid to Abdul Shakour"}},{"from_stop_id":480,"to_stop_id":450,"geometry":"MULTILINESTRING((3366846.196126 1478892.266091,2854243.989084 1493845.626657))","attributes":{"distance":"498.637648","title":"El Obeid to Abu Delek"}},{"from_stop_id":480,"to_stop_id":449,"geometry":"MULTILINESTRING((3366846.196126 1478892.266091,2606211.918452 1612218.899312))","attributes":{"distance":"749.223603","title":"El Obeid to Abu Gamera"}},{"from_stop_id":480,"to_stop_id":448,"geometry":"MULTILINESTRING((3366846.196126 1478892.266091,2873403.433773 1583970.183391))","attributes":{"title":"El Obeid to Abu Geira","distance":"489.745122"}},{"from_stop_id":480,"to_stop_id":447,"geometry":"MULTILINESTRING((3366846.196126 1478892.266091,2653062.581848 1651149.343197))","attributes":{"title":"El Obeid to Abu Liha","distance":"711.873426"}},{"from_stop_id":480,"to_stop_id":446,"geometry":"MULTILINESTRING((3366846.196126 1478892.266091,2851448.75667 1639808.495022))","attributes":{"title":"El Obeid to Abu Noshab","distance":"523.582611"}},{"from_stop_id":480,"to_stop_id":445,"geometry":"MULTILINESTRING((3366846.196126 1478892.266091,2821281.174665 1535925.20518))","attributes":{"title":"El Obeid to Abu Shouk Camp","distance":"532.959518"}},{"from_stop_id":480,"to_stop_id":444,"geometry":"MULTILINESTRING((3366846.196126 1478892.266091,2832797.621265 1520335.515901))","attributes":{"title":"El Obeid to Abudwiel","distance":"520.590015"}},{"from_stop_id":480,"to_stop_id":443,"geometry":"MULTILINESTRING((3366846.196126 1478892.266091,2950077.825513 1347415.552444))","attributes":{"title":"El Obeid to Al Khamsat","distance":"426.015817"}},{"from_stop_id":480,"to_stop_id":442,"geometry":"MULTILINESTRING((3366846.196126 1478892.266091,2975923.239044 1341939.416152))","attributes":{"title":"El Obeid to Al Saat","distance":"403.830675"}},{"from_stop_id":480,"to_stop_id":441,"geometry":"MULTILINESTRING((3366846.196126 1478892.266091,2769517.611446 1580297.801704))","attributes":{"distance":"588.183819","title":"El Obeid to Amar Jedid"}},{"from_stop_id":480,"to_stop_id":440,"geometry":"MULTILINESTRING((3366846.196126 1478892.266091,2719906.224678 1606742.828431))","attributes":{"distance":"639.876956","title":"El Obeid to Amow"}},{"from_stop_id":480,"to_stop_id":439,"geometry":"MULTILINESTRING((3366846.196126 1478892.266091,2766289.346213 1652578.815075))","attributes":{"title":"El Obeid to Anka","distance":"606.084373"}},{"from_stop_id":480,"to_stop_id":438,"geometry":"MULTILINESTRING((3366846.196126 1478892.266091,2792566.623709 1490322.498449))","attributes":{"distance":"558.541171","title":"El Obeid to Arasho"}},{"from_stop_id":480,"to_stop_id":437,"geometry":"MULTILINESTRING((3366846.196126 1478892.266091,2734674.610828 1633138.276055))","attributes":{"distance":"631.086228","title":"El Obeid to Areida"}},{"from_stop_id":480,"to_stop_id":436,"geometry":"MULTILINESTRING((3366846.196126 1478892.266091,2754712.11917 1597516.548777))","attributes":{"distance":"605.120061","title":"El Obeid to Argala"}},{"from_stop_id":480,"to_stop_id":435,"geometry":"MULTILINESTRING((3366846.196126 1478892.266091,2835864.027959 1577199.629017))","attributes":{"title":"El Obeid to Armadyat","distance":"524.270567"}},{"from_stop_id":480,"to_stop_id":434,"geometry":"MULTILINESTRING((3366846.196126 1478892.266091,2804734.144616 1645506.780602))","attributes":{"title":"El Obeid to Ba'ashim\/Tima","distance":"568.466680"}},{"from_stop_id":480,"to_stop_id":433,"geometry":"MULTILINESTRING((3366846.196126 1478892.266091,2738793.431987 1649586.989453))","attributes":{"distance":"631.002970","title":"El Obeid to Bakuri"}},{"from_stop_id":480,"to_stop_id":432,"geometry":"MULTILINESTRING((3366846.196126 1478892.266091,2862055.03285 1586999.011569))","attributes":{"distance":"501.103922","title":"El Obeid to Benama"}},{"from_stop_id":480,"to_stop_id":431,"geometry":"MULTILINESTRING((3366846.196126 1478892.266091,2754155.521716 1639693.476397))","attributes":{"distance":"614.254929","title":"El Obeid to Bere"}},{"from_stop_id":480,"to_stop_id":430,"geometry":"MULTILINESTRING((3366846.196126 1478892.266091,2753487.604772 1656146.456769))","attributes":{"distance":"618.924681","title":"El Obeid to Beridik"}},{"from_stop_id":480,"to_stop_id":429,"geometry":"MULTILINESTRING((3366846.196126 1478892.266091,2783432.547795 1542341.486698))","attributes":{"title":"El Obeid to Birka Saira (Nimra)","distance":"570.118657"}},{"from_stop_id":480,"to_stop_id":428,"geometry":"MULTILINESTRING((3366846.196126 1478892.266091,2738125.515042 1650622.581186))","attributes":{"distance":"631.879119","title":"El Obeid to Birmaza"}},{"from_stop_id":480,"to_stop_id":427,"geometry":"MULTILINESTRING((3366846.196126 1478892.266091,2611221.295538 1736958.820105))","attributes":{"distance":"772.820098","title":"El Obeid to Boba"}},{"from_stop_id":480,"to_stop_id":426,"geometry":"MULTILINESTRING((3366846.196126 1478892.266091,2823396.24499 1596827.580652))","attributes":{"distance":"539.696662","title":"El Obeid to Daba Toga"}},{"from_stop_id":480,"to_stop_id":425,"geometry":"MULTILINESTRING((3366846.196126 1478892.266091,2773525.113114 1511534.289677))","attributes":{"title":"El Obeid to Dali Camp","distance":"577.597303"}},{"from_stop_id":480,"to_stop_id":424,"geometry":"MULTILINESTRING((3366846.196126 1478892.266091,2968668.180475 1328642.17175))","attributes":{"distance":"415.002592","title":"El Obeid to Dalil Babiker"}},{"from_stop_id":480,"to_stop_id":423,"geometry":"MULTILINESTRING((3366846.196126 1478892.266091,2952638.173801 1749317.620062))","attributes":{"title":"El Obeid to Dar Deifa","distance":"478.668611"}},{"from_stop_id":480,"to_stop_id":422,"geometry":"MULTILINESTRING((3366846.196126 1478892.266091,2828340.684964 1493005.614029))","attributes":{"distance":"523.799481","title":"El Obeid to Dar El Neeim"}},{"from_stop_id":480,"to_stop_id":421,"geometry":"MULTILINESTRING((3366846.196126 1478892.266091,2841108.734448 1466191.771112))","attributes":{"title":"El Obeid to Dar Elsalam Town","distance":"511.599214"}},{"from_stop_id":480,"to_stop_id":420,"geometry":"MULTILINESTRING((3366846.196126 1478892.266091,2728312.701929 1580575.507609))","attributes":{"distance":"627.694292","title":"El Obeid to Dawa"}},{"from_stop_id":480,"to_stop_id":419,"geometry":"MULTILINESTRING((3366846.196126 1478892.266091,2736789.681153 1643949.513357))","attributes":{"distance":"631.538739","title":"El Obeid to Deesa"}},{"from_stop_id":480,"to_stop_id":418,"geometry":"MULTILINESTRING((3366846.196126 1478892.266091,2878054.114969 1634173.195285))","attributes":{"distance":"497.387141","title":"El Obeid to Dekelik"}},{"from_stop_id":480,"to_stop_id":417,"geometry":"MULTILINESTRING((3366846.196126 1478892.266091,2704242.088434 1614742.112555))","attributes":{"title":"El Obeid to Deliba","distance":"656.209270"}},{"from_stop_id":480,"to_stop_id":416,"geometry":"MULTILINESTRING((3366846.196126 1478892.266091,2800724.171654 1493471.412955))","attributes":{"title":"El Obeid to Demsilik","distance":"550.649787"}},{"from_stop_id":480,"to_stop_id":415,"geometry":"MULTILINESTRING((3366846.196126 1478892.266091,2768181.777556 1583396.33986))","attributes":{"title":"El Obeid to Durum","distance":"589.938060"}},{"from_stop_id":480,"to_stop_id":414,"geometry":"MULTILINESTRING((3366846.196126 1478892.266091,2863098.864583 1472673.802636))","attributes":{"distance":"490.038871","title":"El Obeid to Ed Al Bideda"}},{"from_stop_id":480,"to_stop_id":413,"geometry":"MULTILINESTRING((3366846.196126 1478892.266091,2586680.913792 1658819.962982))","attributes":{"title":"El Obeid to Eid Elkhair","distance":"776.099398"}},{"from_stop_id":480,"to_stop_id":412,"geometry":"MULTILINESTRING((3366846.196126 1478892.266091,2980468.046499 1734534.009603))","attributes":{"distance":"448.439449","title":"El Obeid to Ein Bessaro"}},{"from_stop_id":480,"to_stop_id":411,"geometry":"MULTILINESTRING((3366846.196126 1478892.266091,2726325.649018 1639923.514169))","attributes":{"title":"El Obeid to El Dur","distance":"640.444737"}},{"from_stop_id":480,"to_stop_id":410,"geometry":"MULTILINESTRING((3366846.196126 1478892.266091,2822617.008554 1531343.080797))","attributes":{"title":"El Obeid to El Fasher Town IDPs","distance":"531.267674"}},{"from_stop_id":480,"to_stop_id":409,"geometry":"MULTILINESTRING((3366846.196126 1478892.266091,2976015.266867 1675950.355335))","attributes":{"distance":"424.152162","title":"El Obeid to El Fula"}},{"from_stop_id":480,"to_stop_id":408,"geometry":"MULTILINESTRING((3366846.196126 1478892.266091,2921913.994342 1757059.568974))","attributes":{"title":"El Obeid to El Hara","distance":"507.677398"}},{"from_stop_id":480,"to_stop_id":407,"geometry":"MULTILINESTRING((3366846.196126 1478892.266091,3002064.027713 1708569.175276))","attributes":{"title":"El Obeid to El Hatan","distance":"417.458816"}},{"from_stop_id":480,"to_stop_id":406,"geometry":"MULTILINESTRING((3366846.196126 1478892.266091,2824175.481425 1536612.590868))","attributes":{"title":"El Obeid to El Salam Camp","distance":"530.226373"}},{"from_stop_id":480,"to_stop_id":405,"geometry":"MULTILINESTRING((3366846.196126 1478892.266091,2602575.645021 1572931.69012))","attributes":{"distance":"747.642706","title":"El Obeid to El Sereif Bn Hussein"}},{"from_stop_id":480,"to_stop_id":404,"geometry":"MULTILINESTRING((3366846.196126 1478892.266091,2607102.474378 1572898.52407))","attributes":{"title":"El Obeid to El-Serief IDPs","distance":"743.277397"}},{"from_stop_id":480,"to_stop_id":403,"geometry":"MULTILINESTRING((3366846.196126 1478892.266091,2734245.474191 1601288.398932))","attributes":{"title":"El Obeid to ElSheikh A\/AlBagi","distance":"625.271104"}},{"from_stop_id":480,"to_stop_id":402,"geometry":"MULTILINESTRING((3366846.196126 1478892.266091,2990357.235915 1369411.796675))","attributes":{"title":"El Obeid to Eyal Amin","distance":"382.074091"}},{"from_stop_id":480,"to_stop_id":401,"geometry":"MULTILINESTRING((3366846.196126 1478892.266091,2660976.632879 1510224.084163))","attributes":{"distance":"686.811957","title":"El Obeid to Fago"}},{"from_stop_id":480,"to_stop_id":400,"geometry":"MULTILINESTRING((3366846.196126 1478892.266091,2734118.013374 1591660.900912))","attributes":{"title":"El Obeid to Fata Borno","distance":"623.798327"}},{"from_stop_id":480,"to_stop_id":399,"geometry":"MULTILINESTRING((3366846.196126 1478892.266091,2839982.849118 1570774.951113))","attributes":{"title":"El Obeid to Fazi Dor","distance":"519.293358"}},{"from_stop_id":480,"to_stop_id":398,"geometry":"MULTILINESTRING((3366846.196126 1478892.266091,2672780.973946 1666161.581909))","attributes":{"distance":"696.753406","title":"El Obeid to Frog"}},{"from_stop_id":480,"to_stop_id":397,"geometry":"MULTILINESTRING((3366846.196126 1478892.266091,2629366.372537 1751859.474743))","attributes":{"distance":"760.882830","title":"El Obeid to Furawiya"}},{"from_stop_id":480,"to_stop_id":396,"geometry":"MULTILINESTRING((3366846.196126 1478892.266091,2657661.226748 1544056.382387))","attributes":{"title":"El Obeid to Gara-Ferjawia","distance":"691.835750"}},{"from_stop_id":480,"to_stop_id":395,"geometry":"MULTILINESTRING((3366846.196126 1478892.266091,2656676.138311 1546679.072498))","attributes":{"distance":"692.992681","title":"El Obeid to Gara-Zawia"}},{"from_stop_id":480,"to_stop_id":394,"geometry":"MULTILINESTRING((3366846.196126 1478892.266091,2821949.091609 1527448.884806))","attributes":{"distance":"531.602241","title":"El Obeid to Garni Area"}},{"from_stop_id":480,"to_stop_id":393,"geometry":"MULTILINESTRING((3366846.196126 1478892.266091,2587407.582938 1707049.971285))","attributes":{"distance":"786.510431","title":"El Obeid to Gasimba"}},{"from_stop_id":480,"to_stop_id":392,"geometry":"MULTILINESTRING((3366846.196126 1478892.266091,2658131.562729 1530934.954259))","attributes":{"distance":"690.496393","title":"El Obeid to Gergo (Gergo, Sabrna, Sanabiel)"}},{"from_stop_id":480,"to_stop_id":391,"geometry":"MULTILINESTRING((3366846.196126 1478892.266091,2831743.351437 1489145.446397))","attributes":{"distance":"520.442765","title":"El Obeid to Gerwit Beshim"}},{"from_stop_id":480,"to_stop_id":390,"geometry":"MULTILINESTRING((3366846.196126 1478892.266091,2756493.231023 1599468.724326))","attributes":{"distance":"603.765426","title":"El Obeid to Goba"}},{"from_stop_id":480,"to_stop_id":389,"geometry":"MULTILINESTRING((3366846.196126 1478892.266091,2834505.930171 1507378.430355))","attributes":{"title":"El Obeid to Gos Beina","distance":"518.231290"}},{"from_stop_id":480,"to_stop_id":388,"geometry":"MULTILINESTRING((3366846.196126 1478892.266091,2812481.368918 1495382.981348))","attributes":{"distance":"539.255481","title":"El Obeid to Gos Diges"}},{"from_stop_id":480,"to_stop_id":387,"geometry":"MULTILINESTRING((3366846.196126 1478892.266091,2884733.284417 1595105.240174))","attributes":{"distance":"481.311202","title":"El Obeid to Goz Laben"}},{"from_stop_id":480,"to_stop_id":386,"geometry":"MULTILINESTRING((3366846.196126 1478892.266091,2662316.941812 1705916.556349))","attributes":{"title":"El Obeid to Gurbura","distance":"716.860167"}},{"from_stop_id":480,"to_stop_id":385,"geometry":"MULTILINESTRING((3366846.196126 1478892.266091,2666435.762971 1597286.890707))","attributes":{"title":"El Obeid to Hareiga","distance":"689.380296"}},{"from_stop_id":480,"to_stop_id":384,"geometry":"MULTILINESTRING((3366846.196126 1478892.266091,2686510.37744 1534092.262222))","attributes":{"title":"El Obeid to Harra","distance":"663.202659"}},{"from_stop_id":480,"to_stop_id":383,"geometry":"MULTILINESTRING((3366846.196126 1478892.266091,2827515.066149 1591316.492013))","attributes":{"title":"El Obeid to Hashaba Baraka","distance":"534.729274"}},{"from_stop_id":480,"to_stop_id":382,"geometry":"MULTILINESTRING((3366846.196126 1478892.266091,2791892.829095 1618768.735944))","attributes":{"title":"El Obeid to Hashaba Center","distance":"574.031378"}},{"from_stop_id":480,"to_stop_id":381,"geometry":"MULTILINESTRING((3366846.196126 1478892.266091,2780872.199507 1624515.582862))","attributes":{"title":"El Obeid to Hashaba North","distance":"585.680246"}},{"from_stop_id":480,"to_stop_id":380,"geometry":"MULTILINESTRING((3366846.196126 1478892.266091,2798683.318034 1606130.193842))","attributes":{"title":"El Obeid to Hashaba South","distance":"564.962389"}},{"from_stop_id":480,"to_stop_id":379,"geometry":"MULTILINESTRING((3366846.196126 1478892.266091,2964771.998297 1341042.699023))","attributes":{"distance":"414.395222","title":"El Obeid to Haskanita"}},{"from_stop_id":480,"to_stop_id":378,"geometry":"MULTILINESTRING((3366846.196126 1478892.266091,2578827.323717 1682171.109375))","attributes":{"title":"El Obeid to Hilaliya","distance":"788.509988"}},{"from_stop_id":480,"to_stop_id":377,"geometry":"MULTILINESTRING((3366846.196126 1478892.266091,2826290.55175 1658448.430025))","attributes":{"distance":"552.149390","title":"El Obeid to Hilif Jenub"}},{"from_stop_id":480,"to_stop_id":376,"geometry":"MULTILINESTRING((3366846.196126 1478892.266091,2826290.55175 1658448.430025))","attributes":{"title":"El Obeid to Hilif Saniya","distance":"552.149390"}},{"from_stop_id":480,"to_stop_id":375,"geometry":"MULTILINESTRING((3366846.196126 1478892.266091,2833081.040689 1664779.947004))","attributes":{"distance":"547.827678","title":"El Obeid to Hilif Shamal"}},{"from_stop_id":480,"to_stop_id":374,"geometry":"MULTILINESTRING((3366846.196126 1478892.266091,2854009.104958 1592120.119852))","attributes":{"title":"El Obeid to Hillat Kharif","distance":"509.742916"}},{"from_stop_id":480,"to_stop_id":373,"geometry":"MULTILINESTRING((3366846.196126 1478892.266091,2745806.559907 1562516.945087))","attributes":{"distance":"608.546838","title":"El Obeid to Jabir"}},{"from_stop_id":480,"to_stop_id":372,"geometry":"MULTILINESTRING((3366846.196126 1478892.266091,2756159.272551 1589594.515683))","attributes":{"distance":"602.412112","title":"El Obeid to Jamboli"}},{"from_stop_id":480,"to_stop_id":371,"geometry":"MULTILINESTRING((3366846.196126 1478892.266091,2841314.972729 1476977.505718))","attributes":{"distance":"511.154557","title":"El Obeid to Jauwr"}},{"from_stop_id":480,"to_stop_id":370,"geometry":"MULTILINESTRING((3366846.196126 1478892.266091,2900206.693637 1734303.088035))","attributes":{"distance":"514.909797","title":"El Obeid to Jebel Eisa"}},{"from_stop_id":480,"to_stop_id":369,"geometry":"MULTILINESTRING((3366846.196126 1478892.266091,2825882.584741 1523749.693958))","attributes":{"title":"El Obeid to Jougojougo Area","distance":"527.521536"}},{"from_stop_id":480,"to_stop_id":368,"geometry":"MULTILINESTRING((3366846.196126 1478892.266091,2596409.012773 1686841.273543))","attributes":{"distance":"773.124574","title":"El Obeid to Jourbokay"}},{"from_stop_id":480,"to_stop_id":367,"geometry":"MULTILINESTRING((3366846.196126 1478892.266091,2679126.184922 1723798.498982))","attributes":{"distance":"706.755830","title":"El Obeid to Juktora"}},{"from_stop_id":480,"to_stop_id":366,"geometry":"MULTILINESTRING((3366846.196126 1478892.266091,2606654.413428 1680242.316205))","attributes":{"title":"El Obeid to Jurageem","distance":"761.982479"}},{"from_stop_id":480,"to_stop_id":365,"geometry":"MULTILINESTRING((3366846.196126 1478892.266091,2648491.675539 1577314.361614))","attributes":{"distance":"703.926894","title":"El Obeid to Kabkabeiya Town"}},{"from_stop_id":480,"to_stop_id":364,"geometry":"MULTILINESTRING((3366846.196126 1478892.266091,2777721.24566 1575678.089361))","attributes":{"distance":"579.639866","title":"El Obeid to Kafot"}},{"from_stop_id":480,"to_stop_id":363,"geometry":"MULTILINESTRING((3366846.196126 1478892.266091,2650442.558521 1508940.619336))","attributes":{"title":"El Obeid to Kala","distance":"697.003855"}},{"from_stop_id":480,"to_stop_id":362,"geometry":"MULTILINESTRING((3366846.196126 1478892.266091,2887572.37671 1454416.597934))","attributes":{"distance":"466.955231","title":"El Obeid to Kalamindo"}},{"from_stop_id":480,"to_stop_id":361,"geometry":"MULTILINESTRING((3366846.196126 1478892.266091,2608498.297228 1692369.299589))","attributes":{"distance":"763.175472","title":"El Obeid to Kamo"}},{"from_stop_id":480,"to_stop_id":360,"geometry":"MULTILINESTRING((3366846.196126 1478892.266091,2744582.045508 1601076.508515))","attributes":{"title":"El Obeid to Kassab Camp","distance":"615.389171"}},{"from_stop_id":480,"to_stop_id":359,"geometry":"MULTILINESTRING((3366846.196126 1478892.266091,2860910.913387 1626469.804733))","attributes":{"title":"El Obeid to Kedrin","distance":"511.189556"}},{"from_stop_id":480,"to_stop_id":358,"geometry":"MULTILINESTRING((3366846.196126 1478892.266091,2776792.030701 1503205.078824))","attributes":{"title":"El Obeid to Khartoum-Jadid","distance":"574.122918"}},{"from_stop_id":480,"to_stop_id":357,"geometry":"MULTILINESTRING((3366846.196126 1478892.266091,2752819.687827 1591775.704889))","attributes":{"title":"El Obeid to Korgay","distance":"605.956243"}},{"from_stop_id":480,"to_stop_id":356,"geometry":"MULTILINESTRING((3366846.196126 1478892.266091,2755686.832632 1557280.292283))","attributes":{"distance":"598.429248","title":"El Obeid to Korma"}},{"from_stop_id":480,"to_stop_id":355,"geometry":"MULTILINESTRING((3366846.196126 1478892.266091,2895308.636042 1620492.654723))","attributes":{"distance":"477.606392","title":"El Obeid to Koskorie"}},{"from_stop_id":480,"to_stop_id":354,"geometry":"MULTILINESTRING((3366846.196126 1478892.266091,2808590.752714 1591316.492013))","attributes":{"distance":"552.722837","title":"El Obeid to Kul Kul"}},{"from_stop_id":480,"to_stop_id":353,"geometry":"MULTILINESTRING((3366846.196126 1478892.266091,2772984.078125 1568402.483449))","attributes":{"distance":"583.162835","title":"El Obeid to Kuma"}},{"from_stop_id":480,"to_stop_id":352,"geometry":"MULTILINESTRING((3366846.196126 1478892.266091,2771146.048617 1517696.647833))","attributes":{"distance":"580.199941","title":"El Obeid to Kunjarra"}},{"from_stop_id":480,"to_stop_id":351,"geometry":"MULTILINESTRING((3366846.196126 1478892.266091,2696680.600703 1645737.722556))","attributes":{"distance":"669.624606","title":"El Obeid to Kurbia (includes Um Mahareik)"}},{"from_stop_id":480,"to_stop_id":350,"geometry":"MULTILINESTRING((3366846.196126 1478892.266091,2744025.448054 1597861.039687))","attributes":{"title":"El Obeid to Kutum Town","distance":"615.363269"}},{"from_stop_id":480,"to_stop_id":349,"geometry":"MULTILINESTRING((3366846.196126 1478892.266091,2779202.407145 1583970.183391))","attributes":{"title":"El Obeid to Lemena","distance":"579.494147"}},{"from_stop_id":480,"to_stop_id":348,"geometry":"MULTILINESTRING((3366846.196126 1478892.266091,3002175.347204 1333306.006983))","attributes":{"title":"El Obeid to Likeliki","distance":"382.866673"}},{"from_stop_id":480,"to_stop_id":347,"geometry":"MULTILINESTRING((3366846.196126 1478892.266091,2679126.184922 1693003.565081))","attributes":{"distance":"697.741379","title":"El Obeid to Lil"}},{"from_stop_id":480,"to_stop_id":346,"geometry":"MULTILINESTRING((3366846.196126 1478892.266091,2796234.289236 1538216.558917))","attributes":{"title":"El Obeid to Mado Jenub","distance":"557.370487"}},{"from_stop_id":480,"to_stop_id":345,"geometry":"MULTILINESTRING((3366846.196126 1478892.266091,2898759.540257 1643719.439009))","attributes":{"title":"El Obeid to Mado Shamal","distance":"481.195888"}},{"from_stop_id":480,"to_stop_id":344,"geometry":"MULTILINESTRING((3366846.196126 1478892.266091,2741242.460784 1626699.723012))","attributes":{"title":"El Obeid to Malagat","distance":"623.511216"}},{"from_stop_id":480,"to_stop_id":343,"geometry":"MULTILINESTRING((3366846.196126 1478892.266091,2911333.711263 1698710.291162))","attributes":{"title":"El Obeid to Malha Town","distance":"489.905408"}},{"from_stop_id":480,"to_stop_id":342,"geometry":"MULTILINESTRING((3366846.196126 1478892.266091,2958538.106813 1668234.177644))","attributes":{"distance":"436.207713","title":"El Obeid to Marega"}},{"from_stop_id":480,"to_stop_id":341,"geometry":"MULTILINESTRING((3366846.196126 1478892.266091,2931487.47055 1685627.759445))","attributes":{"distance":"466.945517","title":"El Obeid to Marsous"}},{"from_stop_id":480,"to_stop_id":340,"geometry":"MULTILINESTRING((3366846.196126 1478892.266091,2741722.949102 1585688.437888))","attributes":{"distance":"615.599362","title":"El Obeid to Masri (incl Dawa\/Beliga)"}},{"from_stop_id":480,"to_stop_id":339,"geometry":"MULTILINESTRING((3366846.196126 1478892.266091,2652991.77486 1522679.255929))","attributes":{"title":"El Obeid to Mastriha (Mastriha, Mithieb)","distance":"695.044462"}},{"from_stop_id":480,"to_stop_id":338,"geometry":"MULTILINESTRING((3366846.196126 1478892.266091,2844212.989768 1590283.292585))","attributes":{"title":"El Obeid to Mellit town- Residents","distance":"518.674366"}},{"from_stop_id":480,"to_stop_id":337,"geometry":"MULTILINESTRING((3366846.196126 1478892.266091,2696046.747522 1672149.550883))","attributes":{"title":"El Obeid to Miski","distance":"676.514664"}},{"from_stop_id":480,"to_stop_id":336,"geometry":"MULTILINESTRING((3366846.196126 1478892.266091,2865029.734546 1638083.270418))","attributes":{"title":"El Obeid to Mou","distance":"510.535328"}},{"from_stop_id":480,"to_stop_id":335,"geometry":"MULTILINESTRING((3366846.196126 1478892.266091,2773636.432605 1192439.043079))","attributes":{"distance":"643.785563","title":"El Obeid to Mulam Elhush"}},{"from_stop_id":480,"to_stop_id":334,"geometry":"MULTILINESTRING((3366846.196126 1478892.266091,2632705.957261 1708453.838019))","attributes":{"distance":"744.897835","title":"El Obeid to Mustariha"}},{"from_stop_id":480,"to_stop_id":333,"geometry":"MULTILINESTRING((3366846.196126 1478892.266091,2697159.94243 1719067.15511))","attributes":{"title":"El Obeid to Muzbat","distance":"688.839041"}},{"from_stop_id":480,"to_stop_id":332,"geometry":"MULTILINESTRING((3366846.196126 1478892.266091,2772077.959734 1512678.915104))","attributes":{"distance":"579.051828","title":"El Obeid to Nina"}},{"from_stop_id":480,"to_stop_id":331,"geometry":"MULTILINESTRING((3366846.196126 1478892.266091,2676120.55867 1511419.829764))","attributes":{"distance":"672.146073","title":"El Obeid to Nomo"}},{"from_stop_id":480,"to_stop_id":330,"geometry":"MULTILINESTRING((3366846.196126 1478892.266091,2767847.819084 1661901.786214))","attributes":{"distance":"607.103487","title":"El Obeid to Onyo"}},{"from_stop_id":480,"to_stop_id":329,"geometry":"MULTILINESTRING((3366846.196126 1478892.266091,2699163.693265 1696922.861273))","attributes":{"distance":"680.350844","title":"El Obeid to Oriri"}},{"from_stop_id":480,"to_stop_id":328,"geometry":"MULTILINESTRING((3366846.196126 1478892.266091,2659522.822593 1671722.952604))","attributes":{"distance":"710.489145","title":"El Obeid to Orschi (inclues Ana Bagi)"}},{"from_stop_id":480,"to_stop_id":327,"geometry":"MULTILINESTRING((3366846.196126 1478892.266091,2852745.628737 1502399.976915))","attributes":{"distance":"500.327711","title":"El Obeid to Sag El Naam"}},{"from_stop_id":480,"to_stop_id":326,"geometry":"MULTILINESTRING((3366846.196126 1478892.266091,2646318.104595 1527067.512732))","attributes":{"distance":"701.733133","title":"El Obeid to Sangir (Sangir, Jebel-Moos, Tege)"}},{"from_stop_id":480,"to_stop_id":325,"geometry":"MULTILINESTRING((3366846.196126 1478892.266091,2850224.242271 1643029.228521))","attributes":{"title":"El Obeid to Sani Haye","distance":"525.621071"}},{"from_stop_id":480,"to_stop_id":324,"geometry":"MULTILINESTRING((3366846.196126 1478892.266091,2595079.969373 1514281.471059))","attributes":{"distance":"750.919879","title":"El Obeid to Saraf Omra"}},{"from_stop_id":480,"to_stop_id":323,"geometry":"MULTILINESTRING((3366846.196126 1478892.266091,2788586.395316 1539027.81355))","attributes":{"distance":"564.833855","title":"El Obeid to Sarfaya Area"}},{"from_stop_id":480,"to_stop_id":322,"geometry":"MULTILINESTRING((3366846.196126 1478892.266091,2866810.846399 1610150.875998))","attributes":{"distance":"501.602737","title":"El Obeid to Sayeh"}},{"from_stop_id":480,"to_stop_id":321,"geometry":"MULTILINESTRING((3366846.196126 1478892.266091,2940170.390832 1744003.708332))","attributes":{"title":"El Obeid to Sereif","distance":"486.133001"}},{"from_stop_id":480,"to_stop_id":320,"geometry":"MULTILINESTRING((3366846.196126 1478892.266091,2808939.550075 1534154.500052))","attributes":{"distance":"544.732044","title":"El Obeid to Shagra Area"}},{"from_stop_id":480,"to_stop_id":319,"geometry":"MULTILINESTRING((3366846.196126 1478892.266091,2947851.435697 1352992.886532))","attributes":{"distance":"426.449689","title":"El Obeid to Shak-Elkhadir"}},{"from_stop_id":480,"to_stop_id":318,"geometry":"MULTILINESTRING((3366846.196126 1478892.266091,2954196.646672 1689776.378432))","attributes":{"distance":"448.949132","title":"El Obeid to Shakhakha"}},{"from_stop_id":480,"to_stop_id":317,"geometry":"MULTILINESTRING((3366846.196126 1478892.266091,2804026.653592 1466587.960939))","attributes":{"distance":"547.650140","title":"El Obeid to Shangil Tobay Camp"}},{"from_stop_id":480,"to_stop_id":316,"geometry":"MULTILINESTRING((3366846.196126 1478892.266091,2672195.210786 1740981.740267))","attributes":{"title":"El Obeid to Shegeg Karo","distance":"718.538228"}},{"from_stop_id":480,"to_stop_id":315,"geometry":"MULTILINESTRING((3366846.196126 1478892.266091,2791113.59266 1478932.404122))","attributes":{"distance":"559.957691","title":"El Obeid to Sherifa"}},{"from_stop_id":480,"to_stop_id":314,"geometry":"MULTILINESTRING((3366846.196126 1478892.266091,2791057.932914 1478970.508849))","attributes":{"distance":"560.011447","title":"El Obeid to Shewa Safaha"}},{"from_stop_id":480,"to_stop_id":313,"geometry":"MULTILINESTRING((3366846.196126 1478892.266091,2682688.408627 1529166.84349))","attributes":{"distance":"666.596093","title":"El Obeid to Shoba Mansour"}},{"from_stop_id":480,"to_stop_id":312,"geometry":"MULTILINESTRING((3366846.196126 1478892.266091,2881059.741221 1630953.584727))","attributes":{"distance":"493.698427","title":"El Obeid to Sindy"}},{"from_stop_id":480,"to_stop_id":311,"geometry":"MULTILINESTRING((3366846.196126 1478892.266091,2763868.147288 1542836.520527))","attributes":{"distance":"589.061728","title":"El Obeid to Ta'alba"}},{"from_stop_id":480,"to_stop_id":310,"geometry":"MULTILINESTRING((3366846.196126 1478892.266091,2795326.000115 1482205.278272))","attributes":{"distance":"555.837652","title":"El Obeid to Tangrara"}},{"from_stop_id":480,"to_stop_id":309,"geometry":"MULTILINESTRING((3366846.196126 1478892.266091,2773082.595875 1515071.977785))","attributes":{"distance":"578.188637","title":"El Obeid to Tawila & Rwanda"}},{"from_stop_id":480,"to_stop_id":308,"geometry":"MULTILINESTRING((3366846.196126 1478892.266091,2666101.804499 1727607.326502))","attributes":{"distance":"719.816815","title":"El Obeid to Ternawdo"}},{"from_stop_id":480,"to_stop_id":307,"geometry":"MULTILINESTRING((3366846.196126 1478892.266091,2855344.938847 1578347.057818))","attributes":{"title":"El Obeid to Tofto","distance":"505.886297"}},{"from_stop_id":480,"to_stop_id":306,"geometry":"MULTILINESTRING((3366846.196126 1478892.266091,2681797.852701 1711914.193282))","attributes":{"distance":"700.694452","title":"El Obeid to Turba"}},{"from_stop_id":480,"to_stop_id":305,"geometry":"MULTILINESTRING((3366846.196126 1478892.266091,2825656.75423 1576128.710009))","attributes":{"distance":"533.843325","title":"El Obeid to Um Ajaja"}},{"from_stop_id":480,"to_stop_id":304,"geometry":"MULTILINESTRING((3366846.196126 1478892.266091,2638781.775068 1691584.703398))","attributes":{"distance":"734.779695","title":"El Obeid to Um Barru"}},{"from_stop_id":480,"to_stop_id":303,"geometry":"MULTILINESTRING((3366846.196126 1478892.266091,2994315.100223 1681835.598081))","attributes":{"title":"El Obeid to Um Bayada","distance":"411.046684"}},{"from_stop_id":480,"to_stop_id":302,"geometry":"MULTILINESTRING((3366846.196126 1478892.266091,2772368.75964 1516894.365087))","attributes":{"title":"El Obeid to Um Buranga","distance":"578.972299"}},{"from_stop_id":480,"to_stop_id":301,"geometry":"MULTILINESTRING((3366846.196126 1478892.266091,2800033.690249 1457436.626778))","attributes":{"title":"El Obeid to Um Deressaya","distance":"551.888085"}},{"from_stop_id":480,"to_stop_id":300,"geometry":"MULTILINESTRING((3366846.196126 1478892.266091,2836776.614012 1463521.914265))","attributes":{"title":"El Obeid to Um Dul","distance":"515.905471"}},{"from_stop_id":480,"to_stop_id":299,"geometry":"MULTILINESTRING((3366846.196126 1478892.266091,2886445.378185 1525996.49284))","attributes":{"distance":"469.082588","title":"El Obeid to Um Dum Area"}},{"from_stop_id":480,"to_stop_id":298,"geometry":"MULTILINESTRING((3366846.196126 1478892.266091,2771855.320753 1532183.074996))","attributes":{"distance":"580.445151","title":"El Obeid to Um Gelbag"}},{"from_stop_id":480,"to_stop_id":297,"geometry":"MULTILINESTRING((3366846.196126 1478892.266091,2690703.411964 1682516.752635))","attributes":{"title":"El Obeid to Um Haraz","distance":"684.183486"}},{"from_stop_id":480,"to_stop_id":296,"geometry":"MULTILINESTRING((3366846.196126 1478892.266091,2971245.293479 1528647.630543))","attributes":{"distance":"387.448480","title":"El Obeid to Um Kadada"}},{"from_stop_id":480,"to_stop_id":295,"geometry":"MULTILINESTRING((3366846.196126 1478892.266091,2802134.222248 1481219.008213))","attributes":{"title":"El Obeid to Um Khair","distance":"549.221599"}},{"from_stop_id":480,"to_stop_id":294,"geometry":"MULTILINESTRING((3366846.196126 1478892.266091,2791002.273169 1499633.010861))","attributes":{"title":"El Obeid to Um Laota","distance":"560.220931"}},{"from_stop_id":480,"to_stop_id":293,"geometry":"MULTILINESTRING((3366846.196126 1478892.266091,2753710.243753 1573528.19284))","attributes":{"title":"El Obeid to Um layona","distance":"602.356434"}},{"from_stop_id":480,"to_stop_id":292,"geometry":"MULTILINESTRING((3366846.196126 1478892.266091,2702837.236461 1658103.120573))","attributes":{"distance":"666.698793","title":"El Obeid to Um Mahareik"}},{"from_stop_id":480,"to_stop_id":291,"geometry":"MULTILINESTRING((3366846.196126 1478892.266091,2702846.709749 1658049.068564))","attributes":{"title":"El Obeid to Um Marahik Area","distance":"666.676970"}},{"from_stop_id":480,"to_stop_id":290,"geometry":"MULTILINESTRING((3366846.196126 1478892.266091,2771076.084317 1651428.070852))","attributes":{"distance":"601.330024","title":"El Obeid to Um Rai"}},{"from_stop_id":480,"to_stop_id":289,"geometry":"MULTILINESTRING((3366846.196126 1478892.266091,2796289.948982 1503313.469713))","attributes":{"distance":"555.188229","title":"El Obeid to Um Sayalla - Alein"}},{"from_stop_id":480,"to_stop_id":288,"geometry":"MULTILINESTRING((3366846.196126 1478892.266091,2706399.460166 1646020.276708))","attributes":{"title":"El Obeid to Um Shidiq","distance":"660.548380"}},{"from_stop_id":480,"to_stop_id":287,"geometry":"MULTILINESTRING((3366846.196126 1478892.266091,2799907.832432 1623021.278636))","attributes":{"distance":"567.436265","title":"El Obeid to Um Sidr"}},{"from_stop_id":480,"to_stop_id":286,"geometry":"MULTILINESTRING((3366846.196126 1478892.266091,2619681.576838 1723798.498982))","attributes":{"title":"El Obeid to Uru","distance":"761.211357"}},{"from_stop_id":480,"to_stop_id":285,"geometry":"MULTILINESTRING((3366846.196126 1478892.266091,2866572.132883 1465043.377685))","attributes":{"title":"El Obeid to Wadi Kota","distance":"486.875641"}},{"from_stop_id":480,"to_stop_id":284,"geometry":"MULTILINESTRING((3366846.196126 1478892.266091,2920912.118925 1666161.581909))","attributes":{"title":"El Obeid to Wadi Osher","distance":"468.777680"}},{"from_stop_id":480,"to_stop_id":283,"geometry":"MULTILINESTRING((3366846.196126 1478892.266091,2825429.283982 1732565.462848))","attributes":{"distance":"578.746041","title":"El Obeid to Wakahem"}},{"from_stop_id":480,"to_stop_id":282,"geometry":"MULTILINESTRING((3366846.196126 1478892.266091,2838535.695738 1561828.894008))","attributes":{"title":"El Obeid to Wama","distance":"519.345884"}},{"from_stop_id":480,"to_stop_id":281,"geometry":"MULTILINESTRING((3366846.196126 1478892.266091,2817384.992487 1514739.361421))","attributes":{"distance":"535.197883","title":"El Obeid to Zam Zam Camp"}},{"from_stop_id":480,"to_stop_id":280,"geometry":"MULTILINESTRING((3366846.196126 1478892.266091,2817384.992487 1514739.361421))","attributes":{"distance":"535.197883","title":"El Obeid to Zam Zam Camp"}},{"from_stop_id":480,"to_stop_id":279,"geometry":"MULTILINESTRING((3366846.196126 1478892.266091,2702725.91697 1404261.545057))","attributes":{"title":"El Obeid to A\/Jabar A","distance":"650.839543"}},{"from_stop_id":480,"to_stop_id":278,"geometry":"MULTILINESTRING((3366846.196126 1478892.266091,2746923.461754 1299880.186084))","attributes":{"distance":"629.503717","title":"El Obeid to Abu ajoura"}},{"from_stop_id":480,"to_stop_id":277,"geometry":"MULTILINESTRING((3366846.196126 1478892.266091,2976683.183812 1238911.677171))","attributes":{"distance":"447.327263","title":"El Obeid to Abu Jabra (Buram)"}},{"from_stop_id":480,"to_stop_id":276,"geometry":"MULTILINESTRING((3366846.196126 1478892.266091,2989373.605763 1239592.241183))","attributes":{"title":"El Obeid to Abu Jabra (Ed Daein)","distance":"436.458603"}},{"from_stop_id":480,"to_stop_id":275,"geometry":"MULTILINESTRING((3366846.196126 1478892.266091,2953940.82335 1298719.904007))","attributes":{"title":"El Obeid to Abu karinka HC","distance":"439.520977"}},{"from_stop_id":480,"to_stop_id":274,"geometry":"MULTILINESTRING((3366846.196126 1478892.266091,2916793.297765 1230519.197251))","attributes":{"title":"El Obeid to Abu Matariq IDPs","distance":"502.062781"}},{"from_stop_id":480,"to_stop_id":273,"geometry":"MULTILINESTRING((3366846.196126 1478892.266091,2794675.816365 1365744.914284))","attributes":{"title":"El Obeid to Abu Odam","distance":"568.390359"}},{"from_stop_id":480,"to_stop_id":272,"geometry":"MULTILINESTRING((3366846.196126 1478892.266091,2751421.1588 1253229.120235))","attributes":{"distance":"639.982671","title":"El Obeid to Abu Sallala"}},{"from_stop_id":480,"to_stop_id":271,"geometry":"MULTILINESTRING((3366846.196126 1478892.266091,3015533.686099 1267053.362813))","attributes":{"distance":"400.446868","title":"El Obeid to Adilla IDPs"}},{"from_stop_id":480,"to_stop_id":270,"geometry":"MULTILINESTRING((3366846.196126 1478892.266091,2878288.420234 1396198.942703))","attributes":{"distance":"482.632542","title":"El Obeid to Ajara"}},{"from_stop_id":480,"to_stop_id":269,"geometry":"MULTILINESTRING((3366846.196126 1478892.266091,2703616.472896 1402551.167915))","attributes":{"title":"El Obeid to Al Battery","distance":"650.185321"}},{"from_stop_id":480,"to_stop_id":268,"geometry":"MULTILINESTRING((3366846.196126 1478892.266091,2871374.945522 1242881.830551))","attributes":{"distance":"535.916208","title":"El Obeid to Al Firdos"}},{"from_stop_id":480,"to_stop_id":267,"geometry":"MULTILINESTRING((3366846.196126 1478892.266091,3010969.586976 1260696.678979))","attributes":{"title":"El Obeid to Al Gora IDPs","distance":"407.519237"}},{"from_stop_id":480,"to_stop_id":266,"geometry":"MULTILINESTRING((3366846.196126 1478892.266091,2768627.05552 1450137.089538))","attributes":{"distance":"582.797034","title":"El Obeid to Al Malam"}},{"from_stop_id":480,"to_stop_id":265,"geometry":"MULTILINESTRING((3366846.196126 1478892.266091,2907108.502066 1285449.360492))","attributes":{"title":"El Obeid to Al Mashroot","distance":"486.723750"}},{"from_stop_id":480,"to_stop_id":264,"geometry":"MULTILINESTRING((3366846.196126 1478892.266091,3002954.583639 1297832.84591))","attributes":{"title":"El Obeid to Al Mazroub HC","distance":"396.546017"}},{"from_stop_id":480,"to_stop_id":263,"geometry":"MULTILINESTRING((3366846.196126 1478892.266091,2980690.685481 1293515.121826))","attributes":{"title":"El Obeid to Al Neem","distance":"417.940872"}},{"from_stop_id":480,"to_stop_id":262,"geometry":"MULTILINESTRING((3366846.196126 1478892.266091,2848962.625086 1272094.823588))","attributes":{"title":"El Obeid to Al Rouse","distance":"544.286448"}},{"from_stop_id":480,"to_stop_id":261,"geometry":"MULTILINESTRING((3366846.196126 1478892.266091,2735946.992607 1287164.584579))","attributes":{"distance":"643.429838","title":"El Obeid to Al Safia"}},{"from_stop_id":480,"to_stop_id":260,"geometry":"MULTILINESTRING((3366846.196126 1478892.266091,2938723.237452 1317042.491934))","attributes":{"distance":"446.401969","title":"El Obeid to Al Sahab"}},{"from_stop_id":480,"to_stop_id":259,"geometry":"MULTILINESTRING((3366846.196126 1478892.266091,2772968.51566 1357318.867697))","attributes":{"title":"El Obeid to Al Salam","distance":"590.832615"}},{"from_stop_id":480,"to_stop_id":258,"geometry":"MULTILINESTRING((3366846.196126 1478892.266091,2754155.521716 1367680.958858))","attributes":{"distance":"606.815209","title":"El Obeid to Amakasara"}},{"from_stop_id":480,"to_stop_id":257,"geometry":"MULTILINESTRING((3366846.196126 1478892.266091,2734785.930318 1355725.013695))","attributes":{"distance":"627.646717","title":"El Obeid to Amar Jaded"}},{"from_stop_id":480,"to_stop_id":256,"geometry":"MULTILINESTRING((3366846.196126 1478892.266091,2661982.98334 1369161.547277))","attributes":{"distance":"695.132055","title":"El Obeid to Ardeba"}},{"from_stop_id":480,"to_stop_id":255,"geometry":"MULTILINESTRING((3366846.196126 1478892.266091,2864027.859129 1275000.965623))","attributes":{"distance":"529.561515","title":"El Obeid to Assalaya"}},{"from_stop_id":480,"to_stop_id":254,"geometry":"MULTILINESTRING((3366846.196126 1478892.266091,2716752.17281 1359823.664175))","attributes":{"title":"El Obeid to Azomri","distance":"644.131036"}},{"from_stop_id":480,"to_stop_id":253,"geometry":"MULTILINESTRING((3366846.196126 1478892.266091,2957981.509359 1277272.067658))","attributes":{"title":"El Obeid to Bakhit","distance":"444.917444"}},{"from_stop_id":480,"to_stop_id":252,"geometry":"MULTILINESTRING((3366846.196126 1478892.266091,2785992.896083 1345480.796385))","attributes":{"distance":"580.991874","title":"El Obeid to Bileil"}},{"from_stop_id":480,"to_stop_id":251,"geometry":"MULTILINESTRING((3366846.196126 1478892.266091,2788553.244372 1330803.374034))","attributes":{"distance":"582.086456","title":"El Obeid to Couka"}},{"from_stop_id":480,"to_stop_id":250,"geometry":"MULTILINESTRING((3366846.196126 1478892.266091,2647734.088518 1352423.724175))","attributes":{"title":"El Obeid to Dagadousa","distance":"711.699370"}},{"from_stop_id":480,"to_stop_id":249,"geometry":"MULTILINESTRING((3366846.196126 1478892.266091,2739461.348932 1346618.873398))","attributes":{"title":"El Obeid to Dalal Angra","distance":"625.041196"}},{"from_stop_id":480,"to_stop_id":248,"geometry":"MULTILINESTRING((3366846.196126 1478892.266091,2942062.822175 1280338.308985))","attributes":{"title":"El Obeid to Dar Alsalam","distance":"457.604542"}},{"from_stop_id":480,"to_stop_id":247,"geometry":"MULTILINESTRING((3366846.196126 1478892.266091,2774526.988532 1354358.919508))","attributes":{"distance":"589.960988","title":"El Obeid to Dereige"}},{"from_stop_id":480,"to_stop_id":246,"geometry":"MULTILINESTRING((3366846.196126 1478892.266091,2696861.539403 1410814.795263))","attributes":{"distance":"655.764707","title":"El Obeid to Dibis"}},{"from_stop_id":480,"to_stop_id":245,"geometry":"MULTILINESTRING((3366846.196126 1478892.266091,2748984.731369 1311406.896029))","attributes":{"distance":"624.416999","title":"El Obeid to Dimo"}},{"from_stop_id":480,"to_stop_id":244,"geometry":"MULTILINESTRING((3366846.196126 1478892.266091,2736229.748567 1226419.396485))","attributes":{"distance":"663.489400","title":"El Obeid to Dimso"}},{"from_stop_id":480,"to_stop_id":243,"geometry":"MULTILINESTRING((3366846.196126 1478892.266091,2980468.046499 1292833.42942))","attributes":{"distance":"418.429546","title":"El Obeid to Direga"}},{"from_stop_id":480,"to_stop_id":242,"geometry":"MULTILINESTRING((3366846.196126 1478892.266091,2811039.781512 1281587.602093))","attributes":{"title":"El Obeid to Dito","distance":"575.568692"}},{"from_stop_id":480,"to_stop_id":241,"geometry":"MULTILINESTRING((3366846.196126 1478892.266091,2742149.848218 1290773.398034))","attributes":{"title":"El Obeid to Domaya","distance":"636.579274"}},{"from_stop_id":480,"to_stop_id":240,"geometry":"MULTILINESTRING((3366846.196126 1478892.266091,2790487.231281 1291376.66749))","attributes":{"title":"El Obeid to Donkey Dressa","distance":"591.387525"}},{"from_stop_id":480,"to_stop_id":239,"geometry":"MULTILINESTRING((3366846.196126 1478892.266091,2786215.535065 1340359.971657))","attributes":{"title":"El Obeid to Draib El Raih","distance":"581.968715"}},{"from_stop_id":480,"to_stop_id":238,"geometry":"MULTILINESTRING((3366846.196126 1478892.266091,2685360.076406 1426163.195135))","attributes":{"distance":"665.410173","title":"El Obeid to Dugu camp"}},{"from_stop_id":480,"to_stop_id":237,"geometry":"MULTILINESTRING((3366846.196126 1478892.266091,2767959.138575 1404945.723735))","attributes":{"title":"El Obeid to Duma Adwa","distance":"587.664353"}},{"from_stop_id":480,"to_stop_id":236,"geometry":"MULTILINESTRING((3366846.196126 1478892.266091,2839203.612682 1402209.104401))","attributes":{"distance":"519.277696","title":"El Obeid to Duma Duma"}},{"from_stop_id":480,"to_stop_id":235,"geometry":"MULTILINESTRING((3366846.196126 1478892.266091,2802468.180721 1329324.640425))","attributes":{"distance":"569.334334","title":"El Obeid to Dwana"}},{"from_stop_id":480,"to_stop_id":234,"geometry":"MULTILINESTRING((3366846.196126 1478892.266091,2911004.684244 1280906.163477))","attributes":{"distance":"485.006735","title":"El Obeid to Ed Daein Town"}},{"from_stop_id":480,"to_stop_id":233,"geometry":"MULTILINESTRING((3366846.196126 1478892.266091,2895762.50787 1328471.522802))","attributes":{"title":"El Obeid to El Ardieb","distance":"482.222009"}},{"from_stop_id":480,"to_stop_id":232,"geometry":"MULTILINESTRING((3366846.196126 1478892.266091,2951413.659402 1320226.288523))","attributes":{"distance":"433.706055","title":"El Obeid to El Fwileh"}},{"from_stop_id":480,"to_stop_id":231,"geometry":"MULTILINESTRING((3366846.196126 1478892.266091,2702948.555951 1403577.382281))","attributes":{"distance":"650.706555","title":"El Obeid to El Thanawia Banat"}},{"from_stop_id":480,"to_stop_id":230,"geometry":"MULTILINESTRING((3366846.196126 1478892.266091,2719813.458807 1194752.107112))","attributes":{"title":"El Obeid to El Tomat","distance":"690.591713"}},{"from_stop_id":480,"to_stop_id":229,"geometry":"MULTILINESTRING((3366846.196126 1478892.266091,2745806.559907 1346960.304739))","attributes":{"distance":"618.917468","title":"El Obeid to Elban Jadied"}},{"from_stop_id":480,"to_stop_id":228,"geometry":"MULTILINESTRING((3366846.196126 1478892.266091,2708403.211 1409621.370951))","attributes":{"distance":"644.718844","title":"El Obeid to Erly"}},{"from_stop_id":480,"to_stop_id":227,"geometry":"MULTILINESTRING((3366846.196126 1478892.266091,2788775.883353 1371325.61494))","attributes":{"distance":"572.957396","title":"El Obeid to Fasha"}},{"from_stop_id":480,"to_stop_id":226,"geometry":"MULTILINESTRING((3366846.196126 1478892.266091,2786215.535065 1340359.971657))","attributes":{"distance":"581.968715","title":"El Obeid to Gadi"}},{"from_stop_id":480,"to_stop_id":225,"geometry":"MULTILINESTRING((3366846.196126 1478892.266091,2799409.399412 1263072.458079))","attributes":{"distance":"592.635280","title":"El Obeid to Gereida"}},{"from_stop_id":480,"to_stop_id":224,"geometry":"MULTILINESTRING((3366846.196126 1478892.266091,2798571.998543 1263307.309901))","attributes":{"distance":"593.315770","title":"El Obeid to Gereida Camp"}},{"from_stop_id":480,"to_stop_id":223,"geometry":"MULTILINESTRING((3366846.196126 1478892.266091,2784211.784231 1409393.273323))","attributes":{"distance":"571.386401","title":"El Obeid to Goruf"}},{"from_stop_id":480,"to_stop_id":222,"geometry":"MULTILINESTRING((3366846.196126 1478892.266091,2766734.624176 1373717.660114))","attributes":{"distance":"593.653789","title":"El Obeid to Halouf"}},{"from_stop_id":480,"to_stop_id":221,"geometry":"MULTILINESTRING((3366846.196126 1478892.266091,2709553.308319 1422352.42675))","attributes":{"distance":"642.281884","title":"El Obeid to Hashaba"}},{"from_stop_id":480,"to_stop_id":220,"geometry":"MULTILINESTRING((3366846.196126 1478892.266091,2790445.675715 1196177.176851))","attributes":{"distance":"627.379682","title":"El Obeid to Heriga"}},{"from_stop_id":480,"to_stop_id":219,"geometry":"MULTILINESTRING((3366846.196126 1478892.266091,2514373.338548 1585117.908152))","attributes":{"distance":"833.888876","title":"El Obeid to Higliega"}},{"from_stop_id":480,"to_stop_id":218,"geometry":"MULTILINESTRING((3366846.196126 1478892.266091,2801800.263776 1322045.746446))","attributes":{"distance":"571.890769","title":"El Obeid to Hijaar"}},{"from_stop_id":480,"to_stop_id":217,"geometry":"MULTILINESTRING((3366846.196126 1478892.266091,2968000.26353 1280338.308985))","attributes":{"distance":"434.805757","title":"El Obeid to Hilal"}},{"from_stop_id":480,"to_stop_id":216,"geometry":"MULTILINESTRING((3366846.196126 1478892.266091,2901987.80549 1301128.345789))","attributes":{"title":"El Obeid to Hilat Ali","distance":"485.535437"}},{"from_stop_id":480,"to_stop_id":215,"geometry":"MULTILINESTRING((3366846.196126 1478892.266091,2715082.380448 1347301.739884))","attributes":{"title":"El Obeid to Hilat Hosa","distance":"648.173454"}},{"from_stop_id":480,"to_stop_id":214,"geometry":"MULTILINESTRING((3366846.196126 1478892.266091,2690814.731455 1380097.378556))","attributes":{"title":"El Obeid to Humira School","distance":"665.637899"}},{"from_stop_id":480,"to_stop_id":213,"geometry":"MULTILINESTRING((3366846.196126 1478892.266091,2974122.835524 1309652.78154))","attributes":{"title":"El Obeid to Jad Elseid IDPs","distance":"417.137680"}},{"from_stop_id":480,"to_stop_id":212,"geometry":"MULTILINESTRING((3366846.196126 1478892.266091,2974122.835524 1309652.78154))","attributes":{"title":"El Obeid to Jad Elseid(Alnair)","distance":"417.137680"}},{"from_stop_id":480,"to_stop_id":211,"geometry":"MULTILINESTRING((3366846.196126 1478892.266091,2756131.739901 1242861.166374))","attributes":{"title":"El Obeid to Jidad","distance":"639.352486"}},{"from_stop_id":480,"to_stop_id":210,"geometry":"MULTILINESTRING((3366846.196126 1478892.266091,2815047.28318 1244696.916125))","attributes":{"title":"El Obeid to Joghana","distance":"585.338791"}},{"from_stop_id":480,"to_stop_id":209,"geometry":"MULTILINESTRING((3366846.196126 1478892.266091,2784657.062194 1346277.44586))","attributes":{"distance":"582.080312","title":"El Obeid to Kalma"}},{"from_stop_id":480,"to_stop_id":208,"geometry":"MULTILINESTRING((3366846.196126 1478892.266091,2820056.660266 1417035.511352))","attributes":{"title":"El Obeid to Karumji","distance":"535.785120"}},{"from_stop_id":480,"to_stop_id":207,"geometry":"MULTILINESTRING((3366846.196126 1478892.266091,2703954.884148 1402910.338877))","attributes":{"distance":"649.813958","title":"El Obeid to Kass Town (New Arrivals from WD)"}},{"from_stop_id":480,"to_stop_id":206,"geometry":"MULTILINESTRING((3366846.196126 1478892.266091,2703393.833915 1403235.306853))","attributes":{"title":"El Obeid to Kass Town (New Arrivals)","distance":"650.317198"}},{"from_stop_id":480,"to_stop_id":205,"geometry":"MULTILINESTRING((3366846.196126 1478892.266091,2793896.57993 1403919.461682))","attributes":{"distance":"562.743331","title":"El Obeid to Keri Kier"}},{"from_stop_id":480,"to_stop_id":204,"geometry":"MULTILINESTRING((3366846.196126 1478892.266091,2813043.532346 1419431.251251))","attributes":{"title":"El Obeid to Khor Abechi","distance":"542.294011"}},{"from_stop_id":480,"to_stop_id":203,"geometry":"MULTILINESTRING((3366846.196126 1478892.266091,2912785.796097 1276590.720279))","attributes":{"title":"El Obeid to Khor Omer","distance":"485.145767"}},{"from_stop_id":480,"to_stop_id":202,"geometry":"MULTILINESTRING((3366846.196126 1478892.266091,2701078.388506 1408070.342051))","attributes":{"title":"El Obeid to Kideka","distance":"651.988152"}},{"from_stop_id":480,"to_stop_id":201,"geometry":"MULTILINESTRING((3366846.196126 1478892.266091,2763506.358943 1428445.564375))","attributes":{"distance":"589.380865","title":"El Obeid to Koroly"}},{"from_stop_id":480,"to_stop_id":200,"geometry":"MULTILINESTRING((3366846.196126 1478892.266091,2649737.839352 1317838.410716))","attributes":{"title":"El Obeid to Kubum","distance":"716.816134"}},{"from_stop_id":480,"to_stop_id":199,"geometry":"MULTILINESTRING((3366846.196126 1478892.266091,2829296.178002 1296696.545926))","attributes":{"title":"El Obeid to Labado","distance":"553.766446"}},{"from_stop_id":480,"to_stop_id":198,"geometry":"MULTILINESTRING((3366846.196126 1478892.266091,2708757.129057 1415989.855386))","attributes":{"title":"El Obeid to Limo","distance":"643.685279"}},{"from_stop_id":480,"to_stop_id":197,"geometry":"MULTILINESTRING((3366846.196126 1478892.266091,2785658.937611 1324547.674321))","attributes":{"distance":"586.418011","title":"El Obeid to Magarine"}},{"from_stop_id":480,"to_stop_id":196,"geometry":"MULTILINESTRING((3366846.196126 1478892.266091,2813934.088272 1328755.915488))","attributes":{"title":"El Obeid to Marla South","distance":"558.684838"}},{"from_stop_id":480,"to_stop_id":195,"geometry":"MULTILINESTRING((3366846.196126 1478892.266091,2780426.921544 1422283.5795))","attributes":{"distance":"573.575734","title":"El Obeid to Menawashi"}},{"from_stop_id":480,"to_stop_id":194,"geometry":"MULTILINESTRING((3366846.196126 1478892.266091,2798683.318034 1390923.22908))","attributes":{"distance":"560.043395","title":"El Obeid to Merier"}},{"from_stop_id":480,"to_stop_id":193,"geometry":"MULTILINESTRING((3366846.196126 1478892.266091,2772189.279225 1428217.319359))","attributes":{"distance":"580.979601","title":"El Obeid to Mershing"}},{"from_stop_id":480,"to_stop_id":192,"geometry":"MULTILINESTRING((3366846.196126 1478892.266091,2709627.725399 1354131.243096))","attributes":{"distance":"652.036642","title":"El Obeid to Moaro"}},{"from_stop_id":480,"to_stop_id":191,"geometry":"MULTILINESTRING((3366846.196126 1478892.266091,2769740.250427 1346163.637525))","attributes":{"distance":"596.292111","title":"El Obeid to Mosey"}},{"from_stop_id":480,"to_stop_id":190,"geometry":"MULTILINESTRING((3366846.196126 1478892.266091,2851560.07616 1342749.583707))","attributes":{"distance":"519.592176","title":"El Obeid to Muhajeria"}},{"from_stop_id":480,"to_stop_id":189,"geometry":"MULTILINESTRING((3366846.196126 1478892.266091,2728261.739866 1349215.565706))","attributes":{"distance":"635.191248","title":"El Obeid to Narri"}},{"from_stop_id":480,"to_stop_id":188,"geometry":"MULTILINESTRING((3366846.196126 1478892.266091,2828404.698124 1447506.906199))","attributes":{"distance":"524.871064","title":"El Obeid to Negaia"}},{"from_stop_id":480,"to_stop_id":187,"geometry":"MULTILINESTRING((3366846.196126 1478892.266091,2728885.997306 1407340.474456))","attributes":{"distance":"625.155236","title":"El Obeid to Neima"}},{"from_stop_id":480,"to_stop_id":186,"geometry":"MULTILINESTRING((3366846.196126 1478892.266091,2722954.894837 1208883.078325))","attributes":{"distance":"682.172271","title":"El Obeid to Nekhara"}},{"from_stop_id":480,"to_stop_id":185,"geometry":"MULTILINESTRING((3366846.196126 1478892.266091,2841430.002498 1414868.106647))","attributes":{"distance":"515.382904","title":"El Obeid to Netiga"}},{"from_stop_id":480,"to_stop_id":184,"geometry":"MULTILINESTRING((3366846.196126 1478892.266091,2691371.328909 1379413.772365))","attributes":{"distance":"665.205842","title":"El Obeid to Nyamma"}},{"from_stop_id":480,"to_stop_id":183,"geometry":"MULTILINESTRING((3366846.196126 1478892.266091,2691371.328909 1379413.772365))","attributes":{"title":"El Obeid to Otash","distance":"665.205842"}},{"from_stop_id":480,"to_stop_id":182,"geometry":"MULTILINESTRING((3366846.196126 1478892.266091,2817496.311978 1292833.42942))","attributes":{"distance":"565.915223","title":"El Obeid to Rajella"}},{"from_stop_id":480,"to_stop_id":181,"geometry":"MULTILINESTRING((3366846.196126 1478892.266091,2750228.600888 1223305.271746))","attributes":{"distance":"652.006769","title":"El Obeid to Rajraj"}},{"from_stop_id":480,"to_stop_id":180,"geometry":"MULTILINESTRING((3366846.196126 1478892.266091,2766289.346213 1343773.760001))","attributes":{"title":"El Obeid to Sakeley","distance":"600.107597"}},{"from_stop_id":480,"to_stop_id":179,"geometry":"MULTILINESTRING((3366846.196126 1478892.266091,2829296.178002 1315337.019766))","attributes":{"distance":"548.030274","title":"El Obeid to Sania Afandu"}},{"from_stop_id":480,"to_stop_id":178,"geometry":"MULTILINESTRING((3366846.196126 1478892.266091,2765612.30107 1316111.861119))","attributes":{"distance":"607.515737","title":"El Obeid to Sania Deliba"}},{"from_stop_id":480,"to_stop_id":177,"geometry":"MULTILINESTRING((3366846.196126 1478892.266091,2691371.328909 1379413.772365))","attributes":{"distance":"665.205842","title":"El Obeid to Savana A"}},{"from_stop_id":480,"to_stop_id":176,"geometry":"MULTILINESTRING((3366846.196126 1478892.266091,2691371.328909 1379413.772365))","attributes":{"distance":"665.205842","title":"El Obeid to Savana B"}},{"from_stop_id":480,"to_stop_id":175,"geometry":"MULTILINESTRING((3366846.196126 1478892.266091,2762949.761489 1346277.44586))","attributes":{"distance":"602.730562","title":"El Obeid to Serif Camp"}},{"from_stop_id":480,"to_stop_id":174,"geometry":"MULTILINESTRING((3366846.196126 1478892.266091,2768414.691327 1364643.80438))","attributes":{"distance":"593.727478","title":"El Obeid to Shadida"}},{"from_stop_id":480,"to_stop_id":173,"geometry":"MULTILINESTRING((3366846.196126 1478892.266091,2850558.200743 1398104.651552))","attributes":{"distance":"508.975749","title":"El Obeid to Shaeria Town"}},{"from_stop_id":480,"to_stop_id":172,"geometry":"MULTILINESTRING((3366846.196126 1478892.266091,3014887.409663 1291091.396564))","attributes":{"distance":"389.253673","title":"El Obeid to Shag Tayeeb"}},{"from_stop_id":480,"to_stop_id":171,"geometry":"MULTILINESTRING((3366846.196126 1478892.266091,3026665.635178 1261945.215555))","attributes":{"distance":"393.872953","title":"El Obeid to Sharif IDPs"}},{"from_stop_id":480,"to_stop_id":170,"geometry":"MULTILINESTRING((3366846.196126 1478892.266091,2860799.593896 1308288.717157))","attributes":{"distance":"520.928065","title":"El Obeid to Silia"}},{"from_stop_id":480,"to_stop_id":169,"geometry":"MULTILINESTRING((3366846.196126 1478892.266091,2996275.414192 1310448.513041))","attributes":{"distance":"397.058508","title":"El Obeid to Taalba"}},{"from_stop_id":480,"to_stop_id":168,"geometry":"MULTILINESTRING((3366846.196126 1478892.266091,2786816.036926 1325250.59298))","attributes":{"title":"El Obeid to Tabeldiat","distance":"585.144764"}},{"from_stop_id":480,"to_stop_id":167,"geometry":"MULTILINESTRING((3366846.196126 1478892.266091,2808479.433223 1375768.135999))","attributes":{"distance":"553.248958","title":"El Obeid to Taisha"}},{"from_stop_id":480,"to_stop_id":166,"geometry":"MULTILINESTRING((3366846.196126 1478892.266091,2694377.033084 1419713.813234))","attributes":{"distance":"657.253621","title":"El Obeid to Taringa"}},{"from_stop_id":480,"to_stop_id":165,"geometry":"MULTILINESTRING((3366846.196126 1478892.266091,2705612.79872 1397800.636896))","attributes":{"title":"El Obeid to Tartur","distance":"648.854100"}},{"from_stop_id":480,"to_stop_id":164,"geometry":"MULTILINESTRING((3366846.196126 1478892.266091,2683467.645063 1443057.001337))","attributes":{"title":"El Obeid to Thur East & West","distance":"665.986208"}},{"from_stop_id":480,"to_stop_id":163,"geometry":"MULTILINESTRING((3366846.196126 1478892.266091,2742800.933655 1328073.45931))","attributes":{"distance":"626.049605","title":"El Obeid to Timbisco"}},{"from_stop_id":480,"to_stop_id":162,"geometry":"MULTILINESTRING((3366846.196126 1478892.266091,2729219.955779 1256724.379621))","attributes":{"distance":"659.206986","title":"El Obeid to Tiwal"}},{"from_stop_id":480,"to_stop_id":161,"geometry":"MULTILINESTRING((3366846.196126 1478892.266091,2804471.931555 1381806.46235))","attributes":{"distance":"556.000610","title":"El Obeid to Um Alkhirat"}},{"from_stop_id":480,"to_stop_id":160,"geometry":"MULTILINESTRING((3366846.196126 1478892.266091,2888184.188631 1313859.0189))","attributes":{"distance":"493.845941","title":"El Obeid to Um Boim"}},{"from_stop_id":480,"to_stop_id":159,"geometry":"MULTILINESTRING((3366846.196126 1478892.266091,2943509.975556 1274660.314084))","attributes":{"distance":"458.748453","title":"El Obeid to Um Gogaya"}},{"from_stop_id":480,"to_stop_id":158,"geometry":"MULTILINESTRING((3366846.196126 1478892.266091,2801354.985813 1345708.408409))","attributes":{"distance":"566.353428","title":"El Obeid to Um Kurdos"}},{"from_stop_id":480,"to_stop_id":157,"geometry":"MULTILINESTRING((3366846.196126 1478892.266091,2669775.347695 1349464.25086))","attributes":{"distance":"691.106184","title":"El Obeid to Um Labasa"}},{"from_stop_id":480,"to_stop_id":156,"geometry":"MULTILINESTRING((3366846.196126 1478892.266091,2869347.639483 1405525.828494))","attributes":{"title":"El Obeid to Um Lawaya","distance":"489.734362"}},{"from_stop_id":480,"to_stop_id":155,"geometry":"MULTILINESTRING((3366846.196126 1478892.266091,2788330.60539 1321136.004235))","attributes":{"distance":"584.800087","title":"El Obeid to Um-Kunya"}},{"from_stop_id":480,"to_stop_id":154,"geometry":"MULTILINESTRING((3366846.196126 1478892.266091,2965355.791103 1267598.040745))","attributes":{"distance":"442.861392","title":"El Obeid to Umrakuba"}},{"from_stop_id":480,"to_stop_id":153,"geometry":"MULTILINESTRING((3366846.196126 1478892.266091,2861133.552369 1419773.515885))","attributes":{"title":"El Obeid to Umridim","distance":"495.724766"}},{"from_stop_id":480,"to_stop_id":152,"geometry":"MULTILINESTRING((3366846.196126 1478892.266091,2766289.346213 1343773.760001))","attributes":{"distance":"600.107597","title":"El Obeid to Umsauna"}},{"from_stop_id":480,"to_stop_id":151,"geometry":"MULTILINESTRING((3366846.196126 1478892.266091,2839203.612682 1402209.104401))","attributes":{"title":"El Obeid to Wad al mairam","distance":"519.277696"}},{"from_stop_id":480,"to_stop_id":150,"geometry":"MULTILINESTRING((3366846.196126 1478892.266091,3016947.443632 1301999.630912))","attributes":{"distance":"382.494187","title":"El Obeid to Wad Joda"}},{"from_stop_id":480,"to_stop_id":149,"geometry":"MULTILINESTRING((3366846.196126 1478892.266091,2864343.884032 1287925.037541))","attributes":{"distance":"524.552541","title":"El Obeid to Wazazeen"}},{"from_stop_id":480,"to_stop_id":148,"geometry":"MULTILINESTRING((3366846.196126 1478892.266091,2704284.389841 1403235.306853))","attributes":{"title":"El Obeid to Yahia Hajar","distance":"649.455526"}},{"from_stop_id":480,"to_stop_id":147,"geometry":"MULTILINESTRING((3366846.196126 1478892.266091,2784211.784231 1409393.273323))","attributes":{"distance":"571.386401","title":"El Obeid to Yara"}},{"from_stop_id":480,"to_stop_id":146,"geometry":"MULTILINESTRING((3366846.196126 1478892.266091,2837533.820321 1296810.174097))","attributes":{"distance":"546.123945","title":"El Obeid to Yassin"}},{"from_stop_id":480,"to_stop_id":145,"geometry":"MULTILINESTRING((3366846.196126 1478892.266091,2772189.279225 1428217.319359))","attributes":{"title":"El Obeid to Zalata","distance":"580.979601"}},{"from_stop_id":480,"to_stop_id":144,"geometry":"MULTILINESTRING((3366846.196126 1478892.266091,3225591.450156 1343573.018757))","attributes":{"title":"El Obeid to Abo Jonok","distance":"190.702846"}},{"from_stop_id":480,"to_stop_id":143,"geometry":"MULTILINESTRING((3366846.196126 1478892.266091,3477174.612543 1283674.71127))","attributes":{"title":"El Obeid to Abu Jebeeha","distance":"218.826428"}},{"from_stop_id":480,"to_stop_id":142,"geometry":"MULTILINESTRING((3366846.196126 1478892.266091,3274648.391275 1233996.943559))","attributes":{"title":"El Obeid to Abu Sinun","distance":"255.566787"}},{"from_stop_id":480,"to_stop_id":141,"geometry":"MULTILINESTRING((3366846.196126 1478892.266091,3397099.831148 1264253.204374))","attributes":{"title":"El Obeid to Angerri","distance":"211.597480"}},{"from_stop_id":480,"to_stop_id":140,"geometry":"MULTILINESTRING((3366846.196126 1478892.266091,3455728.022086 1373793.639141))","attributes":{"distance":"134.120201","title":"El Obeid to Banat El Moreib"}},{"from_stop_id":480,"to_stop_id":139,"geometry":"MULTILINESTRING((3366846.196126 1478892.266091,3436061.652926 1213211.57496))","attributes":{"distance":"268.227912","title":"El Obeid to El Azraq"}},{"from_stop_id":480,"to_stop_id":138,"geometry":"MULTILINESTRING((3366846.196126 1478892.266091,3514044.073172 1179109.65375))","attributes":{"title":"El Obeid to Fungor","distance":"326.456558"}},{"from_stop_id":480,"to_stop_id":137,"geometry":"MULTILINESTRING((3366846.196126 1478892.266091,3398005.192567 1256019.630529))","attributes":{"title":"El Obeid to Heiban","distance":"219.708995"}},{"from_stop_id":480,"to_stop_id":136,"geometry":"MULTILINESTRING((3366846.196126 1478892.266091,3282986.332455 1308075.701098))","attributes":{"distance":"185.625290","title":"El Obeid to Julud"}},{"from_stop_id":480,"to_stop_id":135,"geometry":"MULTILINESTRING((3366846.196126 1478892.266091,3373162.244445 1366296.218818))","attributes":{"distance":"109.900534","title":"El Obeid to Kafeir"}},{"from_stop_id":480,"to_stop_id":134,"geometry":"MULTILINESTRING((3366846.196126 1478892.266091,3448130.800798 1324424.733992))","attributes":{"distance":"170.222939","title":"El Obeid to Kaloba"}},{"from_stop_id":480,"to_stop_id":133,"geometry":"MULTILINESTRING((3366846.196126 1478892.266091,3303309.597931 1209839.781308))","attributes":{"distance":"270.102505","title":"El Obeid to Katcha"}},{"from_stop_id":480,"to_stop_id":132,"geometry":"MULTILINESTRING((3366846.196126 1478892.266091,3506373.047061 1188438.329167))","attributes":{"distance":"314.932301","title":"El Obeid to Kau"}},{"from_stop_id":480,"to_stop_id":131,"geometry":"MULTILINESTRING((3366846.196126 1478892.266091,3396462.304424 1241634.016885))","attributes":{"distance":"233.489267","title":"El Obeid to Kauda"}},{"from_stop_id":480,"to_stop_id":130,"geometry":"MULTILINESTRING((3366846.196126 1478892.266091,3255766.267927 1307285.258137))","attributes":{"distance":"199.410543","title":"El Obeid to Kayo"}},{"from_stop_id":480,"to_stop_id":129,"geometry":"MULTILINESTRING((3366846.196126 1478892.266091,3306144.348764 1285199.467952))","attributes":{"distance":"198.079195","title":"El Obeid to Kega"}},{"from_stop_id":480,"to_stop_id":128,"geometry":"MULTILINESTRING((3366846.196126 1478892.266091,3475920.153202 1342642.160971))","attributes":{"distance":"170.153721","title":"El Obeid to Khor Fidaila"}},{"from_stop_id":480,"to_stop_id":127,"geometry":"MULTILINESTRING((3366846.196126 1478892.266091,3295056.927481 1219162.416969))","attributes":{"title":"El Obeid to Korongo Abdalla","distance":"263.239879"}},{"from_stop_id":480,"to_stop_id":126,"geometry":"MULTILINESTRING((3366846.196126 1478892.266091,3268651.944265 1347017.210333))","attributes":{"title":"El Obeid to Kujuria","distance":"160.281776"}},{"from_stop_id":480,"to_stop_id":125,"geometry":"MULTILINESTRING((3366846.196126 1478892.266091,3272830.877949 1226359.576393))","attributes":{"distance":"263.206761","title":"El Obeid to Lima"}},{"from_stop_id":480,"to_stop_id":124,"geometry":"MULTILINESTRING((3366846.196126 1478892.266091,3534393.832686 1336226.039126))","attributes":{"title":"El Obeid to Managir","distance":"214.562056"}},{"from_stop_id":480,"to_stop_id":123,"geometry":"MULTILINESTRING((3366846.196126 1478892.266091,3507627.840362 1191049.693361))","attributes":{"distance":"313.157795","title":"El Obeid to Niaro"}},{"from_stop_id":480,"to_stop_id":122,"geometry":"MULTILINESTRING((3366846.196126 1478892.266091,3365058.296835 1212663.243287))","attributes":{"distance":"260.107913","title":"El Obeid to Saraf El Gamos"}},{"from_stop_id":480,"to_stop_id":121,"geometry":"MULTILINESTRING((3366846.196126 1478892.266091,3361848.621957 1188663.599131))","attributes":{"title":"El Obeid to Taboli","distance":"283.698297"}},{"from_stop_id":480,"to_stop_id":120,"geometry":"MULTILINESTRING((3366846.196126 1478892.266091,3448801.38941 1216297.607722))","attributes":{"title":"El Obeid to Talodi","distance":"268.740202"}},{"from_stop_id":480,"to_stop_id":119,"geometry":"MULTILINESTRING((3366846.196126 1478892.266091,3267227.054783 1313480.093424))","attributes":{"distance":"188.342056","title":"El Obeid to Tebeik"}},{"from_stop_id":480,"to_stop_id":118,"geometry":"MULTILINESTRING((3366846.196126 1478892.266091,3500997.985448 1207545.07648))","attributes":{"title":"El Obeid to Tereida","distance":"295.755249"}},{"from_stop_id":480,"to_stop_id":117,"geometry":"MULTILINESTRING((3366846.196126 1478892.266091,3255440.547097 1308104.572987))","attributes":{"title":"El Obeid to Timma","distance":"198.910795"}},{"from_stop_id":480,"to_stop_id":116,"geometry":"MULTILINESTRING((3366846.196126 1478892.266091,3460180.801718 1345708.408409))","attributes":{"title":"El Obeid to Tongi","distance":"158.544973"}},{"from_stop_id":480,"to_stop_id":115,"geometry":"MULTILINESTRING((3366846.196126 1478892.266091,3460180.801718 1319165.024895))","attributes":{"distance":"180.428278","title":"El Obeid to Tosomi"}},{"from_stop_id":480,"to_stop_id":114,"geometry":"MULTILINESTRING((3366846.196126 1478892.266091,3343236.003096 1216392.821636))","attributes":{"distance":"257.478381","title":"El Obeid to Umm Dorain"}},{"from_stop_id":480,"to_stop_id":113,"geometry":"MULTILINESTRING((3366846.196126 1478892.266091,3419328.441028 1236992.561661))","attributes":{"title":"El Obeid to Umm Dordo","distance":"241.737387"}},{"from_stop_id":480,"to_stop_id":112,"geometry":"MULTILINESTRING((3366846.196126 1478892.266091,3347634.236177 1287257.731826))","attributes":{"title":"El Obeid to Umm Heitan","distance":"187.937109"}},{"from_stop_id":480,"to_stop_id":111,"geometry":"MULTILINESTRING((3366846.196126 1478892.266091,3340942.821586 1233206.829332))","attributes":{"distance":"241.282953","title":"El Obeid to Umm Serdiba"}},{"from_stop_id":480,"to_stop_id":110,"geometry":"MULTILINESTRING((3366846.196126 1478892.266091,3267455.371058 1327982.693768))","attributes":{"distance":"176.210167","title":"El Obeid to Wali"}},{"from_stop_id":480,"to_stop_id":109,"geometry":"MULTILINESTRING((3366846.196126 1478892.266091,3470582.272298 1165126.628759))","attributes":{"distance":"323.103572","title":"El Obeid to Warni"}},{"from_stop_id":480,"to_stop_id":108,"geometry":"MULTILINESTRING((3366846.196126 1478892.266091,2503797.986922 1425592.630903))","attributes":{"title":"El Obeid to Abu Dahiyia","distance":"841.775036"}},{"from_stop_id":480,"to_stop_id":107,"geometry":"MULTILINESTRING((3366846.196126 1478892.266091,2493333.954788 1557930.274245))","attributes":{"title":"El Obeid to Abu Sourouge","distance":"851.804660"}},{"from_stop_id":480,"to_stop_id":106,"geometry":"MULTILINESTRING((3366846.196126 1478892.266091,2497341.456456 1508901.832485))","attributes":{"distance":"845.708609","title":"El Obeid to Abu Zar"}},{"from_stop_id":480,"to_stop_id":105,"geometry":"MULTILINESTRING((3366846.196126 1478892.266091,2515820.491928 1526418.161798))","attributes":{"title":"El Obeid to Agoura","distance":"828.269342"}},{"from_stop_id":480,"to_stop_id":104,"geometry":"MULTILINESTRING((3366846.196126 1478892.266091,2614115.602298 1450251.298883))","attributes":{"title":"El Obeid to Al Hamedia","distance":"733.000017"}},{"from_stop_id":480,"to_stop_id":103,"geometry":"MULTILINESTRING((3366846.196126 1478892.266091,2549995.575602 1220995.14721))","attributes":{"title":"El Obeid to Al Karanik","distance":"836.746591"}},{"from_stop_id":480,"to_stop_id":102,"geometry":"MULTILINESTRING((3366846.196126 1478892.266091,3003733.820075 1315450.715024))","attributes":{"distance":"388.386851","title":"El Obeid to Al Shabab"}},{"from_stop_id":480,"to_stop_id":101,"geometry":"MULTILINESTRING((3366846.196126 1478892.266091,2467841.791396 1428331.441642))","attributes":{"title":"El Obeid to Arara","distance":"876.515763"}},{"from_stop_id":480,"to_stop_id":100,"geometry":"MULTILINESTRING((3366846.196126 1478892.266091,2504577.223358 1517257.895463))","attributes":{"title":"El Obeid to Arbokni","distance":"838.874431"}},{"from_stop_id":480,"to_stop_id":99,"geometry":"MULTILINESTRING((3366846.196126 1478892.266091,2504131.945395 1513365.713314))","attributes":{"distance":"839.206510","title":"El Obeid to Ardamata"}},{"from_stop_id":480,"to_stop_id":98,"geometry":"MULTILINESTRING((3366846.196126 1478892.266091,2467608.710646 1547481.81476))","attributes":{"title":"El Obeid to Armankul LRs","distance":"876.026268"}},{"from_stop_id":480,"to_stop_id":97,"geometry":"MULTILINESTRING((3366846.196126 1478892.266091,2522499.661376 1589135.341172))","attributes":{"distance":"826.496184","title":"El Obeid to Aro sharow"}},{"from_stop_id":480,"to_stop_id":96,"geometry":"MULTILINESTRING((3366846.196126 1478892.266091,2501014.999652 1612448.689922))","attributes":{"distance":"849.958202","title":"El Obeid to Arwa"}},{"from_stop_id":480,"to_stop_id":95,"geometry":"MULTILINESTRING((3366846.196126 1478892.266091,2523501.536793 1518288.271755))","attributes":{"title":"El Obeid to Azirnie","distance":"820.532541"}},{"from_stop_id":480,"to_stop_id":94,"geometry":"MULTILINESTRING((3366846.196126 1478892.266091,2480110.434928 1530022.049541))","attributes":{"title":"El Obeid to Bangadeed","distance":"863.053391"}},{"from_stop_id":480,"to_stop_id":93,"geometry":"MULTILINESTRING((3366846.196126 1478892.266091,2515263.894474 1617964.280143))","attributes":{"distance":"837.057890","title":"El Obeid to Batro"}},{"from_stop_id":480,"to_stop_id":92,"geometry":"MULTILINESTRING((3366846.196126 1478892.266091,2436227.056011 1426847.887032))","attributes":{"distance":"907.344441","title":"El Obeid to Beida"}},{"from_stop_id":480,"to_stop_id":91,"geometry":"MULTILINESTRING((3366846.196126 1478892.266091,2573038.710196 1338994.562324))","attributes":{"title":"El Obeid to Bindisi","distance":"785.847722"}},{"from_stop_id":480,"to_stop_id":90,"geometry":"MULTILINESTRING((3366846.196126 1478892.266091,2501014.999652 1541768.542255))","attributes":{"distance":"843.345365","title":"El Obeid to Bir Dagig"}},{"from_stop_id":480,"to_stop_id":89,"geometry":"MULTILINESTRING((3366846.196126 1478892.266091,2530180.70624 1548873.91746))","attributes":{"distance":"815.530715","title":"El Obeid to Buri Banat"}},{"from_stop_id":480,"to_stop_id":88,"geometry":"MULTILINESTRING((3366846.196126 1478892.266091,2531293.901148 1548530.065641))","attributes":{"distance":"814.430618","title":"El Obeid to Buri Nomads"}},{"from_stop_id":480,"to_stop_id":87,"geometry":"MULTILINESTRING((3366846.196126 1478892.266091,2586842.327054 1386364.497124))","attributes":{"distance":"765.179942","title":"El Obeid to Deleij"}},{"from_stop_id":480,"to_stop_id":86,"geometry":"MULTILINESTRING((3366846.196126 1478892.266091,2513148.824149 1520005.652019))","attributes":{"title":"El Obeid to Deliaba","distance":"830.635284"}},{"from_stop_id":480,"to_stop_id":85,"geometry":"MULTILINESTRING((3366846.196126 1478892.266091,2503130.069978 1516342.038054))","attributes":{"distance":"840.254384","title":"El Obeid to Dorti"}},{"from_stop_id":480,"to_stop_id":84,"geometry":"MULTILINESTRING((3366846.196126 1478892.266091,2503130.069978 1516342.038054))","attributes":{"distance":"840.254384","title":"El Obeid to Dorti Falata"}},{"from_stop_id":480,"to_stop_id":83,"geometry":"MULTILINESTRING((3366846.196126 1478892.266091,2503130.069978 1516342.038054))","attributes":{"title":"El Obeid to Dorti Marareet","distance":"840.254384"}},{"from_stop_id":480,"to_stop_id":82,"geometry":"MULTILINESTRING((3366846.196126 1478892.266091,2507137.571646 1605211.268594))","attributes":{"distance":"843.154389","title":"El Obeid to Douhoush"}},{"from_stop_id":480,"to_stop_id":81,"geometry":"MULTILINESTRING((3366846.196126 1478892.266091,2496562.220021 1509245.182147))","attributes":{"title":"El Obeid to El Hujaj","distance":"846.471859"}},{"from_stop_id":480,"to_stop_id":80,"geometry":"MULTILINESTRING((3366846.196126 1478892.266091,2497675.414929 1512793.380277))","attributes":{"distance":"845.463535","title":"El Obeid to El Riad"}},{"from_stop_id":480,"to_stop_id":79,"geometry":"MULTILINESTRING((3366846.196126 1478892.266091,2514707.29702 1359937.523466))","attributes":{"title":"El Obeid to Fur Buranga (NA)","distance":"838.546230"}},{"from_stop_id":480,"to_stop_id":78,"geometry":"MULTILINESTRING((3366846.196126 1478892.266091,2514707.29702 1359937.523466))","attributes":{"title":"El Obeid to Fur Buranga Res","distance":"838.546230"}},{"from_stop_id":480,"to_stop_id":77,"geometry":"MULTILINESTRING((3366846.196126 1478892.266091,2548882.380694 1499060.963465))","attributes":{"distance":"795.491715","title":"El Obeid to Galala"}},{"from_stop_id":480,"to_stop_id":76,"geometry":"MULTILINESTRING((3366846.196126 1478892.266091,2575933.016956 1388985.682655))","attributes":{"title":"El Obeid to Garsila","distance":"775.406290"}},{"from_stop_id":480,"to_stop_id":75,"geometry":"MULTILINESTRING((3366846.196126 1478892.266091,1449222.063806 2504201.025748))","attributes":{"distance":"2067.799399","title":"El Obeid to Gemieza Babiker Res"}},{"from_stop_id":480,"to_stop_id":74,"geometry":"MULTILINESTRING((3366846.196126 1478892.266091,2553112.521344 1473788.227188))","attributes":{"distance":"791.511946","title":"El Obeid to Genderni"}},{"from_stop_id":480,"to_stop_id":73,"geometry":"MULTILINESTRING((3366846.196126 1478892.266091,2499233.8878 1395596.655428))","attributes":{"distance":"848.942590","title":"El Obeid to Gobe"}},{"from_stop_id":480,"to_stop_id":72,"geometry":"MULTILINESTRING((3366846.196126 1478892.266091,2500681.04118 1485564.071541))","attributes":{"distance":"842.338610","title":"El Obeid to Goker"}},{"from_stop_id":480,"to_stop_id":71,"geometry":"MULTILINESTRING((3366846.196126 1478892.266091,2497118.817475 1637163.19859))","attributes":{"title":"El Obeid to Goz digga","distance":"857.258278"}},{"from_stop_id":480,"to_stop_id":70,"geometry":"MULTILINESTRING((3366846.196126 1478892.266091,2525616.607118 1559879.512694))","attributes":{"title":"El Obeid to Goz Shido","distance":"820.736978"}},{"from_stop_id":480,"to_stop_id":69,"geometry":"MULTILINESTRING((3366846.196126 1478892.266091,2505913.057247 1351968.40193))","attributes":{"title":"El Obeid to Gumeiza","distance":"848.247369"}},{"from_stop_id":480,"to_stop_id":68,"geometry":"MULTILINESTRING((3366846.196126 1478892.266091,2534522.166381 1362784.144607))","attributes":{"distance":"818.998350","title":"El Obeid to Gungar"}},{"from_stop_id":480,"to_stop_id":67,"geometry":"MULTILINESTRING((3366846.196126 1478892.266091,2524503.41221 1518631.739161))","attributes":{"distance":"819.570509","title":"El Obeid to Gurf Elahmar"}},{"from_stop_id":480,"to_stop_id":66,"geometry":"MULTILINESTRING((3366846.196126 1478892.266091,2511590.351278 1423196.383615))","attributes":{"distance":"834.387589","title":"El Obeid to Habilla"}},{"from_stop_id":480,"to_stop_id":65,"geometry":"MULTILINESTRING((3366846.196126 1478892.266091,2536215.391496 1549352.153912))","attributes":{"title":"El Obeid to Habilla LRs","distance":"809.721939"}},{"from_stop_id":480,"to_stop_id":64,"geometry":"MULTILINESTRING((3366846.196126 1478892.266091,1602780.811429 2578141.391751))","attributes":{"distance":"1972.867150","title":"El Obeid to Hajer Laben"}},{"from_stop_id":480,"to_stop_id":63,"geometry":"MULTILINESTRING((3366846.196126 1478892.266091,2558233.21792 1477217.573614))","attributes":{"distance":"786.469492","title":"El Obeid to Hajer Tama"}},{"from_stop_id":480,"to_stop_id":62,"geometry":"MULTILINESTRING((3366846.196126 1478892.266091,2514373.338548 1585117.908152))","attributes":{"title":"El Obeid to Hejieliga","distance":"833.888876"}},{"from_stop_id":480,"to_stop_id":61,"geometry":"MULTILINESTRING((3366846.196126 1478892.266091,2527175.079989 1609002.045793))","attributes":{"title":"El Obeid to Helilat","distance":"824.420761"}},{"from_stop_id":480,"to_stop_id":60,"geometry":"MULTILINESTRING((3366846.196126 1478892.266091,2527175.079989 1609002.045793))","attributes":{"title":"El Obeid to Helilat","distance":"824.420761"}},{"from_stop_id":480,"to_stop_id":59,"geometry":"MULTILINESTRING((3366846.196126 1478892.266091,2613781.643826 1449451.843062))","attributes":{"distance":"733.365061","title":"El Obeid to Hesahesa"}},{"from_stop_id":480,"to_stop_id":58,"geometry":"MULTILINESTRING((3366846.196126 1478892.266091,2527397.71897 1572839.855483))","attributes":{"distance":"820.122524","title":"El Obeid to Jabal"}},{"from_stop_id":480,"to_stop_id":57,"geometry":"MULTILINESTRING((3366846.196126 1478892.266091,2496784.859002 1509130.731782))","attributes":{"distance":"846.253475","title":"El Obeid to Jama"}},{"from_stop_id":480,"to_stop_id":56,"geometry":"MULTILINESTRING((3366846.196126 1478892.266091,2534967.444344 1318406.936519))","attributes":{"distance":"826.275030","title":"El Obeid to Jugma El Garbia (NA)"}},{"from_stop_id":480,"to_stop_id":55,"geometry":"MULTILINESTRING((3366846.196126 1478892.266091,2504243.264885 1534435.929554))","attributes":{"distance":"839.842833","title":"El Obeid to Kandobi"}},{"from_stop_id":480,"to_stop_id":54,"geometry":"MULTILINESTRING((3366846.196126 1478892.266091,2505133.820812 1535352.397144))","attributes":{"distance":"839.023094","title":"El Obeid to Kandobi Nomads"}},{"from_stop_id":480,"to_stop_id":53,"geometry":"MULTILINESTRING((3366846.196126 1478892.266091,2523501.536793 1519318.686941))","attributes":{"distance":"820.564503","title":"El Obeid to Kangok"}},{"from_stop_id":480,"to_stop_id":52,"geometry":"MULTILINESTRING((3366846.196126 1478892.266091,2523501.536793 1519318.686941))","attributes":{"distance":"820.564503","title":"El Obeid to Kangok"}},{"from_stop_id":480,"to_stop_id":51,"geometry":"MULTILINESTRING((3366846.196126 1478892.266091,2549995.575602 1220995.14721))","attributes":{"distance":"836.746591","title":"El Obeid to Karanik"}},{"from_stop_id":480,"to_stop_id":50,"geometry":"MULTILINESTRING((3366846.196126 1478892.266091,2548882.380694 1499060.963465))","attributes":{"distance":"795.491715","title":"El Obeid to Kerinik IDPs"}},{"from_stop_id":480,"to_stop_id":49,"geometry":"MULTILINESTRING((3366846.196126 1478892.266091,2668745.642405 1456501.532259))","attributes":{"distance":"679.587422","title":"El Obeid to Khor-Ramla"}},{"from_stop_id":480,"to_stop_id":48,"geometry":"MULTILINESTRING((3366846.196126 1478892.266091,2501237.638634 1508672.935095))","attributes":{"distance":"841.919695","title":"El Obeid to Kirinding-1"}},{"from_stop_id":480,"to_stop_id":47,"geometry":"MULTILINESTRING((3366846.196126 1478892.266091,2502016.87507 1508215.146038))","attributes":{"title":"El Obeid to Kirinding-2","distance":"841.154518"}},{"from_stop_id":480,"to_stop_id":46,"geometry":"MULTILINESTRING((3366846.196126 1478892.266091,2529290.150314 1530999.452756))","attributes":{"title":"El Obeid to Kirkir","distance":"815.398058"}},{"from_stop_id":480,"to_stop_id":45,"geometry":"MULTILINESTRING((3366846.196126 1478892.266091,2438119.487354 1451393.417489))","attributes":{"title":"El Obeid to Kongo Haraza","distance":"904.092781"}},{"from_stop_id":480,"to_stop_id":44,"geometry":"MULTILINESTRING((3366846.196126 1478892.266091,2491330.203953 1516342.038054))","attributes":{"title":"El Obeid to Korti","distance":"851.711370"}},{"from_stop_id":480,"to_stop_id":43,"geometry":"MULTILINESTRING((3366846.196126 1478892.266091,2500235.763217 1616010.706653))","attributes":{"distance":"851.181192","title":"El Obeid to Kulbus"}},{"from_stop_id":480,"to_stop_id":42,"geometry":"MULTILINESTRING((3366846.196126 1478892.266091,2524169.453737 1538560.27877))","attributes":{"distance":"820.736265","title":"El Obeid to Lambo"}},{"from_stop_id":480,"to_stop_id":41,"geometry":"MULTILINESTRING((3366846.196126 1478892.266091,2520273.27156 1376337.737475))","attributes":{"title":"El Obeid to Mangarasa (NA)","distance":"830.869045"}},{"from_stop_id":480,"to_stop_id":40,"geometry":"MULTILINESTRING((3366846.196126 1478892.266091,2506914.932665 1573987.094391))","attributes":{"title":"El Obeid to Manjura","distance":"839.991235"}},{"from_stop_id":480,"to_stop_id":39,"geometry":"MULTILINESTRING((3366846.196126 1478892.266091,2470179.500703 1474588.370542))","attributes":{"distance":"872.154059","title":"El Obeid to Mastari"}},{"from_stop_id":480,"to_stop_id":38,"geometry":"MULTILINESTRING((3366846.196126 1478892.266091,2502128.19456 1637508.221618))","attributes":{"distance":"852.534557","title":"El Obeid to Mastura"}},{"from_stop_id":480,"to_stop_id":37,"geometry":"MULTILINESTRING((3366846.196126 1478892.266091,2545542.79597 1454477.366376))","attributes":{"title":"El Obeid to Mornie","distance":"799.485881"}},{"from_stop_id":480,"to_stop_id":36,"geometry":"MULTILINESTRING((3366846.196126 1478892.266091,2572627.451469 1486965.567422))","attributes":{"title":"El Obeid to Muhajir","distance":"772.373823"}},{"from_stop_id":480,"to_stop_id":35,"geometry":"MULTILINESTRING((3366846.196126 1478892.266091,2596972.400716 1344456.563165))","attributes":{"distance":"761.875837","title":"El Obeid to Mukjar"}},{"from_stop_id":480,"to_stop_id":34,"geometry":"MULTILINESTRING((3366846.196126 1478892.266091,2479530.337929 1529395.912871))","attributes":{"title":"El Obeid to Muli","distance":"863.591171"}},{"from_stop_id":480,"to_stop_id":33,"geometry":"MULTILINESTRING((3366846.196126 1478892.266091,2675405.887539 1455939.503352))","attributes":{"distance":"673.135441","title":"El Obeid to Nertiti"}},{"from_stop_id":480,"to_stop_id":32,"geometry":"MULTILINESTRING((3366846.196126 1478892.266091,2675563.961216 1454934.276106))","attributes":{"title":"El Obeid to Nertiti","distance":"673.026868"}},{"from_stop_id":480,"to_stop_id":31,"geometry":"MULTILINESTRING((3366846.196126 1478892.266091,2509363.961462 1424223.322522))","attributes":{"title":"El Obeid to Nur El Huda","distance":"836.471127"}},{"from_stop_id":480,"to_stop_id":30,"geometry":"MULTILINESTRING((3366846.196126 1478892.266091,2531182.581657 1348781.336155))","attributes":{"distance":"824.405951","title":"El Obeid to Ras El Feel"}},{"from_stop_id":480,"to_stop_id":29,"geometry":"MULTILINESTRING((3366846.196126 1478892.266091,2555227.591669 1466016.590016))","attributes":{"title":"El Obeid to Romalia","distance":"789.647885"}},{"from_stop_id":480,"to_stop_id":28,"geometry":"MULTILINESTRING((3366846.196126 1478892.266091,2544318.281571 1508787.383551))","attributes":{"title":"El Obeid to Rosi","distance":"800.074400"}},{"from_stop_id":480,"to_stop_id":27,"geometry":"MULTILINESTRING((3366846.196126 1478892.266091,2523278.897811 1405287.81904))","attributes":{"title":"El Obeid to Sala + Ior","distance":"824.622474"}},{"from_stop_id":480,"to_stop_id":26,"geometry":"MULTILINESTRING((3366846.196126 1478892.266091,2523278.897811 1405287.81904))","attributes":{"title":"El Obeid to Sala + Ior (NA)","distance":"824.622474"}},{"from_stop_id":480,"to_stop_id":25,"geometry":"MULTILINESTRING((3366846.196126 1478892.266091,2570033.083944 1544289.589153))","attributes":{"title":"El Obeid to Sanidadi","distance":"776.653021"}},{"from_stop_id":480,"to_stop_id":24,"geometry":"MULTILINESTRING((3366846.196126 1478892.266091,2476960.093338 1540926.97775))","attributes":{"title":"El Obeid to Saraf Gidad","distance":"866.608420"}},{"from_stop_id":480,"to_stop_id":23,"geometry":"MULTILINESTRING((3366846.196126 1478892.266091,2518046.881744 1574216.548161))","attributes":{"title":"El Obeid to Selea","distance":"829.271818"}},{"from_stop_id":480,"to_stop_id":22,"geometry":"MULTILINESTRING((3366846.196126 1478892.266091,2504688.542849 1552427.311656))","attributes":{"distance":"840.438036","title":"El Obeid to Sirba"}},{"from_stop_id":480,"to_stop_id":21,"geometry":"MULTILINESTRING((3366846.196126 1478892.266091,2531293.901148 1481676.351466))","attributes":{"title":"El Obeid to Sisi","distance":"812.607130"}},{"from_stop_id":480,"to_stop_id":20,"geometry":"MULTILINESTRING((3366846.196126 1478892.266091,2501014.999652 1514968.309476))","attributes":{"distance":"842.272355","title":"El Obeid to Sultan house"}},{"from_stop_id":480,"to_stop_id":19,"geometry":"MULTILINESTRING((3366846.196126 1478892.266091,2501460.277616 1510733.080314))","attributes":{"title":"El Obeid to Tandicraw","distance":"841.743253"}},{"from_stop_id":480,"to_stop_id":18,"geometry":"MULTILINESTRING((3366846.196126 1478892.266091,2517712.923271 1530312.209755))","attributes":{"distance":"826.594704","title":"El Obeid to Tanjaki"}},{"from_stop_id":480,"to_stop_id":17,"geometry":"MULTILINESTRING((3366846.196126 1478892.266091,2494781.108168 1437805.162745))","attributes":{"distance":"849.711455","title":"El Obeid to Tawang"}},{"from_stop_id":480,"to_stop_id":16,"geometry":"MULTILINESTRING((3366846.196126 1478892.266091,2447132.659169 1468523.085934))","attributes":{"distance":"894.712171","title":"El Obeid to Terbeba"}},{"from_stop_id":480,"to_stop_id":15,"geometry":"MULTILINESTRING((3366846.196126 1478892.266091,2613781.643826 1449451.843062))","attributes":{"title":"El Obeid to Teyba","distance":"733.365061"}},{"from_stop_id":480,"to_stop_id":14,"geometry":"MULTILINESTRING((3366846.196126 1478892.266091,2506692.293683 1519204.194443))","attributes":{"distance":"836.877784","title":"El Obeid to Tilaihaya"}},{"from_stop_id":480,"to_stop_id":13,"geometry":"MULTILINESTRING((3366846.196126 1478892.266091,2500458.402199 1380667.062306))","attributes":{"title":"El Obeid to Tundosa","distance":"849.488372"}},{"from_stop_id":480,"to_stop_id":12,"geometry":"MULTILINESTRING((3366846.196126 1478892.266091,2556340.786577 1247873.555506))","attributes":{"distance":"822.903997","title":"El Obeid to Um Dukhon"}},{"from_stop_id":480,"to_stop_id":11,"geometry":"MULTILINESTRING((3366846.196126 1478892.266091,2561684.122135 1573987.094391))","attributes":{"title":"El Obeid to Um Haraza","distance":"787.164129"}},{"from_stop_id":480,"to_stop_id":10,"geometry":"MULTILINESTRING((3366846.196126 1478892.266091,2520050.632578 1357546.567941))","attributes":{"title":"El Obeid to Um Jokoti","distance":"833.750471"}},{"from_stop_id":480,"to_stop_id":9,"geometry":"MULTILINESTRING((3366846.196126 1478892.266091,2531405.220639 1380553.124689))","attributes":{"co2e":"0","title":"El Obeid to Um Kher","distance":"819.554019"}},{"from_stop_id":480,"to_stop_id":8,"geometry":"MULTILINESTRING((3366846.196126 1478892.266091,2505356.459793 1397078.62744))","attributes":{"title":"El Obeid to Um Samgamti","distance":"842.847887"}},{"from_stop_id":480,"to_stop_id":7,"geometry":"MULTILINESTRING((3366846.196126 1478892.266091,2557565.300975 1473331.012647))","attributes":{"distance":"787.190589","title":"El Obeid to Um Shalaya"}},{"from_stop_id":480,"to_stop_id":6,"geometry":"MULTILINESTRING((3366846.196126 1478892.266091,2507694.1691 1524585.861908))","attributes":{"title":"El Obeid to Um Sibaiga","distance":"836.084744"}},{"from_stop_id":480,"to_stop_id":5,"geometry":"MULTILINESTRING((3366846.196126 1478892.266091,2525839.246099 1562516.945087))","attributes":{"title":"El Obeid to Umdaraba","distance":"820.731179"}},{"from_stop_id":480,"to_stop_id":4,"geometry":"MULTILINESTRING((3366846.196126 1478892.266091,2525839.246099 1562516.945087))","attributes":{"title":"El Obeid to Umdaraba","distance":"820.731179"}},{"from_stop_id":480,"to_stop_id":3,"geometry":"MULTILINESTRING((3366846.196126 1478892.266091,2576378.29492 1507528.476754))","attributes":{"distance":"768.905950","title":"El Obeid to Umtajok"}},{"from_stop_id":480,"to_stop_id":2,"geometry":"MULTILINESTRING((3366846.196126 1478892.266091,2503352.708959 1622101.750157))","attributes":{"title":"El Obeid to Wadi Bardi","distance":"849.043666"}},{"from_stop_id":480,"to_stop_id":1,"geometry":"MULTILINESTRING((3366846.196126 1478892.266091,2584838.57622 1552427.311656))","attributes":{"title":"El Obeid to Warda","distance":"762.905736"}}]},"editable":false}