{"supplychain":{"category":null,"created":1361897065,"enable_comments":true,"flags":0,"id":5391,"modified":1361906487,"other_perms":1,"passcode":null,"user_featured":false,"usergroup_id":null,"usergroup_perms":0,"user_id":4968,"owner":{"id":4968,"name":"ultrafro","avatar":"http:\/\/free.sourcemap.com\/assets\/images\/default-user.png","banner_url":null,"display_name":null},"taxonomy":null,"attributes":{"tags":"","description":"","title":"test2"},"stops":[{"local_stop_id":488,"id":488,"geometry":"POINT(2584838.57622 1552427.311656)","attributes":{"address":"13.81,23.22","placename":"13.81,23.22","title":"Warda"}},{"local_stop_id":487,"id":487,"geometry":"POINT(2503352.708959 1622101.750157)","attributes":{"address":"14.417,22.488","placename":"14.417,22.488","title":"Wadi Bardi"}},{"local_stop_id":486,"id":486,"geometry":"POINT(2576378.29492 1507528.476754)","attributes":{"address":"13.418,23.144","placename":"13.418,23.144","title":"Umtajok"}},{"local_stop_id":485,"id":485,"geometry":"POINT(2525839.246099 1562516.945087)","attributes":{"address":"13.898,22.69","placename":"13.898,22.69","title":"Umdaraba"}},{"local_stop_id":484,"id":484,"geometry":"POINT(2525839.246099 1562516.945087)","attributes":{"address":"13.898,22.69","placename":"13.898,22.69","title":"Umdaraba"}},{"local_stop_id":483,"id":483,"geometry":"POINT(2507694.1691 1524585.861908)","attributes":{"address":"13.567,22.527","placename":"13.567,22.527","title":"Um Sibaiga"}},{"local_stop_id":482,"id":482,"geometry":"POINT(2557565.300975 1473331.012647)","attributes":{"address":"13.119,22.975","placename":"13.119,22.975","title":"Um Shalaya"}},{"local_stop_id":481,"id":481,"geometry":"POINT(2505356.459793 1397078.62744)","attributes":{"address":"12.451,22.506","placename":"12.451,22.506","title":"Um Samgamti"}},{"local_stop_id":480,"id":480,"geometry":"POINT(2531405.220639 1380553.124689)","attributes":{"address":"12.306,22.74","placename":"12.306,22.74","title":"Um Kher"}},{"local_stop_id":479,"id":479,"geometry":"POINT(2520050.632578 1357546.567941)","attributes":{"address":"12.104,22.638","placename":"12.104,22.638","title":"Um Jokoti"}},{"local_stop_id":478,"id":478,"geometry":"POINT(2561684.122135 1573987.094391)","attributes":{"address":"13.998,23.012","placename":"13.998,23.012","title":"Um Haraza"}},{"local_stop_id":477,"id":477,"geometry":"POINT(2556340.786577 1247873.555506)","attributes":{"address":"11.139,22.964","placename":"11.139,22.964","title":"Um Dukhon"}},{"local_stop_id":476,"id":476,"geometry":"POINT(2500458.402199 1380667.062306)","attributes":{"address":"12.307,22.462","placename":"12.307,22.462","title":"Tundosa"}},{"local_stop_id":475,"id":475,"geometry":"POINT(2506692.293683 1519204.194443)","attributes":{"address":"13.52,22.518","placename":"13.52,22.518","title":"Tilaihaya"}},{"local_stop_id":474,"id":474,"geometry":"POINT(2613781.643826 1449451.843062)","attributes":{"address":"12.91,23.48","placename":"12.91,23.48","title":"Teyba"}},{"local_stop_id":473,"id":473,"geometry":"POINT(2447132.659169 1468523.085934)","attributes":{"address":"13.0769333,21.9829667","placename":"13.0769333,21.9829667","title":"Terbeba"}},{"local_stop_id":472,"id":472,"geometry":"POINT(2494781.108168 1437805.162745)","attributes":{"address":"12.808,22.411","placename":"12.808,22.411","title":"Tawang"}},{"local_stop_id":471,"id":471,"geometry":"POINT(2517712.923271 1530312.209755)","attributes":{"address":"13.617,22.617","placename":"13.617,22.617","title":"Tanjaki"}},{"local_stop_id":470,"id":470,"geometry":"POINT(2501460.277616 1510733.080314)","attributes":{"address":"13.446,22.471","placename":"13.446,22.471","title":"Tandicraw"}},{"local_stop_id":469,"id":469,"geometry":"POINT(2501014.999652 1514968.309476)","attributes":{"address":"13.483,22.467","placename":"13.483,22.467","title":"Sultan house"}},{"local_stop_id":468,"id":468,"geometry":"POINT(2531293.901148 1481676.351466)","attributes":{"address":"13.192,22.739","placename":"13.192,22.739","title":"Sisi"}},{"local_stop_id":467,"id":467,"geometry":"POINT(2504688.542849 1552427.311656)","attributes":{"address":"13.81,22.5","placename":"13.81,22.5","title":"Sirba"}},{"local_stop_id":466,"id":466,"geometry":"POINT(2518046.881744 1574216.548161)","attributes":{"address":"14,22.62","placename":"14,22.62","title":"Selea"}},{"local_stop_id":465,"id":465,"geometry":"POINT(2476960.093338 1540926.97775)","attributes":{"address":"13.7096556,22.2509111","placename":"13.7096556,22.2509111","title":"Saraf Gidad"}},{"local_stop_id":464,"id":464,"geometry":"POINT(2570033.083944 1544289.589153)","attributes":{"address":"13.739,23.087","placename":"13.739,23.087","title":"Sanidadi"}},{"local_stop_id":463,"id":463,"geometry":"POINT(2523278.897811 1405287.81904)","attributes":{"address":"12.523,22.667","placename":"12.523,22.667","title":"Sala + Ior (NA)"}},{"local_stop_id":462,"id":462,"geometry":"POINT(2523278.897811 1405287.81904)","attributes":{"address":"12.523,22.667","placename":"12.523,22.667","title":"Sala + Ior"}},{"local_stop_id":461,"id":461,"geometry":"POINT(2544318.281571 1508787.383551)","attributes":{"address":"13.429,22.856","placename":"13.429,22.856","title":"Rosi"}},{"local_stop_id":460,"id":460,"geometry":"POINT(2555227.591669 1466016.590016)","attributes":{"address":"13.055,22.954","placename":"13.055,22.954","title":"Romalia"}},{"local_stop_id":459,"id":459,"geometry":"POINT(2531182.581657 1348781.336155)","attributes":{"address":"12.027,22.738","placename":"12.027,22.738","title":"Ras El Feel"}},{"local_stop_id":458,"id":458,"geometry":"POINT(2509363.961462 1424223.322522)","attributes":{"address":"12.689,22.542","placename":"12.689,22.542","title":"Nur El Huda"}},{"local_stop_id":457,"id":457,"geometry":"POINT(2675563.961216 1454934.276106)","attributes":{"address":"12.958,24.035","placename":"12.958,24.035","title":"Nertiti"}},{"local_stop_id":456,"id":456,"geometry":"POINT(2675405.887539 1455939.503352)","attributes":{"address":"12.9668,24.03358","placename":"12.9668,24.03358","title":"Nertiti"}},{"local_stop_id":455,"id":455,"geometry":"POINT(2479530.337929 1529395.912871)","attributes":{"address":"13.609,22.274","placename":"13.609,22.274","title":"Muli"}},{"local_stop_id":454,"id":454,"geometry":"POINT(2596972.400716 1344456.563165)","attributes":{"address":"11.989,23.329","placename":"11.989,23.329","title":"Mukjar"}},{"local_stop_id":453,"id":453,"geometry":"POINT(2572627.451469 1486965.567422)","attributes":{"address":"13.2382556,23.1103056","placename":"13.2382556,23.1103056","title":"Muhajir"}},{"local_stop_id":452,"id":452,"geometry":"POINT(2545542.79597 1454477.366376)","attributes":{"address":"12.954,22.867","placename":"12.954,22.867","title":"Mornie"}},{"local_stop_id":451,"id":451,"geometry":"POINT(2502128.19456 1637508.221618)","attributes":{"address":"14.551,22.477","placename":"14.551,22.477","title":"Mastura"}},{"local_stop_id":450,"id":450,"geometry":"POINT(2470179.500703 1474588.370542)","attributes":{"address":"13.13,22.19","placename":"13.13,22.19","title":"Mastari"}},{"local_stop_id":449,"id":449,"geometry":"POINT(2506914.932665 1573987.094391)","attributes":{"address":"13.998,22.52","placename":"13.998,22.52","title":"Manjura"}},{"local_stop_id":448,"id":448,"geometry":"POINT(2520273.27156 1376337.737475)","attributes":{"address":"12.269,22.64","placename":"12.269,22.64","title":"Mangarasa (NA)"}},{"local_stop_id":447,"id":447,"geometry":"POINT(2524169.453737 1538560.27877)","attributes":{"address":"13.689,22.675","placename":"13.689,22.675","title":"Lambo"}},{"local_stop_id":446,"id":446,"geometry":"POINT(2500235.763217 1616010.706653)","attributes":{"address":"14.364,22.46","placename":"14.364,22.46","title":"Kulbus"}},{"local_stop_id":445,"id":445,"geometry":"POINT(2491330.203953 1516342.038054)","attributes":{"address":"13.495,22.38","placename":"13.495,22.38","title":"Korti"}},{"local_stop_id":444,"id":444,"geometry":"POINT(2438119.487354 1451393.417489)","attributes":{"address":"12.927,21.902","placename":"12.927,21.902","title":"Kongo Haraza"}},{"local_stop_id":443,"id":443,"geometry":"POINT(2529290.150314 1530999.452756)","attributes":{"address":"13.623,22.721","placename":"13.623,22.721","title":"Kirkir"}},{"local_stop_id":442,"id":442,"geometry":"POINT(2502016.87507 1508215.146038)","attributes":{"address":"13.424,22.476","placename":"13.424,22.476","title":"Kirinding-2"}},{"local_stop_id":441,"id":441,"geometry":"POINT(2501237.638634 1508672.935095)","attributes":{"address":"13.428,22.469","placename":"13.428,22.469","title":"Kirinding-1"}},{"local_stop_id":440,"id":440,"geometry":"POINT(2668745.642405 1456501.532259)","attributes":{"address":"12.97172,23.97375","placename":"12.97172,23.97375","title":"Khor-Ramla"}},{"local_stop_id":439,"id":439,"geometry":"POINT(2548882.380694 1499060.963465)","attributes":{"address":"13.344,22.897","placename":"13.344,22.897","title":"Kerinik IDPs"}},{"local_stop_id":438,"id":438,"geometry":"POINT(2549995.575602 1220995.14721)","attributes":{"address":"10.902,22.907","placename":"10.902,22.907","title":"Karanik"}},{"local_stop_id":437,"id":437,"geometry":"POINT(2523501.536793 1519318.686941)","attributes":{"address":"13.521,22.669","placename":"13.521,22.669","title":"Kangok"}},{"local_stop_id":436,"id":436,"geometry":"POINT(2523501.536793 1519318.686941)","attributes":{"address":"13.521,22.669","placename":"13.521,22.669","title":"Kangok"}},{"local_stop_id":435,"id":435,"geometry":"POINT(2505133.820812 1535352.397144)","attributes":{"address":"13.661,22.504","placename":"13.661,22.504","title":"Kandobi Nomads"}},{"local_stop_id":434,"id":434,"geometry":"POINT(2504243.264885 1534435.929554)","attributes":{"address":"13.653,22.496","placename":"13.653,22.496","title":"Kandobi"}},{"local_stop_id":433,"id":433,"geometry":"POINT(2534967.444344 1318406.936519)","attributes":{"address":"11.76,22.772","placename":"11.76,22.772","title":"Jugma El Garbia (NA)"}},{"local_stop_id":432,"id":432,"geometry":"POINT(2496784.859002 1509130.731782)","attributes":{"address":"13.432,22.429","placename":"13.432,22.429","title":"Jama"}},{"local_stop_id":431,"id":431,"geometry":"POINT(2527397.71897 1572839.855483)","attributes":{"address":"13.988,22.704","placename":"13.988,22.704","title":"Jabal"}},{"local_stop_id":430,"id":430,"geometry":"POINT(2613781.643826 1449451.843062)","attributes":{"address":"12.91,23.48","placename":"12.91,23.48","title":"Hesahesa"}},{"local_stop_id":429,"id":429,"geometry":"POINT(2527175.079989 1609002.045793)","attributes":{"address":"14.303,22.702","placename":"14.303,22.702","title":"Helilat"}},{"local_stop_id":428,"id":428,"geometry":"POINT(2527175.079989 1609002.045793)","attributes":{"address":"14.303,22.702","placename":"14.303,22.702","title":"Helilat"}},{"local_stop_id":427,"id":427,"geometry":"POINT(2514373.338548 1585117.908152)","attributes":{"address":"14.095,22.587","placename":"14.095,22.587","title":"Hejieliga"}},{"local_stop_id":426,"id":426,"geometry":"POINT(2558233.21792 1477217.573614)","attributes":{"address":"13.153,22.981","placename":"13.153,22.981","title":"Hajer Tama"}},{"local_stop_id":425,"id":425,"geometry":"POINT(1602780.811429 2578141.391751)","attributes":{"address":"22.5537556,14.398025","placename":"22.5537556,14.398025","title":"Hajer Laben"}},{"local_stop_id":424,"id":424,"geometry":"POINT(2536215.391496 1549352.153912)","attributes":{"address":"13.7831724,22.7832105","placename":"13.7831724,22.7832105","title":"Habilla LRs"}},{"local_stop_id":423,"id":423,"geometry":"POINT(2511590.351278 1423196.383615)","attributes":{"address":"12.68,22.562","placename":"12.68,22.562","title":"Habilla"}},{"local_stop_id":422,"id":422,"geometry":"POINT(2524503.41221 1518631.739161)","attributes":{"address":"13.515,22.678","placename":"13.515,22.678","title":"Gurf Elahmar"}},{"local_stop_id":421,"id":421,"geometry":"POINT(2534522.166381 1362784.144607)","attributes":{"address":"12.15,22.768","placename":"12.15,22.768","title":"Gungar"}},{"local_stop_id":420,"id":420,"geometry":"POINT(2505913.057247 1351968.40193)","attributes":{"address":"12.055,22.511","placename":"12.055,22.511","title":"Gumeiza"}},{"local_stop_id":419,"id":419,"geometry":"POINT(2525616.607118 1559879.512694)","attributes":{"address":"13.875,22.688","placename":"13.875,22.688","title":"Goz Shido"}},{"local_stop_id":418,"id":418,"geometry":"POINT(2497118.817475 1637163.19859)","attributes":{"address":"14.548,22.432","placename":"14.548,22.432","title":"Goz digga"}},{"local_stop_id":417,"id":417,"geometry":"POINT(2500681.04118 1485564.071541)","attributes":{"address":"13.226,22.464","placename":"13.226,22.464","title":"Goker"}},{"local_stop_id":416,"id":416,"geometry":"POINT(2499233.8878 1395596.655428)","attributes":{"address":"12.438,22.451","placename":"12.438,22.451","title":"Gobe"}},{"local_stop_id":415,"id":415,"geometry":"POINT(2553112.521344 1473788.227188)","attributes":{"address":"13.123,22.935","placename":"13.123,22.935","title":"Genderni"}},{"local_stop_id":414,"id":414,"geometry":"POINT(1449222.063806 2504201.025748)","attributes":{"address":"21.9389833,13.0185833","placename":"21.9389833,13.0185833","title":"Gemieza Babiker Res"}},{"local_stop_id":413,"id":413,"geometry":"POINT(2575933.016956 1388985.682655)","attributes":{"address":"12.38,23.14","placename":"12.38,23.14","title":"Garsila"}},{"local_stop_id":412,"id":412,"geometry":"POINT(2548882.380694 1499060.963465)","attributes":{"address":"13.344,22.897","placename":"13.344,22.897","title":"Galala"}},{"local_stop_id":411,"id":411,"geometry":"POINT(2514707.29702 1359937.523466)","attributes":{"address":"12.125,22.59","placename":"12.125,22.59","title":"Fur Buranga Res"}},{"local_stop_id":410,"id":410,"geometry":"POINT(2514707.29702 1359937.523466)","attributes":{"address":"12.125,22.59","placename":"12.125,22.59","title":"Fur Buranga (NA)"}},{"local_stop_id":409,"id":409,"geometry":"POINT(2497675.414929 1512793.380277)","attributes":{"address":"13.464,22.437","placename":"13.464,22.437","title":"El Riad"}},{"local_stop_id":408,"id":408,"geometry":"POINT(2496562.220021 1509245.182147)","attributes":{"address":"13.433,22.427","placename":"13.433,22.427","title":"El Hujaj"}},{"local_stop_id":407,"id":407,"geometry":"POINT(2507137.571646 1605211.268594)","attributes":{"address":"14.27,22.522","placename":"14.27,22.522","title":"Douhoush"}},{"local_stop_id":406,"id":406,"geometry":"POINT(2503130.069978 1516342.038054)","attributes":{"address":"13.495,22.486","placename":"13.495,22.486","title":"Dorti Marareet"}},{"local_stop_id":405,"id":405,"geometry":"POINT(2503130.069978 1516342.038054)","attributes":{"address":"13.495,22.486","placename":"13.495,22.486","title":"Dorti Falata"}},{"local_stop_id":404,"id":404,"geometry":"POINT(2503130.069978 1516342.038054)","attributes":{"address":"13.495,22.486","placename":"13.495,22.486","title":"Dorti"}},{"local_stop_id":403,"id":403,"geometry":"POINT(2513148.824149 1520005.652019)","attributes":{"address":"13.527,22.576","placename":"13.527,22.576","title":"Deliaba"}},{"local_stop_id":402,"id":402,"geometry":"POINT(2586842.327054 1386364.497124)","attributes":{"address":"12.357,23.238","placename":"12.357,23.238","title":"Deleij"}},{"local_stop_id":401,"id":401,"geometry":"POINT(2531293.901148 1548530.065641)","attributes":{"address":"13.776,22.739","placename":"13.776,22.739","title":"Buri Nomads"}},{"local_stop_id":400,"id":400,"geometry":"POINT(2530180.70624 1548873.91746)","attributes":{"address":"13.779,22.729","placename":"13.779,22.729","title":"Buri Banat"}},{"local_stop_id":399,"id":399,"geometry":"POINT(2501014.999652 1541768.542255)","attributes":{"address":"13.717,22.467","placename":"13.717,22.467","title":"Bir Dagig"}},{"local_stop_id":398,"id":398,"geometry":"POINT(2573038.710196 1338994.562324)","attributes":{"address":"11.941,23.114","placename":"11.941,23.114","title":"Bindisi"}},{"local_stop_id":397,"id":397,"geometry":"POINT(2436227.056011 1426847.887032)","attributes":{"address":"12.712,21.885","placename":"12.712,21.885","title":"Beida"}},{"local_stop_id":396,"id":396,"geometry":"POINT(2515263.894474 1617964.280143)","attributes":{"address":"14.381,22.595","placename":"14.381,22.595","title":"Batro"}},{"local_stop_id":395,"id":395,"geometry":"POINT(2480110.434928 1530022.049541)","attributes":{"address":"13.6144667,22.2792111","placename":"13.6144667,22.2792111","title":"Bangadeed"}},{"local_stop_id":394,"id":394,"geometry":"POINT(2523501.536793 1518288.271755)","attributes":{"address":"13.512,22.669","placename":"13.512,22.669","title":"Azirnie"}},{"local_stop_id":393,"id":393,"geometry":"POINT(2501014.999652 1612448.689922)","attributes":{"address":"14.333,22.467","placename":"14.333,22.467","title":"Arwa"}},{"local_stop_id":392,"id":392,"geometry":"POINT(2522499.661376 1589135.341172)","attributes":{"address":"14.13,22.66","placename":"14.13,22.66","title":"Aro sharow"}},{"local_stop_id":391,"id":391,"geometry":"POINT(2467608.710646 1547481.81476)","attributes":{"address":"13.7668541,22.1669062","placename":"13.7668541,22.1669062","title":"Armankul LRs"}},{"local_stop_id":390,"id":390,"geometry":"POINT(2504131.945395 1513365.713314)","attributes":{"address":"13.469,22.495","placename":"13.469,22.495","title":"Ardamata"}},{"local_stop_id":389,"id":389,"geometry":"POINT(2504577.223358 1517257.895463)","attributes":{"address":"13.503,22.499","placename":"13.503,22.499","title":"Arbokni"}},{"local_stop_id":388,"id":388,"geometry":"POINT(2467841.791396 1428331.441642)","attributes":{"address":"12.725,22.169","placename":"12.725,22.169","title":"Arara"}},{"local_stop_id":387,"id":387,"geometry":"POINT(3003733.820075 1315450.715024)","attributes":{"address":"11.734,26.983","placename":"11.734,26.983","title":"Al Shabab"}},{"local_stop_id":386,"id":386,"geometry":"POINT(2549995.575602 1220995.14721)","attributes":{"address":"10.902,22.907","placename":"10.902,22.907","title":"Al Karanik"}},{"local_stop_id":385,"id":385,"geometry":"POINT(2614115.602298 1450251.298883)","attributes":{"address":"12.917,23.483","placename":"12.917,23.483","title":"Al Hamedia"}},{"local_stop_id":384,"id":384,"geometry":"POINT(2515820.491928 1526418.161798)","attributes":{"address":"13.583,22.6","placename":"13.583,22.6","title":"Agoura"}},{"local_stop_id":383,"id":383,"geometry":"POINT(2497341.456456 1508901.832485)","attributes":{"address":"13.43,22.434","placename":"13.43,22.434","title":"Abu Zar"}},{"local_stop_id":382,"id":382,"geometry":"POINT(2493333.954788 1557930.274245)","attributes":{"address":"13.858,22.398","placename":"13.858,22.398","title":"Abu Sourouge"}},{"local_stop_id":381,"id":381,"geometry":"POINT(2503797.986922 1425592.630903)","attributes":{"address":"12.701,22.492","placename":"12.701,22.492","title":"Abu Dahiyia"}},{"local_stop_id":380,"id":380,"geometry":"POINT(3470582.272298 1165126.628759)","attributes":{"address":"10.40878,31.176771","placename":"10.40878,31.176771","title":"Warni"}},{"local_stop_id":379,"id":379,"geometry":"POINT(3267455.371058 1327982.693768)","attributes":{"address":"11.844202,29.352051","placename":"11.844202,29.352051","title":"Wali"}},{"local_stop_id":378,"id":378,"geometry":"POINT(3340942.821586 1233206.829332)","attributes":{"address":"11.0097,30.0122","placename":"11.0097,30.0122","title":"Umm Serdiba"}},{"local_stop_id":377,"id":377,"geometry":"POINT(3347634.236177 1287257.731826)","attributes":{"address":"11.48592,30.07231","placename":"11.48592,30.07231","title":"Umm Heitan"}},{"local_stop_id":376,"id":376,"geometry":"POINT(3419328.441028 1236992.561661)","attributes":{"address":"11.04308,30.71635","placename":"11.04308,30.71635","title":"Umm Dordo"}},{"local_stop_id":375,"id":375,"geometry":"POINT(3343236.003096 1216392.821636)","attributes":{"address":"10.8614,30.0328","placename":"10.8614,30.0328","title":"Umm Dorain"}},{"local_stop_id":374,"id":374,"geometry":"POINT(3460180.801718 1319165.024895)","attributes":{"address":"11.766667,31.083333","placename":"11.766667,31.083333","title":"Tosomi"}},{"local_stop_id":373,"id":373,"geometry":"POINT(3460180.801718 1345708.408409)","attributes":{"address":"12,31.083333","placename":"12,31.083333","title":"Tongi"}},{"local_stop_id":372,"id":372,"geometry":"POINT(3255440.547097 1308104.572987)","attributes":{"address":"11.66938,29.24412","placename":"11.66938,29.24412","title":"Timma"}},{"local_stop_id":371,"id":371,"geometry":"POINT(3500997.985448 1207545.07648)","attributes":{"address":"10.783333,31.45","placename":"10.783333,31.45","title":"Tereida"}},{"local_stop_id":370,"id":370,"geometry":"POINT(3267227.054783 1313480.093424)","attributes":{"address":"11.716667,29.35","placename":"11.716667,29.35","title":"Tebeik"}},{"local_stop_id":369,"id":369,"geometry":"POINT(3448801.38941 1216297.607722)","attributes":{"address":"10.86056,30.98111","placename":"10.86056,30.98111","title":"Talodi"}},{"local_stop_id":368,"id":368,"geometry":"POINT(3361848.621957 1188663.599131)","attributes":{"address":"10.616667,30.2","placename":"10.616667,30.2","title":"Taboli"}},{"local_stop_id":367,"id":367,"geometry":"POINT(3365058.296835 1212663.243287)","attributes":{"address":"10.828495,30.228833","placename":"10.828495,30.228833","title":"Saraf El Gamos"}},{"local_stop_id":366,"id":366,"geometry":"POINT(3507627.840362 1191049.693361)","attributes":{"address":"10.637734,31.509557","placename":"10.637734,31.509557","title":"Niaro"}},{"local_stop_id":365,"id":365,"geometry":"POINT(3534393.832686 1336226.039126)","attributes":{"address":"11.916667,31.75","placename":"11.916667,31.75","title":"Managir"}},{"local_stop_id":364,"id":364,"geometry":"POINT(3272830.877949 1226359.576393)","attributes":{"address":"10.949316,29.40034","placename":"10.949316,29.40034","title":"Lima"}},{"local_stop_id":363,"id":363,"geometry":"POINT(3268651.944265 1347017.210333)","attributes":{"address":"12.0115,29.3628","placename":"12.0115,29.3628","title":"Kujuria"}},{"local_stop_id":362,"id":362,"geometry":"POINT(3295056.927481 1219162.416969)","attributes":{"address":"10.885833,29.6","placename":"10.885833,29.6","title":"Korongo Abdalla"}},{"local_stop_id":361,"id":361,"geometry":"POINT(3475920.153202 1342642.160971)","attributes":{"address":"11.973056,31.224722","placename":"11.973056,31.224722","title":"Khor Fidaila"}},{"local_stop_id":360,"id":360,"geometry":"POINT(3306144.348764 1285199.467952)","attributes":{"address":"11.4678,29.6996","placename":"11.4678,29.6996","title":"Kega"}},{"local_stop_id":359,"id":359,"geometry":"POINT(3255766.267927 1307285.258137)","attributes":{"address":"11.662172,29.247046","placename":"11.662172,29.247046","title":"Kayo"}},{"local_stop_id":358,"id":358,"geometry":"POINT(3396462.304424 1241634.016885)","attributes":{"address":"11.084,30.51094","placename":"11.084,30.51094","title":"Kauda"}},{"local_stop_id":357,"id":357,"geometry":"POINT(3506373.047061 1188438.329167)","attributes":{"address":"10.614678,31.498285","placename":"10.614678,31.498285","title":"Kau"}},{"local_stop_id":356,"id":356,"geometry":"POINT(3303309.597931 1209839.781308)","attributes":{"address":"10.803582,29.674135","placename":"10.803582,29.674135","title":"Katcha"}},{"local_stop_id":355,"id":355,"geometry":"POINT(3448130.800798 1324424.733992)","attributes":{"address":"11.812919,30.975086","placename":"11.812919,30.975086","title":"Kaloba"}},{"local_stop_id":354,"id":354,"geometry":"POINT(3373162.244445 1366296.218818)","attributes":{"address":"12.180841,30.301632","placename":"12.180841,30.301632","title":"Kafeir"}},{"local_stop_id":353,"id":353,"geometry":"POINT(3282986.332455 1308075.701098)","attributes":{"address":"11.669126,29.491568","placename":"11.669126,29.491568","title":"Julud"}},{"local_stop_id":352,"id":352,"geometry":"POINT(3398005.192567 1256019.630529)","attributes":{"address":"11.21079,30.5248","placename":"11.21079,30.5248","title":"Heiban"}},{"local_stop_id":351,"id":351,"geometry":"POINT(3514044.073172 1179109.65375)","attributes":{"address":"10.5323,31.567195","placename":"10.5323,31.567195","title":"Fungor"}},{"local_stop_id":350,"id":350,"geometry":"POINT(3436061.652926 1213211.57496)","attributes":{"address":"10.833333,30.866667","placename":"10.833333,30.866667","title":"El Azraq"}},{"local_stop_id":349,"id":349,"geometry":"POINT(3455728.022086 1373793.639141)","attributes":{"address":"12.246667,31.043333","placename":"12.246667,31.043333","title":"Banat El Moreib"}},{"local_stop_id":348,"id":348,"geometry":"POINT(3397099.831148 1264253.204374)","attributes":{"address":"11.283333,30.516667","placename":"11.283333,30.516667","title":"Angerri"}},{"local_stop_id":347,"id":347,"geometry":"POINT(3274648.391275 1233996.943559)","attributes":{"address":"11.016667,29.416667","placename":"11.016667,29.416667","title":"Abu Sinun"}},{"local_stop_id":346,"id":346,"geometry":"POINT(3477174.612543 1283674.71127)","attributes":{"address":"11.454376,31.235991","placename":"11.454376,31.235991","title":"Abu Jebeeha"}},{"local_stop_id":345,"id":345,"geometry":"POINT(3225591.450156 1343573.018757)","attributes":{"address":"11.981236,28.975981","placename":"11.981236,28.975981","title":"Abo Jonok"}},{"local_stop_id":344,"id":344,"geometry":"POINT(2772189.279225 1428217.319359)","attributes":{"address":"12.724,24.903","placename":"12.724,24.903","title":"Zalata"}},{"local_stop_id":343,"id":343,"geometry":"POINT(2837533.820321 1296810.174097)","attributes":{"address":"11.57,25.49","placename":"11.57,25.49","title":"Yassin"}},{"local_stop_id":342,"id":342,"geometry":"POINT(2784211.784231 1409393.273323)","attributes":{"address":"12.559,25.011","placename":"12.559,25.011","title":"Yara"}},{"local_stop_id":341,"id":341,"geometry":"POINT(2704284.389841 1403235.306853)","attributes":{"address":"12.505,24.293","placename":"12.505,24.293","title":"Yahia Hajar"}},{"local_stop_id":340,"id":340,"geometry":"POINT(2864343.884032 1287925.037541)","attributes":{"address":"11.4917944,25.7308389","placename":"11.4917944,25.7308389","title":"Wazazeen"}},{"local_stop_id":339,"id":339,"geometry":"POINT(3016947.443632 1301999.630912)","attributes":{"address":"11.6156667,27.1017","placename":"11.6156667,27.1017","title":"Wad Joda"}},{"local_stop_id":338,"id":338,"geometry":"POINT(2839203.612682 1402209.104401)","attributes":{"address":"12.496,25.505","placename":"12.496,25.505","title":"Wad al mairam"}},{"local_stop_id":337,"id":337,"geometry":"POINT(2766289.346213 1343773.760001)","attributes":{"address":"11.983,24.85","placename":"11.983,24.85","title":"Umsauna"}},{"local_stop_id":336,"id":336,"geometry":"POINT(2861133.552369 1419773.515885)","attributes":{"address":"12.65,25.702","placename":"12.65,25.702","title":"Umridim"}},{"local_stop_id":335,"id":335,"geometry":"POINT(2965355.791103 1267598.040745)","attributes":{"address":"11.3127979,26.6382443","placename":"11.3127979,26.6382443","title":"Umrakuba"}},{"local_stop_id":334,"id":334,"geometry":"POINT(2788330.60539 1321136.004235)","attributes":{"address":"11.784,25.048","placename":"11.784,25.048","title":"Um-Kunya"}},{"local_stop_id":333,"id":333,"geometry":"POINT(2869347.639483 1405525.828494)","attributes":{"address":"12.5250872,25.7757884","placename":"12.5250872,25.7757884","title":"Um Lawaya"}},{"local_stop_id":332,"id":332,"geometry":"POINT(2669775.347695 1349464.25086)","attributes":{"address":"12.033,23.983","placename":"12.033,23.983","title":"Um Labasa"}},{"local_stop_id":331,"id":331,"geometry":"POINT(2801354.985813 1345708.408409)","attributes":{"address":"12,25.165","placename":"12,25.165","title":"Um Kurdos"}},{"local_stop_id":330,"id":330,"geometry":"POINT(2943509.975556 1274660.314084)","attributes":{"address":"11.375,26.442","placename":"11.375,26.442","title":"Um Gogaya"}},{"local_stop_id":329,"id":329,"geometry":"POINT(2888184.188631 1313859.0189)","attributes":{"address":"11.72,25.945","placename":"11.72,25.945","title":"Um Boim"}},{"local_stop_id":328,"id":328,"geometry":"POINT(2804471.931555 1381806.46235)","attributes":{"address":"12.317,25.193","placename":"12.317,25.193","title":"Um Alkhirat"}},{"local_stop_id":327,"id":327,"geometry":"POINT(2729219.955779 1256724.379621)","attributes":{"address":"11.217,24.517","placename":"11.217,24.517","title":"Tiwal"}},{"local_stop_id":326,"id":326,"geometry":"POINT(2742800.933655 1328073.45931)","attributes":{"address":"11.845,24.639","placename":"11.845,24.639","title":"Timbisco"}},{"local_stop_id":325,"id":325,"geometry":"POINT(2683467.645063 1443057.001337)","attributes":{"address":"12.854,24.106","placename":"12.854,24.106","title":"Thur East & West"}},{"local_stop_id":324,"id":324,"geometry":"POINT(2705612.79872 1397800.636896)","attributes":{"address":"12.4573333,24.3049333","placename":"12.4573333,24.3049333","title":"Tartur"}},{"local_stop_id":323,"id":323,"geometry":"POINT(2694377.033084 1419713.813234)","attributes":{"address":"12.6494767,24.2040007","placename":"12.6494767,24.2040007","title":"Taringa"}},{"local_stop_id":322,"id":322,"geometry":"POINT(2808479.433223 1375768.135999)","attributes":{"address":"12.264,25.229","placename":"12.264,25.229","title":"Taisha"}},{"local_stop_id":321,"id":321,"geometry":"POINT(2786816.036926 1325250.59298)","attributes":{"address":"11.8201806,25.0343944","placename":"11.8201806,25.0343944","title":"Tabeldiat"}},{"local_stop_id":320,"id":320,"geometry":"POINT(2996275.414192 1310448.513041)","attributes":{"address":"11.69,26.916","placename":"11.69,26.916","title":"Taalba"}},{"local_stop_id":319,"id":319,"geometry":"POINT(2860799.593896 1308288.717157)","attributes":{"address":"11.671,25.699","placename":"11.671,25.699","title":"Silia"}},{"local_stop_id":318,"id":318,"geometry":"POINT(3026665.635178 1261945.215555)","attributes":{"address":"11.263,27.189","placename":"11.263,27.189","title":"Sharif IDPs"}},{"local_stop_id":317,"id":317,"geometry":"POINT(3014887.409663 1291091.396564)","attributes":{"address":"11.5196667,27.0831944","placename":"11.5196667,27.0831944","title":"Shag Tayeeb"}},{"local_stop_id":316,"id":316,"geometry":"POINT(2850558.200743 1398104.651552)","attributes":{"address":"12.46,25.607","placename":"12.46,25.607","title":"Shaeria Town"}},{"local_stop_id":315,"id":315,"geometry":"POINT(2768414.691327 1364643.80438)","attributes":{"address":"12.1663309,24.8690923","placename":"12.1663309,24.8690923","title":"Shadida"}},{"local_stop_id":314,"id":314,"geometry":"POINT(2762949.761489 1346277.44586)","attributes":{"address":"12.005,24.82","placename":"12.005,24.82","title":"Serif Camp"}},{"local_stop_id":313,"id":313,"geometry":"POINT(2691371.328909 1379413.772365)","attributes":{"address":"12.296,24.177","placename":"12.296,24.177","title":"Savana B"}},{"local_stop_id":312,"id":312,"geometry":"POINT(2691371.328909 1379413.772365)","attributes":{"address":"12.296,24.177","placename":"12.296,24.177","title":"Savana A"}},{"local_stop_id":311,"id":311,"geometry":"POINT(2765612.30107 1316111.861119)","attributes":{"address":"11.739815,24.843918","placename":"11.739815,24.843918","title":"Sania Deliba"}},{"local_stop_id":310,"id":310,"geometry":"POINT(2829296.178002 1315337.019766)","attributes":{"address":"11.733,25.416","placename":"11.733,25.416","title":"Sania Afandu"}},{"local_stop_id":309,"id":309,"geometry":"POINT(2766289.346213 1343773.760001)","attributes":{"address":"11.983,24.85","placename":"11.983,24.85","title":"Sakeley"}},{"local_stop_id":308,"id":308,"geometry":"POINT(2750228.600888 1223305.271746)","attributes":{"address":"10.92237697,24.70572387","placename":"10.92237697,24.70572387","title":"Rajraj"}},{"local_stop_id":307,"id":307,"geometry":"POINT(2817496.311978 1292833.42942)","attributes":{"address":"11.535,25.31","placename":"11.535,25.31","title":"Rajella"}},{"local_stop_id":306,"id":306,"geometry":"POINT(2691371.328909 1379413.772365)","attributes":{"address":"12.296,24.177","placename":"12.296,24.177","title":"Otash"}},{"local_stop_id":305,"id":305,"geometry":"POINT(2691371.328909 1379413.772365)","attributes":{"address":"12.296,24.177","placename":"12.296,24.177","title":"Nyamma"}},{"local_stop_id":304,"id":304,"geometry":"POINT(2841430.002498 1414868.106647)","attributes":{"address":"12.607,25.525","placename":"12.607,25.525","title":"Netiga"}},{"local_stop_id":303,"id":303,"geometry":"POINT(2722954.894837 1208883.078325)","attributes":{"address":"10.79514,24.46072","placename":"10.79514,24.46072","title":"Nekhara"}},{"local_stop_id":302,"id":302,"geometry":"POINT(2728885.997306 1407340.474456)","attributes":{"address":"12.541,24.514","placename":"12.541,24.514","title":"Neima"}},{"local_stop_id":301,"id":301,"geometry":"POINT(2828404.698124 1447506.906199)","attributes":{"address":"12.8929694,25.4079917","placename":"12.8929694,25.4079917","title":"Negaia"}},{"local_stop_id":300,"id":300,"geometry":"POINT(2728261.739866 1349215.565706)","attributes":{"address":"12.0308151,24.5083922","placename":"12.0308151,24.5083922","title":"Narri"}},{"local_stop_id":299,"id":299,"geometry":"POINT(2851560.07616 1342749.583707)","attributes":{"address":"11.974,25.616","placename":"11.974,25.616","title":"Muhajeria"}},{"local_stop_id":298,"id":298,"geometry":"POINT(2769740.250427 1346163.637525)","attributes":{"address":"12.004,24.881","placename":"12.004,24.881","title":"Mosey"}},{"local_stop_id":297,"id":297,"geometry":"POINT(2709627.725399 1354131.243096)","attributes":{"address":"12.074,24.341","placename":"12.074,24.341","title":"Moaro"}},{"local_stop_id":296,"id":296,"geometry":"POINT(2772189.279225 1428217.319359)","attributes":{"address":"12.724,24.903","placename":"12.724,24.903","title":"Mershing"}},{"local_stop_id":295,"id":295,"geometry":"POINT(2798683.318034 1390923.22908)","attributes":{"address":"12.397,25.141","placename":"12.397,25.141","title":"Merier"}},{"local_stop_id":294,"id":294,"geometry":"POINT(2780426.921544 1422283.5795)","attributes":{"address":"12.672,24.977","placename":"12.672,24.977","title":"Menawashi"}},{"local_stop_id":293,"id":293,"geometry":"POINT(2813934.088272 1328755.915488)","attributes":{"address":"11.851,25.278","placename":"11.851,25.278","title":"Marla South"}},{"local_stop_id":292,"id":292,"geometry":"POINT(2785658.937611 1324547.674321)","attributes":{"address":"11.814,25.024","placename":"11.814,25.024","title":"Magarine"}},{"local_stop_id":291,"id":291,"geometry":"POINT(2708757.129057 1415989.855386)","attributes":{"address":"12.6168337,24.3331793","placename":"12.6168337,24.3331793","title":"Limo"}},{"local_stop_id":290,"id":290,"geometry":"POINT(2829296.178002 1296696.545926)","attributes":{"address":"11.569,25.416","placename":"11.569,25.416","title":"Labado"}},{"local_stop_id":289,"id":289,"geometry":"POINT(2649737.839352 1317838.410716)","attributes":{"address":"11.755,23.803","placename":"11.755,23.803","title":"Kubum"}},{"local_stop_id":288,"id":288,"geometry":"POINT(2763506.358943 1428445.564375)","attributes":{"address":"12.726,24.825","placename":"12.726,24.825","title":"Koroly"}},{"local_stop_id":287,"id":287,"geometry":"POINT(2701078.388506 1408070.342051)","attributes":{"address":"12.5474,24.2642","placename":"12.5474,24.2642","title":"Kideka"}},{"local_stop_id":286,"id":286,"geometry":"POINT(2912785.796097 1276590.720279)","attributes":{"address":"11.392,26.166","placename":"11.392,26.166","title":"Khor Omer"}},{"local_stop_id":285,"id":285,"geometry":"POINT(2813043.532346 1419431.251251)","attributes":{"address":"12.647,25.27","placename":"12.647,25.27","title":"Khor Abechi"}},{"local_stop_id":284,"id":284,"geometry":"POINT(2793896.57993 1403919.461682)","attributes":{"address":"12.511,25.098","placename":"12.511,25.098","title":"Keri Kier"}},{"local_stop_id":283,"id":283,"geometry":"POINT(2703393.833915 1403235.306853)","attributes":{"address":"12.505,24.285","placename":"12.505,24.285","title":"Kass Town (New Arrivals)"}},{"local_stop_id":282,"id":282,"geometry":"POINT(2703954.884148 1402910.338877)","attributes":{"address":"12.50215,24.29004","placename":"12.50215,24.29004","title":"Kass Town (New Arrivals from WD)"}},{"local_stop_id":281,"id":281,"geometry":"POINT(2820056.660266 1417035.511352)","attributes":{"address":"12.626,25.333","placename":"12.626,25.333","title":"Karumji"}},{"local_stop_id":280,"id":280,"geometry":"POINT(2784657.062194 1346277.44586)","attributes":{"address":"12.005,25.015","placename":"12.005,25.015","title":"Kalma"}},{"local_stop_id":279,"id":279,"geometry":"POINT(2815047.28318 1244696.916125)","attributes":{"address":"11.111,25.288","placename":"11.111,25.288","title":"Joghana"}},{"local_stop_id":278,"id":278,"geometry":"POINT(2756131.739901 1242861.166374)","attributes":{"address":"11.09481784,24.75875267","placename":"11.09481784,24.75875267","title":"Jidad"}},{"local_stop_id":277,"id":277,"geometry":"POINT(2974122.835524 1309652.78154)","attributes":{"address":"11.683,26.717","placename":"11.683,26.717","title":"Jad Elseid(Alnair)"}},{"local_stop_id":276,"id":276,"geometry":"POINT(2974122.835524 1309652.78154)","attributes":{"address":"11.683,26.717","placename":"11.683,26.717","title":"Jad Elseid IDPs"}},{"local_stop_id":275,"id":275,"geometry":"POINT(2690814.731455 1380097.378556)","attributes":{"address":"12.302,24.172","placename":"12.302,24.172","title":"Humira School"}},{"local_stop_id":274,"id":274,"geometry":"POINT(2715082.380448 1347301.739884)","attributes":{"address":"12.014,24.39","placename":"12.014,24.39","title":"Hilat Hosa"}},{"local_stop_id":273,"id":273,"geometry":"POINT(2901987.80549 1301128.345789)","attributes":{"address":"11.608,26.069","placename":"11.608,26.069","title":"Hilat Ali"}},{"local_stop_id":272,"id":272,"geometry":"POINT(2968000.26353 1280338.308985)","attributes":{"address":"11.425,26.662","placename":"11.425,26.662","title":"Hilal"}},{"local_stop_id":271,"id":271,"geometry":"POINT(2801800.263776 1322045.746446)","attributes":{"address":"11.792,25.169","placename":"11.792,25.169","title":"Hijaar"}},{"local_stop_id":270,"id":270,"geometry":"POINT(2514373.338548 1585117.908152)","attributes":{"address":"14.095,22.587","placename":"14.095,22.587","title":"Higliega"}},{"local_stop_id":269,"id":269,"geometry":"POINT(2790445.675715 1196177.176851)","attributes":{"address":"10.683,25.067","placename":"10.683,25.067","title":"Heriga"}},{"local_stop_id":268,"id":268,"geometry":"POINT(2709553.308319 1422352.42675)","attributes":{"address":"12.6726034,24.3403315","placename":"12.6726034,24.3403315","title":"Hashaba"}},{"local_stop_id":267,"id":267,"geometry":"POINT(2766734.624176 1373717.660114)","attributes":{"address":"12.246,24.854","placename":"12.246,24.854","title":"Halouf"}},{"local_stop_id":266,"id":266,"geometry":"POINT(2784211.784231 1409393.273323)","attributes":{"address":"12.559,25.011","placename":"12.559,25.011","title":"Goruf"}},{"local_stop_id":265,"id":265,"geometry":"POINT(2798571.998543 1263307.309901)","attributes":{"address":"11.275,25.14","placename":"11.275,25.14","title":"Gereida Camp"}},{"local_stop_id":264,"id":264,"geometry":"POINT(2799409.399412 1263072.458079)","attributes":{"address":"11.272931,25.1475225","placename":"11.272931,25.1475225","title":"Gereida"}},{"local_stop_id":263,"id":263,"geometry":"POINT(2786215.535065 1340359.971657)","attributes":{"address":"11.953,25.029","placename":"11.953,25.029","title":"Gadi"}},{"local_stop_id":262,"id":262,"geometry":"POINT(2788775.883353 1371325.61494)","attributes":{"address":"12.225,25.052","placename":"12.225,25.052","title":"Fasha"}},{"local_stop_id":261,"id":261,"geometry":"POINT(2708403.211 1409621.370951)","attributes":{"address":"12.561,24.33","placename":"12.561,24.33","title":"Erly"}},{"local_stop_id":260,"id":260,"geometry":"POINT(2745806.559907 1346960.304739)","attributes":{"address":"12.011,24.666","placename":"12.011,24.666","title":"Elban Jadied"}},{"local_stop_id":259,"id":259,"geometry":"POINT(2719813.458807 1194752.107112)","attributes":{"address":"10.67042,24.4325","placename":"10.67042,24.4325","title":"El Tomat"}},{"local_stop_id":258,"id":258,"geometry":"POINT(2702948.555951 1403577.382281)","attributes":{"address":"12.508,24.281","placename":"12.508,24.281","title":"El Thanawia Banat"}},{"local_stop_id":257,"id":257,"geometry":"POINT(2951413.659402 1320226.288523)","attributes":{"address":"11.776,26.513","placename":"11.776,26.513","title":"El Fwileh"}},{"local_stop_id":256,"id":256,"geometry":"POINT(2895762.50787 1328471.522802)","attributes":{"address":"11.8484997,26.0130772","placename":"11.8484997,26.0130772","title":"El Ardieb"}},{"local_stop_id":255,"id":255,"geometry":"POINT(2911004.684244 1280906.163477)","attributes":{"address":"11.43,26.15","placename":"11.43,26.15","title":"Ed Daein Town"}},{"local_stop_id":254,"id":254,"geometry":"POINT(2802468.180721 1329324.640425)","attributes":{"address":"11.856,25.175","placename":"11.856,25.175","title":"Dwana"}},{"local_stop_id":253,"id":253,"geometry":"POINT(2839203.612682 1402209.104401)","attributes":{"address":"12.496,25.505","placename":"12.496,25.505","title":"Duma Duma"}},{"local_stop_id":252,"id":252,"geometry":"POINT(2767959.138575 1404945.723735)","attributes":{"address":"12.52,24.865","placename":"12.52,24.865","title":"Duma Adwa"}},{"local_stop_id":251,"id":251,"geometry":"POINT(2685360.076406 1426163.195135)","attributes":{"address":"12.706,24.123","placename":"12.706,24.123","title":"Dugu camp"}},{"local_stop_id":250,"id":250,"geometry":"POINT(2786215.535065 1340359.971657)","attributes":{"address":"11.953,25.029","placename":"11.953,25.029","title":"Draib El Raih"}},{"local_stop_id":249,"id":249,"geometry":"POINT(2790487.231281 1291376.66749)","attributes":{"address":"11.5221777,25.0673733","placename":"11.5221777,25.0673733","title":"Donkey Dressa"}},{"local_stop_id":248,"id":248,"geometry":"POINT(2742149.848218 1290773.398034)","attributes":{"address":"11.5168676,24.6331512","placename":"11.5168676,24.6331512","title":"Domaya"}},{"local_stop_id":247,"id":247,"geometry":"POINT(2811039.781512 1281587.602093)","attributes":{"address":"11.436,25.252","placename":"11.436,25.252","title":"Dito"}},{"local_stop_id":246,"id":246,"geometry":"POINT(2980468.046499 1292833.42942)","attributes":{"address":"11.535,26.774","placename":"11.535,26.774","title":"Direga"}},{"local_stop_id":245,"id":245,"geometry":"POINT(2736229.748567 1226419.396485)","attributes":{"address":"10.94984359,24.57997004","placename":"10.94984359,24.57997004","title":"Dimso"}},{"local_stop_id":244,"id":244,"geometry":"POINT(2748984.731369 1311406.896029)","attributes":{"address":"11.6984306,24.69455","placename":"11.6984306,24.69455","title":"Dimo"}},{"local_stop_id":243,"id":243,"geometry":"POINT(2696861.539403 1410814.795263)","attributes":{"address":"12.5714639,24.2263194","placename":"12.5714639,24.2263194","title":"Dibis"}},{"local_stop_id":242,"id":242,"geometry":"POINT(2774526.988532 1354358.919508)","attributes":{"address":"12.076,24.924","placename":"12.076,24.924","title":"Dereige"}},{"local_stop_id":241,"id":241,"geometry":"POINT(2942062.822175 1280338.308985)","attributes":{"address":"11.425,26.429","placename":"11.425,26.429","title":"Dar Alsalam"}},{"local_stop_id":240,"id":240,"geometry":"POINT(2739461.348932 1346618.873398)","attributes":{"address":"12.008,24.609","placename":"12.008,24.609","title":"Dalal Angra"}},{"local_stop_id":239,"id":239,"geometry":"POINT(2647734.088518 1352423.724175)","attributes":{"address":"12.059,23.785","placename":"12.059,23.785","title":"Dagadousa"}},{"local_stop_id":238,"id":238,"geometry":"POINT(2788553.244372 1330803.374034)","attributes":{"address":"11.869,25.05","placename":"11.869,25.05","title":"Couka"}},{"local_stop_id":237,"id":237,"geometry":"POINT(2785992.896083 1345480.796385)","attributes":{"address":"11.998,25.027","placename":"11.998,25.027","title":"Bileil"}},{"local_stop_id":236,"id":236,"geometry":"POINT(2957981.509359 1277272.067658)","attributes":{"address":"11.398,26.572","placename":"11.398,26.572","title":"Bakhit"}},{"local_stop_id":235,"id":235,"geometry":"POINT(2716752.17281 1359823.664175)","attributes":{"address":"12.124,24.405","placename":"12.124,24.405","title":"Azomri"}},{"local_stop_id":234,"id":234,"geometry":"POINT(2864027.859129 1275000.965623)","attributes":{"address":"11.378,25.728","placename":"11.378,25.728","title":"Assalaya"}},{"local_stop_id":233,"id":233,"geometry":"POINT(2661982.98334 1369161.547277)","attributes":{"address":"12.206,23.913","placename":"12.206,23.913","title":"Ardeba"}},{"local_stop_id":232,"id":232,"geometry":"POINT(2734785.930318 1355725.013695)","attributes":{"address":"12.088,24.567","placename":"12.088,24.567","title":"Amar Jaded"}},{"local_stop_id":231,"id":231,"geometry":"POINT(2754155.521716 1367680.958858)","attributes":{"address":"12.193,24.741","placename":"12.193,24.741","title":"Amakasara"}},{"local_stop_id":230,"id":230,"geometry":"POINT(2772968.51566 1357318.867697)","attributes":{"address":"12.102,24.91","placename":"12.102,24.91","title":"Al Salam"}},{"local_stop_id":229,"id":229,"geometry":"POINT(2938723.237452 1317042.491934)","attributes":{"address":"11.748,26.399","placename":"11.748,26.399","title":"Al Sahab"}},{"local_stop_id":228,"id":228,"geometry":"POINT(2735946.992607 1287164.584579)","attributes":{"address":"11.4851,24.57743","placename":"11.4851,24.57743","title":"Al Safia"}},{"local_stop_id":227,"id":227,"geometry":"POINT(2848962.625086 1272094.823588)","attributes":{"address":"11.3524056,25.5926667","placename":"11.3524056,25.5926667","title":"Al Rouse"}},{"local_stop_id":226,"id":226,"geometry":"POINT(2980690.685481 1293515.121826)","attributes":{"address":"11.541,26.776","placename":"11.541,26.776","title":"Al Neem"}},{"local_stop_id":225,"id":225,"geometry":"POINT(3002954.583639 1297832.84591)","attributes":{"address":"11.579,26.976","placename":"11.579,26.976","title":"Al Mazroub HC"}},{"local_stop_id":224,"id":224,"geometry":"POINT(2907108.502066 1285449.360492)","attributes":{"address":"11.47,26.115","placename":"11.47,26.115","title":"Al Mashroot"}},{"local_stop_id":223,"id":223,"geometry":"POINT(2768627.05552 1450137.089538)","attributes":{"address":"12.916,24.871","placename":"12.916,24.871","title":"Al Malam"}},{"local_stop_id":222,"id":222,"geometry":"POINT(3010969.586976 1260696.678979)","attributes":{"address":"11.252,27.048","placename":"11.252,27.048","title":"Al Gora IDPs"}},{"local_stop_id":221,"id":221,"geometry":"POINT(2871374.945522 1242881.830551)","attributes":{"address":"11.095,25.794","placename":"11.095,25.794","title":"Al Firdos"}},{"local_stop_id":220,"id":220,"geometry":"POINT(2703616.472896 1402551.167915)","attributes":{"address":"12.499,24.287","placename":"12.499,24.287","title":"Al Battery"}},{"local_stop_id":219,"id":219,"geometry":"POINT(2878288.420234 1396198.942703)","attributes":{"address":"12.4432834,25.8561048","placename":"12.4432834,25.8561048","title":"Ajara"}},{"local_stop_id":218,"id":218,"geometry":"POINT(3015533.686099 1267053.362813)","attributes":{"address":"11.308,27.089","placename":"11.308,27.089","title":"Adilla IDPs"}},{"local_stop_id":217,"id":217,"geometry":"POINT(2751421.1588 1253229.120235)","attributes":{"address":"11.1861997,24.7164368","placename":"11.1861997,24.7164368","title":"Abu Sallala"}},{"local_stop_id":216,"id":216,"geometry":"POINT(2794675.816365 1365744.914284)","attributes":{"address":"12.176,25.105","placename":"12.176,25.105","title":"Abu Odam"}},{"local_stop_id":215,"id":215,"geometry":"POINT(2916793.297765 1230519.197251)","attributes":{"address":"10.986,26.202","placename":"10.986,26.202","title":"Abu Matariq IDPs"}},{"local_stop_id":214,"id":214,"geometry":"POINT(2953940.82335 1298719.904007)","attributes":{"address":"11.5868063,26.5357019","placename":"11.5868063,26.5357019","title":"Abu karinka HC"}},{"local_stop_id":213,"id":213,"geometry":"POINT(2989373.605763 1239592.241183)","attributes":{"address":"11.066,26.854","placename":"11.066,26.854","title":"Abu Jabra (Ed Daein)"}},{"local_stop_id":212,"id":212,"geometry":"POINT(2976683.183812 1238911.677171)","attributes":{"address":"11.06,26.74","placename":"11.06,26.74","title":"Abu Jabra (Buram)"}},{"local_stop_id":211,"id":211,"geometry":"POINT(2746923.461754 1299880.186084)","attributes":{"address":"11.5970167,24.6760333","placename":"11.5970167,24.6760333","title":"Abu ajoura"}},{"local_stop_id":210,"id":210,"geometry":"POINT(2702725.91697 1404261.545057)","attributes":{"address":"12.514,24.279","placename":"12.514,24.279","title":"A\/Jabar A"}},{"local_stop_id":209,"id":209,"geometry":"POINT(2817384.992487 1514739.361421)","attributes":{"address":"13.481,25.309","placename":"13.481,25.309","title":"Zam Zam Camp"}},{"local_stop_id":208,"id":208,"geometry":"POINT(2817384.992487 1514739.361421)","attributes":{"address":"13.481,25.309","placename":"13.481,25.309","title":"Zam Zam Camp"}},{"local_stop_id":207,"id":207,"geometry":"POINT(2838535.695738 1561828.894008)","attributes":{"address":"13.892,25.499","placename":"13.892,25.499","title":"Wama"}},{"local_stop_id":206,"id":206,"geometry":"POINT(2825429.283982 1732565.462848)","attributes":{"address":"15.3759499,25.3812631","placename":"15.3759499,25.3812631","title":"Wakahem"}},{"local_stop_id":205,"id":205,"geometry":"POINT(2920912.118925 1666161.581909)","attributes":{"address":"14.8,26.239","placename":"14.8,26.239","title":"Wadi Osher"}},{"local_stop_id":204,"id":204,"geometry":"POINT(2866572.132883 1465043.377685)","attributes":{"address":"13.0464833,25.7508556","placename":"13.0464833,25.7508556","title":"Wadi Kota"}},{"local_stop_id":203,"id":203,"geometry":"POINT(2619681.576838 1723798.498982)","attributes":{"address":"15.3,23.533","placename":"15.3,23.533","title":"Uru"}},{"local_stop_id":202,"id":202,"geometry":"POINT(2799907.832432 1623021.278636)","attributes":{"address":"14.425,25.152","placename":"14.425,25.152","title":"Um Sidr"}},{"local_stop_id":201,"id":201,"geometry":"POINT(2706399.460166 1646020.276708)","attributes":{"address":"14.625,24.312","placename":"14.625,24.312","title":"Um Shidiq"}},{"local_stop_id":200,"id":200,"geometry":"POINT(2796289.948982 1503313.469713)","attributes":{"address":"13.3811667,25.1195","placename":"13.3811667,25.1195","title":"Um Sayalla - Alein"}},{"local_stop_id":199,"id":199,"geometry":"POINT(2771076.084317 1651428.070852)","attributes":{"address":"14.672,24.893","placename":"14.672,24.893","title":"Um Rai"}},{"local_stop_id":198,"id":198,"geometry":"POINT(2702846.709749 1658049.068564)","attributes":{"address":"14.7295304,24.2800851","placename":"14.7295304,24.2800851","title":"Um Marahik Area"}},{"local_stop_id":197,"id":197,"geometry":"POINT(2702837.236461 1658103.120573)","attributes":{"address":"14.73,24.28","placename":"14.73,24.28","title":"Um Mahareik"}},{"local_stop_id":196,"id":196,"geometry":"POINT(2753710.243753 1573528.19284)","attributes":{"address":"13.994,24.737","placename":"13.994,24.737","title":"Um layona"}},{"local_stop_id":195,"id":195,"geometry":"POINT(2791002.273169 1499633.010861)","attributes":{"address":"13.349,25.072","placename":"13.349,25.072","title":"Um Laota"}},{"local_stop_id":194,"id":194,"geometry":"POINT(2802134.222248 1481219.008213)","attributes":{"address":"13.188,25.172","placename":"13.188,25.172","title":"Um Khair"}},{"local_stop_id":193,"id":193,"geometry":"POINT(2971245.293479 1528647.630543)","attributes":{"address":"13.6024667,26.6911506","placename":"13.6024667,26.6911506","title":"Um Kadada"}},{"local_stop_id":192,"id":192,"geometry":"POINT(2690703.411964 1682516.752635)","attributes":{"address":"14.942,24.171","placename":"14.942,24.171","title":"Um Haraz"}},{"local_stop_id":191,"id":191,"geometry":"POINT(2771855.320753 1532183.074996)","attributes":{"address":"13.6333333,24.9","placename":"13.6333333,24.9","title":"Um Gelbag"}},{"local_stop_id":190,"id":190,"geometry":"POINT(2886445.378185 1525996.49284)","attributes":{"address":"13.579318,25.92938","placename":"13.579318,25.92938","title":"Um Dum Area"}},{"local_stop_id":189,"id":189,"geometry":"POINT(2836776.614012 1463521.914265)","attributes":{"address":"13.0331682,25.4831979","placename":"13.0331682,25.4831979","title":"Um Dul"}},{"local_stop_id":188,"id":188,"geometry":"POINT(2800033.690249 1457436.626778)","attributes":{"address":"12.9799056,25.1531306","placename":"12.9799056,25.1531306","title":"Um Deressaya"}},{"local_stop_id":187,"id":187,"geometry":"POINT(2772368.75964 1516894.365087)","attributes":{"address":"13.4998246,24.9046123","placename":"13.4998246,24.9046123","title":"Um Buranga"}},{"local_stop_id":186,"id":186,"geometry":"POINT(2994315.100223 1681835.598081)","attributes":{"address":"14.9360879,26.8983902","placename":"14.9360879,26.8983902","title":"Um Bayada"}},{"local_stop_id":185,"id":185,"geometry":"POINT(2638781.775068 1691584.703398)","attributes":{"address":"15.02069,23.70458","placename":"15.02069,23.70458","title":"Um Barru"}},{"local_stop_id":184,"id":184,"geometry":"POINT(2825656.75423 1576128.710009)","attributes":{"address":"14.0166664,25.3833065","placename":"14.0166664,25.3833065","title":"Um Ajaja"}},{"local_stop_id":183,"id":183,"geometry":"POINT(2681797.852701 1711914.193282)","attributes":{"address":"15.197,24.091","placename":"15.197,24.091","title":"Turba"}},{"local_stop_id":182,"id":182,"geometry":"POINT(2855344.938847 1578347.057818)","attributes":{"address":"14.036,25.65","placename":"14.036,25.65","title":"Tofto"}},{"local_stop_id":181,"id":181,"geometry":"POINT(2666101.804499 1727607.326502)","attributes":{"address":"15.333,23.95","placename":"15.333,23.95","title":"Ternawdo"}},{"local_stop_id":180,"id":180,"geometry":"POINT(2773082.595875 1515071.977785)","attributes":{"address":"13.4839056,24.9110248","placename":"13.4839056,24.9110248","title":"Tawila & Rwanda"}},{"local_stop_id":179,"id":179,"geometry":"POINT(2795326.000115 1482205.278272)","attributes":{"address":"13.196626,25.1108407","placename":"13.196626,25.1108407","title":"Tangrara"}},{"local_stop_id":178,"id":178,"geometry":"POINT(2763868.147288 1542836.520527)","attributes":{"address":"13.72632,24.82825","placename":"13.72632,24.82825","title":"Ta'alba"}},{"local_stop_id":177,"id":177,"geometry":"POINT(2881059.741221 1630953.584727)","attributes":{"address":"14.494,25.881","placename":"14.494,25.881","title":"Sindy"}},{"local_stop_id":176,"id":176,"geometry":"POINT(2682688.408627 1529166.84349)","attributes":{"address":"13.607,24.099","placename":"13.607,24.099","title":"Shoba Mansour"}},{"local_stop_id":175,"id":175,"geometry":"POINT(2791057.932914 1478970.508849)","attributes":{"address":"13.1683333,25.0725","placename":"13.1683333,25.0725","title":"Shewa Safaha"}},{"local_stop_id":174,"id":174,"geometry":"POINT(2791113.59266 1478932.404122)","attributes":{"address":"13.168,25.073","placename":"13.168,25.073","title":"Sherifa"}},{"local_stop_id":173,"id":173,"geometry":"POINT(2672195.210786 1740981.740267)","attributes":{"address":"15.4488357,24.004738","placename":"15.4488357,24.004738","title":"Shegeg Karo"}},{"local_stop_id":172,"id":172,"geometry":"POINT(2804026.653592 1466587.960939)","attributes":{"address":"13.06,25.189","placename":"13.06,25.189","title":"Shangil Tobay Camp"}},{"local_stop_id":171,"id":171,"geometry":"POINT(2954196.646672 1689776.378432)","attributes":{"address":"15.005,26.538","placename":"15.005,26.538","title":"Shakhakha"}},{"local_stop_id":170,"id":170,"geometry":"POINT(2947851.435697 1352992.886532)","attributes":{"address":"12.064,26.481","placename":"12.064,26.481","title":"Shak-Elkhadir"}},{"local_stop_id":169,"id":169,"geometry":"POINT(2808939.550075 1534154.500052)","attributes":{"address":"13.6505433,25.2331333","placename":"13.6505433,25.2331333","title":"Shagra Area"}},{"local_stop_id":168,"id":168,"geometry":"POINT(2940170.390832 1744003.708332)","attributes":{"address":"15.475,26.412","placename":"15.475,26.412","title":"Sereif"}},{"local_stop_id":167,"id":167,"geometry":"POINT(2866810.846399 1610150.875998)","attributes":{"address":"14.313,25.753","placename":"14.313,25.753","title":"Sayeh"}},{"local_stop_id":166,"id":166,"geometry":"POINT(2788586.395316 1539027.81355)","attributes":{"address":"13.6930806,25.0502978","placename":"13.6930806,25.0502978","title":"Sarfaya Area"}},{"local_stop_id":165,"id":165,"geometry":"POINT(2595079.969373 1514281.471059)","attributes":{"address":"13.477,23.312","placename":"13.477,23.312","title":"Saraf Omra"}},{"local_stop_id":164,"id":164,"geometry":"POINT(2850224.242271 1643029.228521)","attributes":{"address":"14.599,25.604","placename":"14.599,25.604","title":"Sani Haye"}},{"local_stop_id":163,"id":163,"geometry":"POINT(2646318.104595 1527067.512732)","attributes":{"address":"13.58867,23.77228","placename":"13.58867,23.77228","title":"Sangir (Sangir, Jebel-Moos, Tege)"}},{"local_stop_id":162,"id":162,"geometry":"POINT(2852745.628737 1502399.976915)","attributes":{"address":"13.3731833,25.62665","placename":"13.3731833,25.62665","title":"Sag El Naam"}},{"local_stop_id":161,"id":161,"geometry":"POINT(2659522.822593 1671722.952604)","attributes":{"address":"14.8482958,23.8909","placename":"14.8482958,23.8909","title":"Orschi (inclues Ana Bagi)"}},{"local_stop_id":160,"id":160,"geometry":"POINT(2699163.693265 1696922.861273)","attributes":{"address":"15.067,24.247","placename":"15.067,24.247","title":"Oriri"}},{"local_stop_id":159,"id":159,"geometry":"POINT(2767847.819084 1661901.786214)","attributes":{"address":"14.763,24.864","placename":"14.763,24.864","title":"Onyo"}},{"local_stop_id":158,"id":158,"geometry":"POINT(2676120.55867 1511419.829764)","attributes":{"address":"13.452,24.04","placename":"13.452,24.04","title":"Nomo"}},{"local_stop_id":157,"id":157,"geometry":"POINT(2772077.959734 1512678.915104)","attributes":{"address":"13.463,24.902","placename":"13.463,24.902","title":"Nina"}},{"local_stop_id":156,"id":156,"geometry":"POINT(2697159.94243 1719067.15511)","attributes":{"address":"15.259,24.229","placename":"15.259,24.229","title":"Muzbat"}},{"local_stop_id":155,"id":155,"geometry":"POINT(2632705.957261 1708453.838019)","attributes":{"address":"15.167,23.65","placename":"15.167,23.65","title":"Mustariha"}},{"local_stop_id":154,"id":154,"geometry":"POINT(2773636.432605 1192439.043079)","attributes":{"address":"10.65,24.916","placename":"10.65,24.916","title":"Mulam Elhush"}},{"local_stop_id":153,"id":153,"geometry":"POINT(2865029.734546 1638083.270418)","attributes":{"address":"14.556,25.737","placename":"14.556,25.737","title":"Mou"}},{"local_stop_id":152,"id":152,"geometry":"POINT(2696046.747522 1672149.550883)","attributes":{"address":"14.852,24.219","placename":"14.852,24.219","title":"Miski"}},{"local_stop_id":151,"id":151,"geometry":"POINT(2844212.989768 1590283.292585)","attributes":{"address":"14.14,25.55","placename":"14.14,25.55","title":"Mellit town- Residents"}},{"local_stop_id":150,"id":150,"geometry":"POINT(2652991.77486 1522679.255929)","attributes":{"address":"13.55035,23.8322306","placename":"13.55035,23.8322306","title":"Mastriha (Mastriha, Mithieb)"}},{"local_stop_id":149,"id":149,"geometry":"POINT(2741722.949102 1585688.437888)","attributes":{"address":"14.0999708,24.6293163","placename":"14.0999708,24.6293163","title":"Masri (incl Dawa\/Beliga)"}},{"local_stop_id":148,"id":148,"geometry":"POINT(2931487.47055 1685627.759445)","attributes":{"address":"14.969,26.334","placename":"14.969,26.334","title":"Marsous"}},{"local_stop_id":147,"id":147,"geometry":"POINT(2958538.106813 1668234.177644)","attributes":{"address":"14.818,26.577","placename":"14.818,26.577","title":"Marega"}},{"local_stop_id":146,"id":146,"geometry":"POINT(2911333.711263 1698710.291162)","attributes":{"address":"15.0825042,26.1529557","placename":"15.0825042,26.1529557","title":"Malha Town"}},{"local_stop_id":145,"id":145,"geometry":"POINT(2741242.460784 1626699.723012)","attributes":{"address":"14.457,24.625","placename":"14.457,24.625","title":"Malagat"}},{"local_stop_id":144,"id":144,"geometry":"POINT(2898759.540257 1643719.439009)","attributes":{"address":"14.605,26.04","placename":"14.605,26.04","title":"Mado Shamal"}},{"local_stop_id":143,"id":143,"geometry":"POINT(2796234.289236 1538216.558917)","attributes":{"address":"13.686,25.119","placename":"13.686,25.119","title":"Mado Jenub"}},{"local_stop_id":142,"id":142,"geometry":"POINT(2679126.184922 1693003.565081)","attributes":{"address":"15.033,24.067","placename":"15.033,24.067","title":"Lil"}},{"local_stop_id":141,"id":141,"geometry":"POINT(3002175.347204 1333306.006983)","attributes":{"address":"11.891,26.969","placename":"11.891,26.969","title":"Likeliki"}},{"local_stop_id":140,"id":140,"geometry":"POINT(2779202.407145 1583970.183391)","attributes":{"address":"14.085,24.966","placename":"14.085,24.966","title":"Lemena"}},{"local_stop_id":139,"id":139,"geometry":"POINT(2744025.448054 1597861.039687)","attributes":{"address":"14.206,24.65","placename":"14.206,24.65","title":"Kutum Town"}},{"local_stop_id":138,"id":138,"geometry":"POINT(2696680.600703 1645737.722556)","attributes":{"address":"14.622544,24.224694","placename":"14.622544,24.224694","title":"Kurbia (includes Um Mahareik)"}},{"local_stop_id":137,"id":137,"geometry":"POINT(2771146.048617 1517696.647833)","attributes":{"address":"13.5068324,24.8936285","placename":"13.5068324,24.8936285","title":"Kunjarra"}},{"local_stop_id":136,"id":136,"geometry":"POINT(2772984.078125 1568402.483449)","attributes":{"address":"13.9493172,24.9101398","placename":"13.9493172,24.9101398","title":"Kuma"}},{"local_stop_id":135,"id":135,"geometry":"POINT(2808590.752714 1591316.492013)","attributes":{"address":"14.149,25.23","placename":"14.149,25.23","title":"Kul Kul"}},{"local_stop_id":134,"id":134,"geometry":"POINT(2895308.636042 1620492.654723)","attributes":{"address":"14.403,26.009","placename":"14.403,26.009","title":"Koskorie"}},{"local_stop_id":133,"id":133,"geometry":"POINT(2755686.832632 1557280.292283)","attributes":{"address":"13.852331,24.754756","placename":"13.852331,24.754756","title":"Korma"}},{"local_stop_id":132,"id":132,"geometry":"POINT(2752819.687827 1591775.704889)","attributes":{"address":"14.153,24.729","placename":"14.153,24.729","title":"Korgay"}},{"local_stop_id":131,"id":131,"geometry":"POINT(2776792.030701 1503205.078824)","attributes":{"address":"13.38021944,24.94434722","placename":"13.38021944,24.94434722","title":"Khartoum-Jadid"}},{"local_stop_id":130,"id":130,"geometry":"POINT(2860910.913387 1626469.804733)","attributes":{"address":"14.455,25.7","placename":"14.455,25.7","title":"Kedrin"}},{"local_stop_id":129,"id":129,"geometry":"POINT(2744582.045508 1601076.508515)","attributes":{"address":"14.234,24.655","placename":"14.234,24.655","title":"Kassab Camp"}},{"local_stop_id":128,"id":128,"geometry":"POINT(2608498.297228 1692369.299589)","attributes":{"address":"15.02749722,23.43253889","placename":"15.02749722,23.43253889","title":"Kamo"}},{"local_stop_id":127,"id":127,"geometry":"POINT(2887572.37671 1454416.597934)","attributes":{"address":"12.953468,25.939504","placename":"12.953468,25.939504","title":"Kalamindo"}},{"local_stop_id":126,"id":126,"geometry":"POINT(2650442.558521 1508940.619336)","attributes":{"address":"13.4303389,23.8093306","placename":"13.4303389,23.8093306","title":"Kala"}},{"local_stop_id":125,"id":125,"geometry":"POINT(2777721.24566 1575678.089361)","attributes":{"address":"14.0127389,24.9526945","placename":"14.0127389,24.9526945","title":"Kafot"}},{"local_stop_id":124,"id":124,"geometry":"POINT(2648491.675539 1577314.361614)","attributes":{"address":"14.02699993,23.79180552","placename":"14.02699993,23.79180552","title":"Kabkabeiya Town"}},{"local_stop_id":123,"id":123,"geometry":"POINT(2606654.413428 1680242.316205)","attributes":{"address":"14.92225833,23.415975","placename":"14.92225833,23.415975","title":"Jurageem"}},{"local_stop_id":122,"id":122,"geometry":"POINT(2679126.184922 1723798.498982)","attributes":{"address":"15.3,24.067","placename":"15.3,24.067","title":"Juktora"}},{"local_stop_id":121,"id":121,"geometry":"POINT(2596409.012773 1686841.273543)","attributes":{"address":"14.979531,23.323939","placename":"14.979531,23.323939","title":"Jourbokay"}},{"local_stop_id":120,"id":120,"geometry":"POINT(2825882.584741 1523749.693958)","attributes":{"address":"13.55969806,25.38533517","placename":"13.55969806,25.38533517","title":"Jougojougo Area"}},{"local_stop_id":119,"id":119,"geometry":"POINT(2900206.693637 1734303.088035)","attributes":{"address":"15.391,26.053","placename":"15.391,26.053","title":"Jebel Eisa"}},{"local_stop_id":118,"id":118,"geometry":"POINT(2841314.972729 1476977.505718)","attributes":{"address":"13.1509,25.52396667","placename":"13.1509,25.52396667","title":"Jauwr"}},{"local_stop_id":117,"id":117,"geometry":"POINT(2756159.272551 1589594.515683)","attributes":{"address":"14.134,24.759","placename":"14.134,24.759","title":"Jamboli"}},{"local_stop_id":116,"id":116,"geometry":"POINT(2745806.559907 1562516.945087)","attributes":{"address":"13.898,24.666","placename":"13.898,24.666","title":"Jabir"}},{"local_stop_id":115,"id":115,"geometry":"POINT(2854009.104958 1592120.119852)","attributes":{"address":"14.156,25.638","placename":"14.156,25.638","title":"Hillat Kharif"}},{"local_stop_id":114,"id":114,"geometry":"POINT(2833081.040689 1664779.947004)","attributes":{"address":"14.788,25.45","placename":"14.788,25.45","title":"Hilif Shamal"}},{"local_stop_id":113,"id":113,"geometry":"POINT(2826290.55175 1658448.430025)","attributes":{"address":"14.733,25.389","placename":"14.733,25.389","title":"Hilif Saniya"}},{"local_stop_id":112,"id":112,"geometry":"POINT(2826290.55175 1658448.430025)","attributes":{"address":"14.733,25.389","placename":"14.733,25.389","title":"Hilif Jenub"}},{"local_stop_id":111,"id":111,"geometry":"POINT(2578827.323717 1682171.109375)","attributes":{"address":"14.939,23.166","placename":"14.939,23.166","title":"Hilaliya"}},{"local_stop_id":110,"id":110,"geometry":"POINT(2964771.998297 1341042.699023)","attributes":{"address":"11.959,26.633","placename":"11.959,26.633","title":"Haskanita"}},{"local_stop_id":109,"id":109,"geometry":"POINT(2798683.318034 1606130.193842)","attributes":{"address":"14.278,25.141","placename":"14.278,25.141","title":"Hashaba South"}},{"local_stop_id":108,"id":108,"geometry":"POINT(2780872.199507 1624515.582862)","attributes":{"address":"14.438,24.981","placename":"14.438,24.981","title":"Hashaba North"}},{"local_stop_id":107,"id":107,"geometry":"POINT(2791892.829095 1618768.735944)","attributes":{"address":"14.388,25.08","placename":"14.388,25.08","title":"Hashaba Center"}},{"local_stop_id":106,"id":106,"geometry":"POINT(2827515.066149 1591316.492013)","attributes":{"address":"14.149,25.4","placename":"14.149,25.4","title":"Hashaba Baraka"}},{"local_stop_id":105,"id":105,"geometry":"POINT(2686510.37744 1534092.262222)","attributes":{"address":"13.65,24.13333333","placename":"13.65,24.13333333","title":"Harra"}},{"local_stop_id":104,"id":104,"geometry":"POINT(2666435.762971 1597286.890707)","attributes":{"address":"14.201,23.953","placename":"14.201,23.953","title":"Hareiga"}},{"local_stop_id":103,"id":103,"geometry":"POINT(2662316.941812 1705916.556349)","attributes":{"address":"15.145,23.916","placename":"15.145,23.916","title":"Gurbura"}},{"local_stop_id":102,"id":102,"geometry":"POINT(2884733.284417 1595105.240174)","attributes":{"address":"14.182,25.914","placename":"14.182,25.914","title":"Goz Laben"}},{"local_stop_id":101,"id":101,"geometry":"POINT(2812481.368918 1495382.981348)","attributes":{"address":"13.31185,25.26495","placename":"13.31185,25.26495","title":"Gos Diges"}},{"local_stop_id":100,"id":100,"geometry":"POINT(2834505.930171 1507378.430355)","attributes":{"address":"13.4166889,25.4628","placename":"13.4166889,25.4628","title":"Gos Beina"}},{"local_stop_id":99,"id":99,"geometry":"POINT(2756493.231023 1599468.724326)","attributes":{"address":"14.22,24.762","placename":"14.22,24.762","title":"Goba"}},{"local_stop_id":98,"id":98,"geometry":"POINT(2831743.351437 1489145.446397)","attributes":{"address":"13.257316667,25.437983333","placename":"13.257316667,25.437983333","title":"Gerwit Beshim"}},{"local_stop_id":97,"id":97,"geometry":"POINT(2658131.562729 1530934.954259)","attributes":{"address":"13.6224369,23.8784021","placename":"13.6224369,23.8784021","title":"Gergo (Gergo, Sabrna, Sanabiel)"}},{"local_stop_id":96,"id":96,"geometry":"POINT(2587407.582938 1707049.971285)","attributes":{"address":"15.15482778,23.24307778","placename":"15.15482778,23.24307778","title":"Gasimba"}},{"local_stop_id":95,"id":95,"geometry":"POINT(2821949.091609 1527448.884806)","attributes":{"address":"13.592,25.35","placename":"13.592,25.35","title":"Garni Area"}},{"local_stop_id":94,"id":94,"geometry":"POINT(2656676.138311 1546679.072498)","attributes":{"address":"13.75985,23.8653278","placename":"13.75985,23.8653278","title":"Gara-Zawia"}},{"local_stop_id":93,"id":93,"geometry":"POINT(2657661.226748 1544056.382387)","attributes":{"address":"13.736965,23.874177","placename":"13.736965,23.874177","title":"Gara-Ferjawia"}},{"local_stop_id":92,"id":92,"geometry":"POINT(2629366.372537 1751859.474743)","attributes":{"address":"15.543,23.62","placename":"15.543,23.62","title":"Furawiya"}},{"local_stop_id":91,"id":91,"geometry":"POINT(2672780.973946 1666161.581909)","attributes":{"address":"14.8,24.01","placename":"14.8,24.01","title":"Frog"}},{"local_stop_id":90,"id":90,"geometry":"POINT(2839982.849118 1570774.951113)","attributes":{"address":"13.97,25.512","placename":"13.97,25.512","title":"Fazi Dor"}},{"local_stop_id":89,"id":89,"geometry":"POINT(2734118.013374 1591660.900912)","attributes":{"address":"14.152,24.561","placename":"14.152,24.561","title":"Fata Borno"}},{"local_stop_id":88,"id":88,"geometry":"POINT(2660976.632879 1510224.084163)","attributes":{"address":"13.4415529,23.9039598","placename":"13.4415529,23.9039598","title":"Fago"}},{"local_stop_id":87,"id":87,"geometry":"POINT(2990357.235915 1369411.796675)","attributes":{"address":"12.2081972,26.8628361","placename":"12.2081972,26.8628361","title":"Eyal Amin"}},{"local_stop_id":86,"id":86,"geometry":"POINT(2734245.474191 1601288.398932)","attributes":{"address":"14.235845,24.562145","placename":"14.235845,24.562145","title":"ElSheikh A\/AlBagi"}},{"local_stop_id":85,"id":85,"geometry":"POINT(2607102.474378 1572898.52407)","attributes":{"address":"13.9885114,23.42","placename":"13.9885114,23.42","title":"El-Serief IDPs"}},{"local_stop_id":84,"id":84,"geometry":"POINT(2602575.645021 1572931.69012)","attributes":{"address":"13.9888005,23.3793348","placename":"13.9888005,23.3793348","title":"El Sereif Bn Hussein"}},{"local_stop_id":83,"id":83,"geometry":"POINT(2824175.481425 1536612.590868)","attributes":{"address":"13.672,25.37","placename":"13.672,25.37","title":"El Salam Camp"}},{"local_stop_id":82,"id":82,"geometry":"POINT(3002064.027713 1708569.175276)","attributes":{"address":"15.168,26.968","placename":"15.168,26.968","title":"El Hatan"}},{"local_stop_id":81,"id":81,"geometry":"POINT(2921913.994342 1757059.568974)","attributes":{"address":"15.588,26.248","placename":"15.588,26.248","title":"El Hara"}},{"local_stop_id":80,"id":80,"geometry":"POINT(2976015.266867 1675950.355335)","attributes":{"address":"14.885,26.734","placename":"14.885,26.734","title":"El Fula"}},{"local_stop_id":79,"id":79,"geometry":"POINT(2822617.008554 1531343.080797)","attributes":{"address":"13.626,25.356","placename":"13.626,25.356","title":"El Fasher Town IDPs"}},{"local_stop_id":78,"id":78,"geometry":"POINT(2726325.649018 1639923.514169)","attributes":{"address":"14.572,24.491","placename":"14.572,24.491","title":"El Dur"}},{"local_stop_id":77,"id":77,"geometry":"POINT(2980468.046499 1734534.009603)","attributes":{"address":"15.393,26.774","placename":"15.393,26.774","title":"Ein Bessaro"}},{"local_stop_id":76,"id":76,"geometry":"POINT(2586680.913792 1658819.962982)","attributes":{"address":"14.73622778,23.23655","placename":"14.73622778,23.23655","title":"Eid Elkhair"}},{"local_stop_id":75,"id":75,"geometry":"POINT(2863098.864583 1472673.802636)","attributes":{"address":"13.1132502,25.7196547","placename":"13.1132502,25.7196547","title":"Ed Al Bideda"}},{"local_stop_id":74,"id":74,"geometry":"POINT(2768181.777556 1583396.33986)","attributes":{"address":"14.08,24.867","placename":"14.08,24.867","title":"Durum"}},{"local_stop_id":73,"id":73,"geometry":"POINT(2800724.171654 1493471.412955)","attributes":{"address":"13.2951389,25.1593333","placename":"13.2951389,25.1593333","title":"Demsilik"}},{"local_stop_id":72,"id":72,"geometry":"POINT(2704242.088434 1614742.112555)","attributes":{"address":"14.35296,24.29262","placename":"14.35296,24.29262","title":"Deliba"}},{"local_stop_id":71,"id":71,"geometry":"POINT(2878054.114969 1634173.195285)","attributes":{"address":"14.522,25.854","placename":"14.522,25.854","title":"Dekelik"}},{"local_stop_id":70,"id":70,"geometry":"POINT(2736789.681153 1643949.513357)","attributes":{"address":"14.607,24.585","placename":"14.607,24.585","title":"Deesa"}},{"local_stop_id":69,"id":69,"geometry":"POINT(2728312.701929 1580575.507609)","attributes":{"address":"14.05542,24.50885","placename":"14.05542,24.50885","title":"Dawa"}},{"local_stop_id":68,"id":68,"geometry":"POINT(2841108.734448 1466191.771112)","attributes":{"address":"13.056533,25.522114","placename":"13.056533,25.522114","title":"Dar Elsalam Town"}},{"local_stop_id":67,"id":67,"geometry":"POINT(2828340.684964 1493005.614029)","attributes":{"address":"13.29106667,25.40741666","placename":"13.29106667,25.40741666","title":"Dar El Neeim"}},{"local_stop_id":66,"id":66,"geometry":"POINT(2952638.173801 1749317.620062)","attributes":{"address":"15.521,26.524","placename":"15.521,26.524","title":"Dar Deifa"}},{"local_stop_id":65,"id":65,"geometry":"POINT(2968668.180475 1328642.17175)","attributes":{"address":"11.85,26.668","placename":"11.85,26.668","title":"Dalil Babiker"}},{"local_stop_id":64,"id":64,"geometry":"POINT(2773525.113114 1511534.289677)","attributes":{"address":"13.453,24.915","placename":"13.453,24.915","title":"Dali Camp"}},{"local_stop_id":63,"id":63,"geometry":"POINT(2823396.24499 1596827.580652)","attributes":{"address":"14.197,25.363","placename":"14.197,25.363","title":"Daba Toga"}},{"local_stop_id":62,"id":62,"geometry":"POINT(2611221.295538 1736958.820105)","attributes":{"address":"15.414,23.457","placename":"15.414,23.457","title":"Boba"}},{"local_stop_id":61,"id":61,"geometry":"POINT(2738125.515042 1650622.581186)","attributes":{"address":"14.665,24.597","placename":"14.665,24.597","title":"Birmaza"}},{"local_stop_id":60,"id":60,"geometry":"POINT(2783432.547795 1542341.486698)","attributes":{"address":"13.722,25.004","placename":"13.722,25.004","title":"Birka Saira (Nimra)"}},{"local_stop_id":59,"id":59,"geometry":"POINT(2753487.604772 1656146.456769)","attributes":{"address":"14.713,24.735","placename":"14.713,24.735","title":"Beridik"}},{"local_stop_id":58,"id":58,"geometry":"POINT(2754155.521716 1639693.476397)","attributes":{"address":"14.57,24.741","placename":"14.57,24.741","title":"Bere"}},{"local_stop_id":57,"id":57,"geometry":"POINT(2862055.03285 1586999.011569)","attributes":{"address":"14.1113889,25.7102778","placename":"14.1113889,25.7102778","title":"Benama"}},{"local_stop_id":56,"id":56,"geometry":"POINT(2738793.431987 1649586.989453)","attributes":{"address":"14.656,24.603","placename":"14.656,24.603","title":"Bakuri"}},{"local_stop_id":55,"id":55,"geometry":"POINT(2804734.144616 1645506.780602)","attributes":{"address":"14.6205366,25.1953555","placename":"14.6205366,25.1953555","title":"Ba'ashim\/Tima"}},{"local_stop_id":54,"id":54,"geometry":"POINT(2835864.027959 1577199.629017)","attributes":{"address":"14.026,25.475","placename":"14.026,25.475","title":"Armadyat"}},{"local_stop_id":53,"id":53,"geometry":"POINT(2754712.11917 1597516.548777)","attributes":{"address":"14.203,24.746","placename":"14.203,24.746","title":"Argala"}},{"local_stop_id":52,"id":52,"geometry":"POINT(2734674.610828 1633138.276055)","attributes":{"address":"14.513,24.566","placename":"14.513,24.566","title":"Areida"}},{"local_stop_id":51,"id":51,"geometry":"POINT(2792566.623709 1490322.498449)","attributes":{"address":"13.2676083,25.0860528","placename":"13.2676083,25.0860528","title":"Arasho"}},{"local_stop_id":50,"id":50,"geometry":"POINT(2766289.346213 1652578.815075)","attributes":{"address":"14.682,24.85","placename":"14.682,24.85","title":"Anka"}},{"local_stop_id":49,"id":49,"geometry":"POINT(2719906.224678 1606742.828431)","attributes":{"address":"14.28333333,24.43333333","placename":"14.28333333,24.43333333","title":"Amow"}},{"local_stop_id":48,"id":48,"geometry":"POINT(2769517.611446 1580297.801704)","attributes":{"address":"14.053,24.879","placename":"14.053,24.879","title":"Amar Jedid"}},{"local_stop_id":47,"id":47,"geometry":"POINT(2975923.239044 1341939.416152)","attributes":{"address":"11.9668804,26.7331733","placename":"11.9668804,26.7331733","title":"Al Saat"}},{"local_stop_id":46,"id":46,"geometry":"POINT(2950077.825513 1347415.552444)","attributes":{"address":"12.015,26.501","placename":"12.015,26.501","title":"Al Khamsat"}},{"local_stop_id":45,"id":45,"geometry":"POINT(2832797.621265 1520335.515901)","attributes":{"address":"13.529881,25.447454","placename":"13.529881,25.447454","title":"Abudwiel"}},{"local_stop_id":44,"id":44,"geometry":"POINT(2821281.174665 1535925.20518)","attributes":{"address":"13.666,25.344","placename":"13.666,25.344","title":"Abu Shouk Camp"}},{"local_stop_id":43,"id":43,"geometry":"POINT(2851448.75667 1639808.495022)","attributes":{"address":"14.571,25.615","placename":"14.571,25.615","title":"Abu Noshab"}},{"local_stop_id":42,"id":42,"geometry":"POINT(2653062.581848 1651149.343197)","attributes":{"address":"14.66957778,23.83286667","placename":"14.66957778,23.83286667","title":"Abu Liha"}},{"local_stop_id":41,"id":41,"geometry":"POINT(2873403.433773 1583970.183391)","attributes":{"address":"14.085,25.81222222","placename":"14.085,25.81222222","title":"Abu Geira"}},{"local_stop_id":40,"id":40,"geometry":"POINT(2606211.918452 1612218.899312)","attributes":{"address":"14.331,23.412","placename":"14.331,23.412","title":"Abu Gamera"}},{"local_stop_id":39,"id":39,"geometry":"POINT(2854243.989084 1493845.626657)","attributes":{"address":"13.2984104,25.64011","placename":"13.2984104,25.64011","title":"Abu Delek"}},{"local_stop_id":38,"id":38,"geometry":"POINT(2738125.515042 1621527.061619)","attributes":{"address":"14.412,24.597","placename":"14.412,24.597","title":"Abdul Shakour"}},{"local_stop_id":37,"id":37,"geometry":"POINT(2556563.425558 1247873.555506)","attributes":{"address":"11.139,22.966","placename":"11.139,22.966","title":"Um Dukhun"}},{"local_stop_id":36,"id":36,"geometry":"POINT(2613781.643826 1449451.843062)","attributes":{"address":"12.91,23.48","placename":"12.91,23.48","title":"Taiba"}},{"local_stop_id":35,"id":35,"geometry":"POINT(3003733.820075 1315450.715024)","attributes":{"address":"11.734,26.983","placename":"11.734,26.983","title":"Shabab"}},{"local_stop_id":34,"id":34,"geometry":"POINT(2613781.643826 1449451.843062)","attributes":{"address":"12.91,23.48","placename":"12.91,23.48","title":"HasaHisa"}},{"local_stop_id":33,"id":33,"geometry":"POINT(2614115.602298 1450251.298883)","attributes":{"address":"12.917,23.483","placename":"12.917,23.483","title":"Hamidiya"}},{"local_stop_id":32,"id":32,"geometry":"POINT(2575659.582891 1388134.433051)","attributes":{"address":"12.3725308,23.1375437","placename":"12.3725308,23.1375437","title":"Garsila"}},{"local_stop_id":31,"id":31,"geometry":"POINT(2514662.769224 1359950.810874)","attributes":{"address":"12.1251167,22.5896","placename":"12.1251167,22.5896","title":"Furubaranga"}},{"local_stop_id":30,"id":30,"geometry":"POINT(2798601.375757 1263355.869614)","attributes":{"address":"11.2754278,25.1402639","placename":"11.2754278,25.1402639","title":"Gerida"}},{"local_stop_id":29,"id":29,"geometry":"POINT(2911004.684244 1280906.163477)","attributes":{"address":"11.43,26.15","placename":"11.43,26.15","title":"Ed Daein"}},{"local_stop_id":28,"id":28,"geometry":"POINT(2744011.778021 1597915.136658)","attributes":{"address":"14.2064711,24.6498772","placename":"14.2064711,24.6498772","title":"Kutum"}},{"local_stop_id":27,"id":27,"geometry":"POINT(2682895.788011 1536166.345865)","attributes":{"address":"13.6681048679,24.1008629207","placename":"13.6681048679,24.1008629207","title":"Kabkabiya"}},{"local_stop_id":26,"id":26,"geometry":"POINT(2613900.076632 1448308.557351)","attributes":{"address":"12.8999891,23.4810639","placename":"12.8999891,23.4810639","title":"Zalingie"}},{"local_stop_id":25,"id":25,"geometry":"POINT(2591869.292619 1340019.70599)","attributes":{"address":"11.9500096,23.283158","placename":"11.9500096,23.283158","title":"Mukjar"}},{"local_stop_id":24,"id":24,"geometry":"POINT(2545534.780966 1454505.557494)","attributes":{"address":"12.9542468,22.866928","placename":"12.9542468,22.866928","title":"Mornie"}},{"local_stop_id":23,"id":23,"geometry":"POINT(2511582.926268 1423202.08873)","attributes":{"address":"12.68005,22.5619333","placename":"12.68005,22.5619333","title":"Habila"}},{"local_stop_id":22,"id":22,"geometry":"POINT(3817093.019141 1182135.214199)","attributes":{"address":"10.55902,34.28953","placename":"10.55902,34.28953","title":"Kurmuk"}},{"local_stop_id":21,"id":21,"geometry":"POINT(2498610.943929 1510191.292916)","attributes":{"address":"13.4412664,22.445404","placename":"13.4412664,22.445404","title":"El Geniena"}},{"local_stop_id":20,"id":20,"geometry":"POINT(3309461.780909 1233721.473163)","attributes":{"address":"11.014238,29.729401","placename":"11.014238,29.729401","title":"Kadugli"}},{"local_stop_id":19,"id":19,"geometry":"POINT(2770807.002844 1352033.626425)","attributes":{"address":"12.055573,24.8905828","placename":"12.055573,24.8905828","title":"Nyala"}},{"local_stop_id":18,"id":18,"geometry":"POINT(2822610.184669 1531388.222391)","attributes":{"address":"13.6263941,25.3559387","placename":"13.6263941,25.3559387","title":"El Fasher"}},{"local_stop_id":17,"id":17,"geometry":"POINT(4053198.319528 1738760.266515)","attributes":{"address":"15.4296,36.4105","placename":"15.4296,36.4105","title":"Kassala"}},{"local_stop_id":16,"id":16,"geometry":"POINT(3824922.561156 1321794.685003)","attributes":{"address":"11.7897922643,34.3598639726","placename":"11.7897922643,34.3598639726","title":"Ed Damazin"}},{"local_stop_id":15,"id":15,"geometry":"POINT(4142777.11377 2224476.263129)","attributes":{"address":"19.5896,37.2152","placename":"19.5896,37.2152","title":"Port Sudan"}},{"local_stop_id":14,"id":14,"geometry":"POINT(3366846.196126 1478892.266091)","attributes":{"address":"13.1676489143,30.2448939726","placename":"13.1676489143,30.2448939726","title":"El Obeid"}},{"local_stop_id":13,"id":13,"geometry":"POINT(3621935.480246 1755268.29694)","attributes":{"address":"15.5725,32.5364","placename":"15.5725,32.5364","title":"Khartoum"}},{"local_stop_id":12,"id":12,"geometry":"POINT(0 -0)","attributes":{"title":"Sorghum"}},{"local_stop_id":11,"id":11,"geometry":"POINT(-7915312.937116 5215862.8232)","attributes":{"address":"Central Square, Cambridge","placename":"Central Square, Cambridge, MA 02139, USA","title":"Neighbors"}},{"local_stop_id":10,"id":10,"geometry":"POINT(-7954199.339938 5232378.21361)","attributes":{"address":"Main St. & Massachusetts Ave.","placename":"Massachusetts Avenue & Main Street, Acton, MA 01720, USA","title":"Lemonade Stand"}},{"local_stop_id":9,"id":9,"geometry":"POINT(-11984997.016446 4800330.244736)","attributes":{"address":"123 Main St.","placename":"123 Main Street, Silt, CO 81652, USA","title":"Family"}},{"local_stop_id":8,"id":8,"geometry":"POINT(-11984997.016446 4800330.244736)","attributes":{"address":"123 Main St.","placename":"123 Main Street, Silt, CO 81652, USA","title":"Refrigerator"}},{"local_stop_id":7,"id":7,"geometry":"POINT(0 -0)","attributes":{"address":"0,0","placename":"0,0","title":"Sorghum"}},{"local_stop_id":6,"id":6,"geometry":"POINT(-7810470.582026 2123842.626161)","attributes":{"address":"Dominican Republic","placename":"Dominican Republic","title":"Sugar"}},{"local_stop_id":5,"id":5,"geometry":"POINT(-13324708.675899 4424570.607052)","attributes":{"address":"4687 E. Copper Avenue, Clovis, CA 93619","placename":"4687 East Copper Avenue, Clovis, CA 93619, USA","title":"Lemons"}},{"local_stop_id":4,"id":4,"geometry":"POINT(-9187138.464519 3183210.481423)","attributes":{"address":"27.477131,-82.529469","placename":"27.477131,-82.52946900000001","title":"Lemons"}},{"local_stop_id":3,"id":3,"geometry":"POINT(-7910337.76851 5214822.776941)","attributes":{"address":"Boston","placename":"Boston, MA, USA","title":"Lemon Juice"}},{"local_stop_id":2,"id":2,"geometry":"POINT(0 -0)","attributes":{"address":"Fresh Pond Reservoir","title":"Water"}},{"local_stop_id":1,"id":1,"geometry":"POINT(-7915899.323665 5217110.62274)","attributes":{"address":"Cambridge, MA","placename":"Cambridge, MA, USA","title":"Lemonade"}}],"hops":[{"from_stop_id":2,"to_stop_id":1,"geometry":"MULTILINESTRING((0 0,-7915899.323665 5217110.62274))","attributes":{}},{"from_stop_id":3,"to_stop_id":1,"geometry":"MULTILINESTRING((-7910337.76851 5214822.776941,-7915899.323665 5217110.62274))","attributes":{}},{"from_stop_id":4,"to_stop_id":3,"geometry":"MULTILINESTRING((-9187138.464519 3183210.481423,-7910337.76851 5214822.776941))","attributes":{}},{"from_stop_id":5,"to_stop_id":3,"geometry":"MULTILINESTRING((-13324708.675899 4424570.607052,-7910337.76851 5214822.776941))","attributes":{}},{"from_stop_id":6,"to_stop_id":1,"geometry":"MULTILINESTRING((-7810470.582026 2123842.626161,-7915899.323665 5217110.62274))","attributes":{}},{"from_stop_id":1,"to_stop_id":8,"geometry":"MULTILINESTRING((-7915899.323665 5217110.62274,-11984997.016446 4800330.244736))","attributes":{}},{"from_stop_id":8,"to_stop_id":9,"geometry":"MULTILINESTRING((-11984997.016446 4800330.244736,-11984997.016446 4800330.244736))","attributes":{}},{"from_stop_id":1,"to_stop_id":10,"geometry":"MULTILINESTRING((-7915899.323665 5217110.62274,-7954199.339938 5232378.21361))","attributes":{}},{"from_stop_id":10,"to_stop_id":11,"geometry":"MULTILINESTRING((-7954199.339938 5232378.21361,-7915312.937116 5215862.8232))","attributes":{}},{"from_stop_id":12,"to_stop_id":13,"geometry":"MULTILINESTRING((0 0,3621935.480246 1755268.29694))","attributes":{}},{"from_stop_id":12,"to_stop_id":14,"geometry":"MULTILINESTRING((0 0,3366846.196126 1478892.266091))","attributes":{}},{"from_stop_id":12,"to_stop_id":15,"geometry":"MULTILINESTRING((0 0,4142777.11377 2224476.263129))","attributes":{}},{"from_stop_id":12,"to_stop_id":16,"geometry":"MULTILINESTRING((0 0,3824922.561156 1321794.685003))","attributes":{}},{"from_stop_id":12,"to_stop_id":17,"geometry":"MULTILINESTRING((0 0,4053198.319528 1738760.266515))","attributes":{}},{"from_stop_id":12,"to_stop_id":18,"geometry":"MULTILINESTRING((0 0,2822610.184669 1531388.222391))","attributes":{}},{"from_stop_id":12,"to_stop_id":19,"geometry":"MULTILINESTRING((0 0,2770807.002844 1352033.626425))","attributes":{}},{"from_stop_id":12,"to_stop_id":20,"geometry":"MULTILINESTRING((0 0,3309461.780909 1233721.473163))","attributes":{}},{"from_stop_id":12,"to_stop_id":21,"geometry":"MULTILINESTRING((0 0,2498610.943929 1510191.292916))","attributes":{}},{"from_stop_id":12,"to_stop_id":22,"geometry":"MULTILINESTRING((0 0,3817093.019141 1182135.214199))","attributes":{}},{"from_stop_id":12,"to_stop_id":23,"geometry":"MULTILINESTRING((0 0,2511582.926268 1423202.08873))","attributes":{}},{"from_stop_id":12,"to_stop_id":24,"geometry":"MULTILINESTRING((0 0,2545534.780966 1454505.557494))","attributes":{}},{"from_stop_id":12,"to_stop_id":25,"geometry":"MULTILINESTRING((0 0,2591869.292619 1340019.70599))","attributes":{}},{"from_stop_id":12,"to_stop_id":26,"geometry":"MULTILINESTRING((0 0,2613900.076632 1448308.557351))","attributes":{}},{"from_stop_id":12,"to_stop_id":27,"geometry":"MULTILINESTRING((0 0,2682895.788011 1536166.345865))","attributes":{}},{"from_stop_id":12,"to_stop_id":28,"geometry":"MULTILINESTRING((0 0,2744011.778021 1597915.136658))","attributes":{}},{"from_stop_id":12,"to_stop_id":29,"geometry":"MULTILINESTRING((0 0,2911004.684244 1280906.163477))","attributes":{}},{"from_stop_id":12,"to_stop_id":30,"geometry":"MULTILINESTRING((0 0,2798601.375757 1263355.869614))","attributes":{}},{"from_stop_id":12,"to_stop_id":31,"geometry":"MULTILINESTRING((0 0,2514662.769224 1359950.810874))","attributes":{}},{"from_stop_id":12,"to_stop_id":32,"geometry":"MULTILINESTRING((0 0,2575659.582891 1388134.433051))","attributes":{}},{"from_stop_id":12,"to_stop_id":33,"geometry":"MULTILINESTRING((0 0,2614115.602298 1450251.298883))","attributes":{}},{"from_stop_id":12,"to_stop_id":34,"geometry":"MULTILINESTRING((0 0,2613781.643826 1449451.843062))","attributes":{}},{"from_stop_id":12,"to_stop_id":35,"geometry":"MULTILINESTRING((0 0,3003733.820075 1315450.715024))","attributes":{}},{"from_stop_id":12,"to_stop_id":36,"geometry":"MULTILINESTRING((0 0,2613781.643826 1449451.843062))","attributes":{}},{"from_stop_id":12,"to_stop_id":37,"geometry":"MULTILINESTRING((0 0,2556563.425558 1247873.555506))","attributes":{}},{"from_stop_id":12,"to_stop_id":38,"geometry":"MULTILINESTRING((0 0,2738125.515042 1621527.061619))","attributes":{}},{"from_stop_id":12,"to_stop_id":39,"geometry":"MULTILINESTRING((0 0,2854243.989084 1493845.626657))","attributes":{}},{"from_stop_id":12,"to_stop_id":40,"geometry":"MULTILINESTRING((0 0,2606211.918452 1612218.899312))","attributes":{}},{"from_stop_id":12,"to_stop_id":41,"geometry":"MULTILINESTRING((0 0,2873403.433773 1583970.183391))","attributes":{}},{"from_stop_id":12,"to_stop_id":42,"geometry":"MULTILINESTRING((0 0,2653062.581848 1651149.343197))","attributes":{}},{"from_stop_id":12,"to_stop_id":43,"geometry":"MULTILINESTRING((0 0,2851448.75667 1639808.495022))","attributes":{}},{"from_stop_id":12,"to_stop_id":44,"geometry":"MULTILINESTRING((0 0,2821281.174665 1535925.20518))","attributes":{}},{"from_stop_id":12,"to_stop_id":45,"geometry":"MULTILINESTRING((0 0,2832797.621265 1520335.515901))","attributes":{}},{"from_stop_id":12,"to_stop_id":46,"geometry":"MULTILINESTRING((0 0,2950077.825513 1347415.552444))","attributes":{}},{"from_stop_id":12,"to_stop_id":47,"geometry":"MULTILINESTRING((0 0,2975923.239044 1341939.416152))","attributes":{}},{"from_stop_id":12,"to_stop_id":48,"geometry":"MULTILINESTRING((0 0,2769517.611446 1580297.801704))","attributes":{}},{"from_stop_id":12,"to_stop_id":49,"geometry":"MULTILINESTRING((0 0,2719906.224678 1606742.828431))","attributes":{}},{"from_stop_id":12,"to_stop_id":50,"geometry":"MULTILINESTRING((0 0,2766289.346213 1652578.815075))","attributes":{}},{"from_stop_id":12,"to_stop_id":51,"geometry":"MULTILINESTRING((0 0,2792566.623709 1490322.498449))","attributes":{}},{"from_stop_id":12,"to_stop_id":52,"geometry":"MULTILINESTRING((0 0,2734674.610828 1633138.276055))","attributes":{}},{"from_stop_id":12,"to_stop_id":53,"geometry":"MULTILINESTRING((0 0,2754712.11917 1597516.548777))","attributes":{}},{"from_stop_id":12,"to_stop_id":54,"geometry":"MULTILINESTRING((0 0,2835864.027959 1577199.629017))","attributes":{}},{"from_stop_id":12,"to_stop_id":55,"geometry":"MULTILINESTRING((0 0,2804734.144616 1645506.780602))","attributes":{}},{"from_stop_id":12,"to_stop_id":56,"geometry":"MULTILINESTRING((0 0,2738793.431987 1649586.989453))","attributes":{}},{"from_stop_id":12,"to_stop_id":57,"geometry":"MULTILINESTRING((0 0,2862055.03285 1586999.011569))","attributes":{}},{"from_stop_id":12,"to_stop_id":58,"geometry":"MULTILINESTRING((0 0,2754155.521716 1639693.476397))","attributes":{}},{"from_stop_id":12,"to_stop_id":59,"geometry":"MULTILINESTRING((0 0,2753487.604772 1656146.456769))","attributes":{}},{"from_stop_id":12,"to_stop_id":60,"geometry":"MULTILINESTRING((0 0,2783432.547795 1542341.486698))","attributes":{}},{"from_stop_id":12,"to_stop_id":61,"geometry":"MULTILINESTRING((0 0,2738125.515042 1650622.581186))","attributes":{}},{"from_stop_id":12,"to_stop_id":62,"geometry":"MULTILINESTRING((0 0,2611221.295538 1736958.820105))","attributes":{}},{"from_stop_id":12,"to_stop_id":63,"geometry":"MULTILINESTRING((0 0,2823396.24499 1596827.580652))","attributes":{}},{"from_stop_id":12,"to_stop_id":64,"geometry":"MULTILINESTRING((0 0,2773525.113114 1511534.289677))","attributes":{}},{"from_stop_id":12,"to_stop_id":65,"geometry":"MULTILINESTRING((0 0,2968668.180475 1328642.17175))","attributes":{}},{"from_stop_id":12,"to_stop_id":66,"geometry":"MULTILINESTRING((0 0,2952638.173801 1749317.620062))","attributes":{}},{"from_stop_id":12,"to_stop_id":67,"geometry":"MULTILINESTRING((0 0,2828340.684964 1493005.614029))","attributes":{}},{"from_stop_id":12,"to_stop_id":68,"geometry":"MULTILINESTRING((0 0,2841108.734448 1466191.771112))","attributes":{}},{"from_stop_id":12,"to_stop_id":69,"geometry":"MULTILINESTRING((0 0,2728312.701929 1580575.507609))","attributes":{}},{"from_stop_id":12,"to_stop_id":70,"geometry":"MULTILINESTRING((0 0,2736789.681153 1643949.513357))","attributes":{}},{"from_stop_id":12,"to_stop_id":71,"geometry":"MULTILINESTRING((0 0,2878054.114969 1634173.195285))","attributes":{}},{"from_stop_id":12,"to_stop_id":72,"geometry":"MULTILINESTRING((0 0,2704242.088434 1614742.112555))","attributes":{}},{"from_stop_id":12,"to_stop_id":73,"geometry":"MULTILINESTRING((0 0,2800724.171654 1493471.412955))","attributes":{}},{"from_stop_id":12,"to_stop_id":74,"geometry":"MULTILINESTRING((0 0,2768181.777556 1583396.33986))","attributes":{}},{"from_stop_id":12,"to_stop_id":75,"geometry":"MULTILINESTRING((0 0,2863098.864583 1472673.802636))","attributes":{}},{"from_stop_id":12,"to_stop_id":76,"geometry":"MULTILINESTRING((0 0,2586680.913792 1658819.962982))","attributes":{}},{"from_stop_id":12,"to_stop_id":77,"geometry":"MULTILINESTRING((0 0,2980468.046499 1734534.009603))","attributes":{}},{"from_stop_id":12,"to_stop_id":78,"geometry":"MULTILINESTRING((0 0,2726325.649018 1639923.514169))","attributes":{}},{"from_stop_id":12,"to_stop_id":79,"geometry":"MULTILINESTRING((0 0,2822617.008554 1531343.080797))","attributes":{}},{"from_stop_id":12,"to_stop_id":80,"geometry":"MULTILINESTRING((0 0,2976015.266867 1675950.355335))","attributes":{}},{"from_stop_id":12,"to_stop_id":81,"geometry":"MULTILINESTRING((0 0,2921913.994342 1757059.568974))","attributes":{}},{"from_stop_id":12,"to_stop_id":82,"geometry":"MULTILINESTRING((0 0,3002064.027713 1708569.175276))","attributes":{}},{"from_stop_id":12,"to_stop_id":83,"geometry":"MULTILINESTRING((0 0,2824175.481425 1536612.590868))","attributes":{}},{"from_stop_id":12,"to_stop_id":84,"geometry":"MULTILINESTRING((0 0,2602575.645021 1572931.69012))","attributes":{}},{"from_stop_id":12,"to_stop_id":85,"geometry":"MULTILINESTRING((0 0,2607102.474378 1572898.52407))","attributes":{}},{"from_stop_id":12,"to_stop_id":86,"geometry":"MULTILINESTRING((0 0,2734245.474191 1601288.398932))","attributes":{}},{"from_stop_id":12,"to_stop_id":87,"geometry":"MULTILINESTRING((0 0,2990357.235915 1369411.796675))","attributes":{}},{"from_stop_id":12,"to_stop_id":88,"geometry":"MULTILINESTRING((0 0,2660976.632879 1510224.084163))","attributes":{}},{"from_stop_id":12,"to_stop_id":89,"geometry":"MULTILINESTRING((0 0,2734118.013374 1591660.900912))","attributes":{}},{"from_stop_id":12,"to_stop_id":90,"geometry":"MULTILINESTRING((0 0,2839982.849118 1570774.951113))","attributes":{}},{"from_stop_id":12,"to_stop_id":91,"geometry":"MULTILINESTRING((0 0,2672780.973946 1666161.581909))","attributes":{}},{"from_stop_id":12,"to_stop_id":92,"geometry":"MULTILINESTRING((0 0,2629366.372537 1751859.474743))","attributes":{}},{"from_stop_id":12,"to_stop_id":93,"geometry":"MULTILINESTRING((0 0,2657661.226748 1544056.382387))","attributes":{}},{"from_stop_id":12,"to_stop_id":94,"geometry":"MULTILINESTRING((0 0,2656676.138311 1546679.072498))","attributes":{}},{"from_stop_id":12,"to_stop_id":95,"geometry":"MULTILINESTRING((0 0,2821949.091609 1527448.884806))","attributes":{}},{"from_stop_id":12,"to_stop_id":96,"geometry":"MULTILINESTRING((0 0,2587407.582938 1707049.971285))","attributes":{}},{"from_stop_id":12,"to_stop_id":97,"geometry":"MULTILINESTRING((0 0,2658131.562729 1530934.954259))","attributes":{}},{"from_stop_id":12,"to_stop_id":98,"geometry":"MULTILINESTRING((0 0,2831743.351437 1489145.446397))","attributes":{}},{"from_stop_id":12,"to_stop_id":99,"geometry":"MULTILINESTRING((0 0,2756493.231023 1599468.724326))","attributes":{}},{"from_stop_id":12,"to_stop_id":100,"geometry":"MULTILINESTRING((0 0,2834505.930171 1507378.430355))","attributes":{}},{"from_stop_id":12,"to_stop_id":101,"geometry":"MULTILINESTRING((0 0,2812481.368918 1495382.981348))","attributes":{}},{"from_stop_id":12,"to_stop_id":102,"geometry":"MULTILINESTRING((0 0,2884733.284417 1595105.240174))","attributes":{}},{"from_stop_id":12,"to_stop_id":103,"geometry":"MULTILINESTRING((0 0,2662316.941812 1705916.556349))","attributes":{}},{"from_stop_id":12,"to_stop_id":104,"geometry":"MULTILINESTRING((0 0,2666435.762971 1597286.890707))","attributes":{}},{"from_stop_id":12,"to_stop_id":105,"geometry":"MULTILINESTRING((0 0,2686510.37744 1534092.262222))","attributes":{}},{"from_stop_id":12,"to_stop_id":106,"geometry":"MULTILINESTRING((0 0,2827515.066149 1591316.492013))","attributes":{}},{"from_stop_id":12,"to_stop_id":107,"geometry":"MULTILINESTRING((0 0,2791892.829095 1618768.735944))","attributes":{}},{"from_stop_id":12,"to_stop_id":108,"geometry":"MULTILINESTRING((0 0,2780872.199507 1624515.582862))","attributes":{}},{"from_stop_id":12,"to_stop_id":109,"geometry":"MULTILINESTRING((0 0,2798683.318034 1606130.193842))","attributes":{}},{"from_stop_id":12,"to_stop_id":110,"geometry":"MULTILINESTRING((0 0,2964771.998297 1341042.699023))","attributes":{}},{"from_stop_id":12,"to_stop_id":111,"geometry":"MULTILINESTRING((0 0,2578827.323717 1682171.109375))","attributes":{}},{"from_stop_id":12,"to_stop_id":112,"geometry":"MULTILINESTRING((0 0,2826290.55175 1658448.430025))","attributes":{}},{"from_stop_id":12,"to_stop_id":113,"geometry":"MULTILINESTRING((0 0,2826290.55175 1658448.430025))","attributes":{}},{"from_stop_id":12,"to_stop_id":114,"geometry":"MULTILINESTRING((0 0,2833081.040689 1664779.947004))","attributes":{}},{"from_stop_id":12,"to_stop_id":115,"geometry":"MULTILINESTRING((0 0,2854009.104958 1592120.119852))","attributes":{}},{"from_stop_id":12,"to_stop_id":116,"geometry":"MULTILINESTRING((0 0,2745806.559907 1562516.945087))","attributes":{}},{"from_stop_id":12,"to_stop_id":117,"geometry":"MULTILINESTRING((0 0,2756159.272551 1589594.515683))","attributes":{}},{"from_stop_id":12,"to_stop_id":118,"geometry":"MULTILINESTRING((0 0,2841314.972729 1476977.505718))","attributes":{}},{"from_stop_id":12,"to_stop_id":119,"geometry":"MULTILINESTRING((0 0,2900206.693637 1734303.088035))","attributes":{}},{"from_stop_id":12,"to_stop_id":120,"geometry":"MULTILINESTRING((0 0,2825882.584741 1523749.693958))","attributes":{}},{"from_stop_id":12,"to_stop_id":121,"geometry":"MULTILINESTRING((0 0,2596409.012773 1686841.273543))","attributes":{}},{"from_stop_id":12,"to_stop_id":122,"geometry":"MULTILINESTRING((0 0,2679126.184922 1723798.498982))","attributes":{}},{"from_stop_id":12,"to_stop_id":123,"geometry":"MULTILINESTRING((0 0,2606654.413428 1680242.316205))","attributes":{}},{"from_stop_id":12,"to_stop_id":124,"geometry":"MULTILINESTRING((0 0,2648491.675539 1577314.361614))","attributes":{}},{"from_stop_id":12,"to_stop_id":125,"geometry":"MULTILINESTRING((0 0,2777721.24566 1575678.089361))","attributes":{}},{"from_stop_id":12,"to_stop_id":126,"geometry":"MULTILINESTRING((0 0,2650442.558521 1508940.619336))","attributes":{}},{"from_stop_id":12,"to_stop_id":127,"geometry":"MULTILINESTRING((0 0,2887572.37671 1454416.597934))","attributes":{}},{"from_stop_id":12,"to_stop_id":128,"geometry":"MULTILINESTRING((0 0,2608498.297228 1692369.299589))","attributes":{}},{"from_stop_id":12,"to_stop_id":129,"geometry":"MULTILINESTRING((0 0,2744582.045508 1601076.508515))","attributes":{}},{"from_stop_id":12,"to_stop_id":130,"geometry":"MULTILINESTRING((0 0,2860910.913387 1626469.804733))","attributes":{}},{"from_stop_id":12,"to_stop_id":131,"geometry":"MULTILINESTRING((0 0,2776792.030701 1503205.078824))","attributes":{}},{"from_stop_id":12,"to_stop_id":132,"geometry":"MULTILINESTRING((0 0,2752819.687827 1591775.704889))","attributes":{}},{"from_stop_id":12,"to_stop_id":133,"geometry":"MULTILINESTRING((0 0,2755686.832632 1557280.292283))","attributes":{}},{"from_stop_id":12,"to_stop_id":134,"geometry":"MULTILINESTRING((0 0,2895308.636042 1620492.654723))","attributes":{}},{"from_stop_id":12,"to_stop_id":135,"geometry":"MULTILINESTRING((0 0,2808590.752714 1591316.492013))","attributes":{}},{"from_stop_id":12,"to_stop_id":136,"geometry":"MULTILINESTRING((0 0,2772984.078125 1568402.483449))","attributes":{}},{"from_stop_id":12,"to_stop_id":137,"geometry":"MULTILINESTRING((0 0,2771146.048617 1517696.647833))","attributes":{}},{"from_stop_id":12,"to_stop_id":138,"geometry":"MULTILINESTRING((0 0,2696680.600703 1645737.722556))","attributes":{}},{"from_stop_id":12,"to_stop_id":139,"geometry":"MULTILINESTRING((0 0,2744025.448054 1597861.039687))","attributes":{}},{"from_stop_id":12,"to_stop_id":140,"geometry":"MULTILINESTRING((0 0,2779202.407145 1583970.183391))","attributes":{}},{"from_stop_id":12,"to_stop_id":141,"geometry":"MULTILINESTRING((0 0,3002175.347204 1333306.006983))","attributes":{}},{"from_stop_id":12,"to_stop_id":142,"geometry":"MULTILINESTRING((0 0,2679126.184922 1693003.565081))","attributes":{}},{"from_stop_id":12,"to_stop_id":143,"geometry":"MULTILINESTRING((0 0,2796234.289236 1538216.558917))","attributes":{}},{"from_stop_id":12,"to_stop_id":144,"geometry":"MULTILINESTRING((0 0,2898759.540257 1643719.439009))","attributes":{}},{"from_stop_id":12,"to_stop_id":145,"geometry":"MULTILINESTRING((0 0,2741242.460784 1626699.723012))","attributes":{}},{"from_stop_id":12,"to_stop_id":146,"geometry":"MULTILINESTRING((0 0,2911333.711263 1698710.291162))","attributes":{}},{"from_stop_id":12,"to_stop_id":147,"geometry":"MULTILINESTRING((0 0,2958538.106813 1668234.177644))","attributes":{}},{"from_stop_id":12,"to_stop_id":148,"geometry":"MULTILINESTRING((0 0,2931487.47055 1685627.759445))","attributes":{}},{"from_stop_id":12,"to_stop_id":149,"geometry":"MULTILINESTRING((0 0,2741722.949102 1585688.437888))","attributes":{}},{"from_stop_id":12,"to_stop_id":150,"geometry":"MULTILINESTRING((0 0,2652991.77486 1522679.255929))","attributes":{}},{"from_stop_id":12,"to_stop_id":151,"geometry":"MULTILINESTRING((0 0,2844212.989768 1590283.292585))","attributes":{}},{"from_stop_id":12,"to_stop_id":152,"geometry":"MULTILINESTRING((0 0,2696046.747522 1672149.550883))","attributes":{}},{"from_stop_id":12,"to_stop_id":153,"geometry":"MULTILINESTRING((0 0,2865029.734546 1638083.270418))","attributes":{}},{"from_stop_id":12,"to_stop_id":154,"geometry":"MULTILINESTRING((0 0,2773636.432605 1192439.043079))","attributes":{}},{"from_stop_id":12,"to_stop_id":155,"geometry":"MULTILINESTRING((0 0,2632705.957261 1708453.838019))","attributes":{}},{"from_stop_id":12,"to_stop_id":156,"geometry":"MULTILINESTRING((0 0,2697159.94243 1719067.15511))","attributes":{}},{"from_stop_id":12,"to_stop_id":157,"geometry":"MULTILINESTRING((0 0,2772077.959734 1512678.915104))","attributes":{}},{"from_stop_id":12,"to_stop_id":158,"geometry":"MULTILINESTRING((0 0,2676120.55867 1511419.829764))","attributes":{}},{"from_stop_id":12,"to_stop_id":159,"geometry":"MULTILINESTRING((0 0,2767847.819084 1661901.786214))","attributes":{}},{"from_stop_id":12,"to_stop_id":160,"geometry":"MULTILINESTRING((0 0,2699163.693265 1696922.861273))","attributes":{}},{"from_stop_id":12,"to_stop_id":161,"geometry":"MULTILINESTRING((0 0,2659522.822593 1671722.952604))","attributes":{}},{"from_stop_id":12,"to_stop_id":162,"geometry":"MULTILINESTRING((0 0,2852745.628737 1502399.976915))","attributes":{}},{"from_stop_id":12,"to_stop_id":163,"geometry":"MULTILINESTRING((0 0,2646318.104595 1527067.512732))","attributes":{}},{"from_stop_id":12,"to_stop_id":164,"geometry":"MULTILINESTRING((0 0,2850224.242271 1643029.228521))","attributes":{}},{"from_stop_id":12,"to_stop_id":165,"geometry":"MULTILINESTRING((0 0,2595079.969373 1514281.471059))","attributes":{}},{"from_stop_id":12,"to_stop_id":166,"geometry":"MULTILINESTRING((0 0,2788586.395316 1539027.81355))","attributes":{}},{"from_stop_id":12,"to_stop_id":167,"geometry":"MULTILINESTRING((0 0,2866810.846399 1610150.875998))","attributes":{}},{"from_stop_id":12,"to_stop_id":168,"geometry":"MULTILINESTRING((0 0,2940170.390832 1744003.708332))","attributes":{}},{"from_stop_id":12,"to_stop_id":169,"geometry":"MULTILINESTRING((0 0,2808939.550075 1534154.500052))","attributes":{}},{"from_stop_id":12,"to_stop_id":170,"geometry":"MULTILINESTRING((0 0,2947851.435697 1352992.886532))","attributes":{}},{"from_stop_id":12,"to_stop_id":171,"geometry":"MULTILINESTRING((0 0,2954196.646672 1689776.378432))","attributes":{}},{"from_stop_id":12,"to_stop_id":172,"geometry":"MULTILINESTRING((0 0,2804026.653592 1466587.960939))","attributes":{}},{"from_stop_id":12,"to_stop_id":173,"geometry":"MULTILINESTRING((0 0,2672195.210786 1740981.740267))","attributes":{}},{"from_stop_id":12,"to_stop_id":174,"geometry":"MULTILINESTRING((0 0,2791113.59266 1478932.404122))","attributes":{}},{"from_stop_id":12,"to_stop_id":175,"geometry":"MULTILINESTRING((0 0,2791057.932914 1478970.508849))","attributes":{}},{"from_stop_id":12,"to_stop_id":176,"geometry":"MULTILINESTRING((0 0,2682688.408627 1529166.84349))","attributes":{}},{"from_stop_id":12,"to_stop_id":177,"geometry":"MULTILINESTRING((0 0,2881059.741221 1630953.584727))","attributes":{}},{"from_stop_id":12,"to_stop_id":178,"geometry":"MULTILINESTRING((0 0,2763868.147288 1542836.520527))","attributes":{}},{"from_stop_id":12,"to_stop_id":179,"geometry":"MULTILINESTRING((0 0,2795326.000115 1482205.278272))","attributes":{}},{"from_stop_id":12,"to_stop_id":180,"geometry":"MULTILINESTRING((0 0,2773082.595875 1515071.977785))","attributes":{}},{"from_stop_id":12,"to_stop_id":181,"geometry":"MULTILINESTRING((0 0,2666101.804499 1727607.326502))","attributes":{}},{"from_stop_id":12,"to_stop_id":182,"geometry":"MULTILINESTRING((0 0,2855344.938847 1578347.057818))","attributes":{}},{"from_stop_id":12,"to_stop_id":183,"geometry":"MULTILINESTRING((0 0,2681797.852701 1711914.193282))","attributes":{}},{"from_stop_id":12,"to_stop_id":184,"geometry":"MULTILINESTRING((0 0,2825656.75423 1576128.710009))","attributes":{}},{"from_stop_id":12,"to_stop_id":185,"geometry":"MULTILINESTRING((0 0,2638781.775068 1691584.703398))","attributes":{}},{"from_stop_id":12,"to_stop_id":186,"geometry":"MULTILINESTRING((0 0,2994315.100223 1681835.598081))","attributes":{}},{"from_stop_id":12,"to_stop_id":187,"geometry":"MULTILINESTRING((0 0,2772368.75964 1516894.365087))","attributes":{}},{"from_stop_id":12,"to_stop_id":188,"geometry":"MULTILINESTRING((0 0,2800033.690249 1457436.626778))","attributes":{}},{"from_stop_id":12,"to_stop_id":189,"geometry":"MULTILINESTRING((0 0,2836776.614012 1463521.914265))","attributes":{}},{"from_stop_id":12,"to_stop_id":190,"geometry":"MULTILINESTRING((0 0,2886445.378185 1525996.49284))","attributes":{}},{"from_stop_id":12,"to_stop_id":191,"geometry":"MULTILINESTRING((0 0,2771855.320753 1532183.074996))","attributes":{}},{"from_stop_id":12,"to_stop_id":192,"geometry":"MULTILINESTRING((0 0,2690703.411964 1682516.752635))","attributes":{}},{"from_stop_id":12,"to_stop_id":193,"geometry":"MULTILINESTRING((0 0,2971245.293479 1528647.630543))","attributes":{}},{"from_stop_id":12,"to_stop_id":194,"geometry":"MULTILINESTRING((0 0,2802134.222248 1481219.008213))","attributes":{}},{"from_stop_id":12,"to_stop_id":195,"geometry":"MULTILINESTRING((0 0,2791002.273169 1499633.010861))","attributes":{}},{"from_stop_id":12,"to_stop_id":196,"geometry":"MULTILINESTRING((0 0,2753710.243753 1573528.19284))","attributes":{}},{"from_stop_id":12,"to_stop_id":197,"geometry":"MULTILINESTRING((0 0,2702837.236461 1658103.120573))","attributes":{}},{"from_stop_id":12,"to_stop_id":198,"geometry":"MULTILINESTRING((0 0,2702846.709749 1658049.068564))","attributes":{}},{"from_stop_id":12,"to_stop_id":199,"geometry":"MULTILINESTRING((0 0,2771076.084317 1651428.070852))","attributes":{}},{"from_stop_id":12,"to_stop_id":200,"geometry":"MULTILINESTRING((0 0,2796289.948982 1503313.469713))","attributes":{}},{"from_stop_id":12,"to_stop_id":201,"geometry":"MULTILINESTRING((0 0,2706399.460166 1646020.276708))","attributes":{}},{"from_stop_id":12,"to_stop_id":202,"geometry":"MULTILINESTRING((0 0,2799907.832432 1623021.278636))","attributes":{}},{"from_stop_id":12,"to_stop_id":203,"geometry":"MULTILINESTRING((0 0,2619681.576838 1723798.498982))","attributes":{}},{"from_stop_id":12,"to_stop_id":204,"geometry":"MULTILINESTRING((0 0,2866572.132883 1465043.377685))","attributes":{}},{"from_stop_id":12,"to_stop_id":205,"geometry":"MULTILINESTRING((0 0,2920912.118925 1666161.581909))","attributes":{}},{"from_stop_id":12,"to_stop_id":206,"geometry":"MULTILINESTRING((0 0,2825429.283982 1732565.462848))","attributes":{}},{"from_stop_id":12,"to_stop_id":207,"geometry":"MULTILINESTRING((0 0,2838535.695738 1561828.894008))","attributes":{}},{"from_stop_id":12,"to_stop_id":208,"geometry":"MULTILINESTRING((0 0,2817384.992487 1514739.361421))","attributes":{}},{"from_stop_id":12,"to_stop_id":209,"geometry":"MULTILINESTRING((0 0,2817384.992487 1514739.361421))","attributes":{}},{"from_stop_id":12,"to_stop_id":210,"geometry":"MULTILINESTRING((0 0,2702725.91697 1404261.545057))","attributes":{}},{"from_stop_id":12,"to_stop_id":211,"geometry":"MULTILINESTRING((0 0,2746923.461754 1299880.186084))","attributes":{}},{"from_stop_id":12,"to_stop_id":212,"geometry":"MULTILINESTRING((0 0,2976683.183812 1238911.677171))","attributes":{}},{"from_stop_id":12,"to_stop_id":213,"geometry":"MULTILINESTRING((0 0,2989373.605763 1239592.241183))","attributes":{}},{"from_stop_id":12,"to_stop_id":214,"geometry":"MULTILINESTRING((0 0,2953940.82335 1298719.904007))","attributes":{}},{"from_stop_id":12,"to_stop_id":215,"geometry":"MULTILINESTRING((0 0,2916793.297765 1230519.197251))","attributes":{}},{"from_stop_id":12,"to_stop_id":216,"geometry":"MULTILINESTRING((0 0,2794675.816365 1365744.914284))","attributes":{}},{"from_stop_id":12,"to_stop_id":217,"geometry":"MULTILINESTRING((0 0,2751421.1588 1253229.120235))","attributes":{}},{"from_stop_id":12,"to_stop_id":218,"geometry":"MULTILINESTRING((0 0,3015533.686099 1267053.362813))","attributes":{}},{"from_stop_id":12,"to_stop_id":219,"geometry":"MULTILINESTRING((0 0,2878288.420234 1396198.942703))","attributes":{}},{"from_stop_id":12,"to_stop_id":220,"geometry":"MULTILINESTRING((0 0,2703616.472896 1402551.167915))","attributes":{}},{"from_stop_id":12,"to_stop_id":221,"geometry":"MULTILINESTRING((0 0,2871374.945522 1242881.830551))","attributes":{}},{"from_stop_id":12,"to_stop_id":222,"geometry":"MULTILINESTRING((0 0,3010969.586976 1260696.678979))","attributes":{}},{"from_stop_id":12,"to_stop_id":223,"geometry":"MULTILINESTRING((0 0,2768627.05552 1450137.089538))","attributes":{}},{"from_stop_id":12,"to_stop_id":224,"geometry":"MULTILINESTRING((0 0,2907108.502066 1285449.360492))","attributes":{}},{"from_stop_id":12,"to_stop_id":225,"geometry":"MULTILINESTRING((0 0,3002954.583639 1297832.84591))","attributes":{}},{"from_stop_id":12,"to_stop_id":226,"geometry":"MULTILINESTRING((0 0,2980690.685481 1293515.121826))","attributes":{}},{"from_stop_id":12,"to_stop_id":227,"geometry":"MULTILINESTRING((0 0,2848962.625086 1272094.823588))","attributes":{}},{"from_stop_id":12,"to_stop_id":228,"geometry":"MULTILINESTRING((0 0,2735946.992607 1287164.584579))","attributes":{}},{"from_stop_id":12,"to_stop_id":229,"geometry":"MULTILINESTRING((0 0,2938723.237452 1317042.491934))","attributes":{}},{"from_stop_id":12,"to_stop_id":230,"geometry":"MULTILINESTRING((0 0,2772968.51566 1357318.867697))","attributes":{}},{"from_stop_id":12,"to_stop_id":231,"geometry":"MULTILINESTRING((0 0,2754155.521716 1367680.958858))","attributes":{}},{"from_stop_id":12,"to_stop_id":232,"geometry":"MULTILINESTRING((0 0,2734785.930318 1355725.013695))","attributes":{}},{"from_stop_id":12,"to_stop_id":233,"geometry":"MULTILINESTRING((0 0,2661982.98334 1369161.547277))","attributes":{}},{"from_stop_id":12,"to_stop_id":234,"geometry":"MULTILINESTRING((0 0,2864027.859129 1275000.965623))","attributes":{}},{"from_stop_id":12,"to_stop_id":235,"geometry":"MULTILINESTRING((0 0,2716752.17281 1359823.664175))","attributes":{}},{"from_stop_id":12,"to_stop_id":236,"geometry":"MULTILINESTRING((0 0,2957981.509359 1277272.067658))","attributes":{}},{"from_stop_id":12,"to_stop_id":237,"geometry":"MULTILINESTRING((0 0,2785992.896083 1345480.796385))","attributes":{}},{"from_stop_id":12,"to_stop_id":238,"geometry":"MULTILINESTRING((0 0,2788553.244372 1330803.374034))","attributes":{}},{"from_stop_id":12,"to_stop_id":239,"geometry":"MULTILINESTRING((0 0,2647734.088518 1352423.724175))","attributes":{}},{"from_stop_id":12,"to_stop_id":240,"geometry":"MULTILINESTRING((0 0,2739461.348932 1346618.873398))","attributes":{}},{"from_stop_id":12,"to_stop_id":241,"geometry":"MULTILINESTRING((0 0,2942062.822175 1280338.308985))","attributes":{}},{"from_stop_id":12,"to_stop_id":242,"geometry":"MULTILINESTRING((0 0,2774526.988532 1354358.919508))","attributes":{}},{"from_stop_id":12,"to_stop_id":243,"geometry":"MULTILINESTRING((0 0,2696861.539403 1410814.795263))","attributes":{}},{"from_stop_id":12,"to_stop_id":244,"geometry":"MULTILINESTRING((0 0,2748984.731369 1311406.896029))","attributes":{}},{"from_stop_id":12,"to_stop_id":245,"geometry":"MULTILINESTRING((0 0,2736229.748567 1226419.396485))","attributes":{}},{"from_stop_id":12,"to_stop_id":246,"geometry":"MULTILINESTRING((0 0,2980468.046499 1292833.42942))","attributes":{}},{"from_stop_id":12,"to_stop_id":247,"geometry":"MULTILINESTRING((0 0,2811039.781512 1281587.602093))","attributes":{}},{"from_stop_id":12,"to_stop_id":248,"geometry":"MULTILINESTRING((0 0,2742149.848218 1290773.398034))","attributes":{}},{"from_stop_id":12,"to_stop_id":249,"geometry":"MULTILINESTRING((0 0,2790487.231281 1291376.66749))","attributes":{}},{"from_stop_id":12,"to_stop_id":250,"geometry":"MULTILINESTRING((0 0,2786215.535065 1340359.971657))","attributes":{}},{"from_stop_id":12,"to_stop_id":251,"geometry":"MULTILINESTRING((0 0,2685360.076406 1426163.195135))","attributes":{}},{"from_stop_id":12,"to_stop_id":252,"geometry":"MULTILINESTRING((0 0,2767959.138575 1404945.723735))","attributes":{}},{"from_stop_id":12,"to_stop_id":253,"geometry":"MULTILINESTRING((0 0,2839203.612682 1402209.104401))","attributes":{}},{"from_stop_id":12,"to_stop_id":254,"geometry":"MULTILINESTRING((0 0,2802468.180721 1329324.640425))","attributes":{}},{"from_stop_id":12,"to_stop_id":255,"geometry":"MULTILINESTRING((0 0,2911004.684244 1280906.163477))","attributes":{}},{"from_stop_id":12,"to_stop_id":256,"geometry":"MULTILINESTRING((0 0,2895762.50787 1328471.522802))","attributes":{}},{"from_stop_id":12,"to_stop_id":257,"geometry":"MULTILINESTRING((0 0,2951413.659402 1320226.288523))","attributes":{}},{"from_stop_id":12,"to_stop_id":258,"geometry":"MULTILINESTRING((0 0,2702948.555951 1403577.382281))","attributes":{}},{"from_stop_id":12,"to_stop_id":259,"geometry":"MULTILINESTRING((0 0,2719813.458807 1194752.107112))","attributes":{}},{"from_stop_id":12,"to_stop_id":260,"geometry":"MULTILINESTRING((0 0,2745806.559907 1346960.304739))","attributes":{}},{"from_stop_id":12,"to_stop_id":261,"geometry":"MULTILINESTRING((0 0,2708403.211 1409621.370951))","attributes":{}},{"from_stop_id":12,"to_stop_id":262,"geometry":"MULTILINESTRING((0 0,2788775.883353 1371325.61494))","attributes":{}},{"from_stop_id":12,"to_stop_id":263,"geometry":"MULTILINESTRING((0 0,2786215.535065 1340359.971657))","attributes":{}},{"from_stop_id":12,"to_stop_id":264,"geometry":"MULTILINESTRING((0 0,2799409.399412 1263072.458079))","attributes":{}},{"from_stop_id":12,"to_stop_id":265,"geometry":"MULTILINESTRING((0 0,2798571.998543 1263307.309901))","attributes":{}},{"from_stop_id":12,"to_stop_id":266,"geometry":"MULTILINESTRING((0 0,2784211.784231 1409393.273323))","attributes":{}},{"from_stop_id":12,"to_stop_id":267,"geometry":"MULTILINESTRING((0 0,2766734.624176 1373717.660114))","attributes":{}},{"from_stop_id":12,"to_stop_id":268,"geometry":"MULTILINESTRING((0 0,2709553.308319 1422352.42675))","attributes":{}},{"from_stop_id":12,"to_stop_id":269,"geometry":"MULTILINESTRING((0 0,2790445.675715 1196177.176851))","attributes":{}},{"from_stop_id":12,"to_stop_id":270,"geometry":"MULTILINESTRING((0 0,2514373.338548 1585117.908152))","attributes":{}},{"from_stop_id":12,"to_stop_id":271,"geometry":"MULTILINESTRING((0 0,2801800.263776 1322045.746446))","attributes":{}},{"from_stop_id":12,"to_stop_id":272,"geometry":"MULTILINESTRING((0 0,2968000.26353 1280338.308985))","attributes":{}},{"from_stop_id":12,"to_stop_id":273,"geometry":"MULTILINESTRING((0 0,2901987.80549 1301128.345789))","attributes":{}},{"from_stop_id":12,"to_stop_id":274,"geometry":"MULTILINESTRING((0 0,2715082.380448 1347301.739884))","attributes":{}},{"from_stop_id":12,"to_stop_id":275,"geometry":"MULTILINESTRING((0 0,2690814.731455 1380097.378556))","attributes":{}},{"from_stop_id":12,"to_stop_id":276,"geometry":"MULTILINESTRING((0 0,2974122.835524 1309652.78154))","attributes":{}},{"from_stop_id":12,"to_stop_id":277,"geometry":"MULTILINESTRING((0 0,2974122.835524 1309652.78154))","attributes":{}},{"from_stop_id":12,"to_stop_id":278,"geometry":"MULTILINESTRING((0 0,2756131.739901 1242861.166374))","attributes":{}},{"from_stop_id":12,"to_stop_id":279,"geometry":"MULTILINESTRING((0 0,2815047.28318 1244696.916125))","attributes":{}},{"from_stop_id":12,"to_stop_id":280,"geometry":"MULTILINESTRING((0 0,2784657.062194 1346277.44586))","attributes":{}},{"from_stop_id":12,"to_stop_id":281,"geometry":"MULTILINESTRING((0 0,2820056.660266 1417035.511352))","attributes":{}},{"from_stop_id":12,"to_stop_id":282,"geometry":"MULTILINESTRING((0 0,2703954.884148 1402910.338877))","attributes":{}},{"from_stop_id":12,"to_stop_id":283,"geometry":"MULTILINESTRING((0 0,2703393.833915 1403235.306853))","attributes":{}},{"from_stop_id":12,"to_stop_id":284,"geometry":"MULTILINESTRING((0 0,2793896.57993 1403919.461682))","attributes":{}},{"from_stop_id":12,"to_stop_id":285,"geometry":"MULTILINESTRING((0 0,2813043.532346 1419431.251251))","attributes":{}},{"from_stop_id":12,"to_stop_id":286,"geometry":"MULTILINESTRING((0 0,2912785.796097 1276590.720279))","attributes":{}},{"from_stop_id":12,"to_stop_id":287,"geometry":"MULTILINESTRING((0 0,2701078.388506 1408070.342051))","attributes":{}},{"from_stop_id":12,"to_stop_id":288,"geometry":"MULTILINESTRING((0 0,2763506.358943 1428445.564375))","attributes":{}},{"from_stop_id":12,"to_stop_id":289,"geometry":"MULTILINESTRING((0 0,2649737.839352 1317838.410716))","attributes":{}},{"from_stop_id":12,"to_stop_id":290,"geometry":"MULTILINESTRING((0 0,2829296.178002 1296696.545926))","attributes":{}},{"from_stop_id":12,"to_stop_id":291,"geometry":"MULTILINESTRING((0 0,2708757.129057 1415989.855386))","attributes":{}},{"from_stop_id":12,"to_stop_id":292,"geometry":"MULTILINESTRING((0 0,2785658.937611 1324547.674321))","attributes":{}},{"from_stop_id":12,"to_stop_id":293,"geometry":"MULTILINESTRING((0 0,2813934.088272 1328755.915488))","attributes":{}},{"from_stop_id":12,"to_stop_id":294,"geometry":"MULTILINESTRING((0 0,2780426.921544 1422283.5795))","attributes":{}},{"from_stop_id":12,"to_stop_id":295,"geometry":"MULTILINESTRING((0 0,2798683.318034 1390923.22908))","attributes":{}},{"from_stop_id":12,"to_stop_id":296,"geometry":"MULTILINESTRING((0 0,2772189.279225 1428217.319359))","attributes":{}},{"from_stop_id":12,"to_stop_id":297,"geometry":"MULTILINESTRING((0 0,2709627.725399 1354131.243096))","attributes":{}},{"from_stop_id":12,"to_stop_id":298,"geometry":"MULTILINESTRING((0 0,2769740.250427 1346163.637525))","attributes":{}},{"from_stop_id":12,"to_stop_id":299,"geometry":"MULTILINESTRING((0 0,2851560.07616 1342749.583707))","attributes":{}},{"from_stop_id":12,"to_stop_id":300,"geometry":"MULTILINESTRING((0 0,2728261.739866 1349215.565706))","attributes":{}},{"from_stop_id":12,"to_stop_id":301,"geometry":"MULTILINESTRING((0 0,2828404.698124 1447506.906199))","attributes":{}},{"from_stop_id":12,"to_stop_id":302,"geometry":"MULTILINESTRING((0 0,2728885.997306 1407340.474456))","attributes":{}},{"from_stop_id":12,"to_stop_id":303,"geometry":"MULTILINESTRING((0 0,2722954.894837 1208883.078325))","attributes":{}},{"from_stop_id":12,"to_stop_id":304,"geometry":"MULTILINESTRING((0 0,2841430.002498 1414868.106647))","attributes":{}},{"from_stop_id":12,"to_stop_id":305,"geometry":"MULTILINESTRING((0 0,2691371.328909 1379413.772365))","attributes":{}},{"from_stop_id":12,"to_stop_id":306,"geometry":"MULTILINESTRING((0 0,2691371.328909 1379413.772365))","attributes":{}},{"from_stop_id":12,"to_stop_id":307,"geometry":"MULTILINESTRING((0 0,2817496.311978 1292833.42942))","attributes":{}},{"from_stop_id":12,"to_stop_id":308,"geometry":"MULTILINESTRING((0 0,2750228.600888 1223305.271746))","attributes":{}},{"from_stop_id":12,"to_stop_id":309,"geometry":"MULTILINESTRING((0 0,2766289.346213 1343773.760001))","attributes":{}},{"from_stop_id":12,"to_stop_id":310,"geometry":"MULTILINESTRING((0 0,2829296.178002 1315337.019766))","attributes":{}},{"from_stop_id":12,"to_stop_id":311,"geometry":"MULTILINESTRING((0 0,2765612.30107 1316111.861119))","attributes":{}},{"from_stop_id":12,"to_stop_id":312,"geometry":"MULTILINESTRING((0 0,2691371.328909 1379413.772365))","attributes":{}},{"from_stop_id":12,"to_stop_id":313,"geometry":"MULTILINESTRING((0 0,2691371.328909 1379413.772365))","attributes":{}},{"from_stop_id":12,"to_stop_id":314,"geometry":"MULTILINESTRING((0 0,2762949.761489 1346277.44586))","attributes":{}},{"from_stop_id":12,"to_stop_id":315,"geometry":"MULTILINESTRING((0 0,2768414.691327 1364643.80438))","attributes":{}},{"from_stop_id":12,"to_stop_id":316,"geometry":"MULTILINESTRING((0 0,2850558.200743 1398104.651552))","attributes":{}},{"from_stop_id":12,"to_stop_id":317,"geometry":"MULTILINESTRING((0 0,3014887.409663 1291091.396564))","attributes":{}},{"from_stop_id":12,"to_stop_id":318,"geometry":"MULTILINESTRING((0 0,3026665.635178 1261945.215555))","attributes":{}},{"from_stop_id":12,"to_stop_id":319,"geometry":"MULTILINESTRING((0 0,2860799.593896 1308288.717157))","attributes":{}},{"from_stop_id":12,"to_stop_id":320,"geometry":"MULTILINESTRING((0 0,2996275.414192 1310448.513041))","attributes":{}},{"from_stop_id":12,"to_stop_id":321,"geometry":"MULTILINESTRING((0 0,2786816.036926 1325250.59298))","attributes":{}},{"from_stop_id":12,"to_stop_id":322,"geometry":"MULTILINESTRING((0 0,2808479.433223 1375768.135999))","attributes":{}},{"from_stop_id":12,"to_stop_id":323,"geometry":"MULTILINESTRING((0 0,2694377.033084 1419713.813234))","attributes":{}},{"from_stop_id":12,"to_stop_id":324,"geometry":"MULTILINESTRING((0 0,2705612.79872 1397800.636896))","attributes":{}},{"from_stop_id":12,"to_stop_id":325,"geometry":"MULTILINESTRING((0 0,2683467.645063 1443057.001337))","attributes":{}},{"from_stop_id":12,"to_stop_id":326,"geometry":"MULTILINESTRING((0 0,2742800.933655 1328073.45931))","attributes":{}},{"from_stop_id":12,"to_stop_id":327,"geometry":"MULTILINESTRING((0 0,2729219.955779 1256724.379621))","attributes":{}},{"from_stop_id":12,"to_stop_id":328,"geometry":"MULTILINESTRING((0 0,2804471.931555 1381806.46235))","attributes":{}},{"from_stop_id":12,"to_stop_id":329,"geometry":"MULTILINESTRING((0 0,2888184.188631 1313859.0189))","attributes":{}},{"from_stop_id":12,"to_stop_id":330,"geometry":"MULTILINESTRING((0 0,2943509.975556 1274660.314084))","attributes":{}},{"from_stop_id":12,"to_stop_id":331,"geometry":"MULTILINESTRING((0 0,2801354.985813 1345708.408409))","attributes":{}},{"from_stop_id":12,"to_stop_id":332,"geometry":"MULTILINESTRING((0 0,2669775.347695 1349464.25086))","attributes":{}},{"from_stop_id":12,"to_stop_id":333,"geometry":"MULTILINESTRING((0 0,2869347.639483 1405525.828494))","attributes":{}},{"from_stop_id":12,"to_stop_id":334,"geometry":"MULTILINESTRING((0 0,2788330.60539 1321136.004235))","attributes":{}},{"from_stop_id":12,"to_stop_id":335,"geometry":"MULTILINESTRING((0 0,2965355.791103 1267598.040745))","attributes":{}},{"from_stop_id":12,"to_stop_id":336,"geometry":"MULTILINESTRING((0 0,2861133.552369 1419773.515885))","attributes":{}},{"from_stop_id":12,"to_stop_id":337,"geometry":"MULTILINESTRING((0 0,2766289.346213 1343773.760001))","attributes":{}},{"from_stop_id":12,"to_stop_id":338,"geometry":"MULTILINESTRING((0 0,2839203.612682 1402209.104401))","attributes":{}},{"from_stop_id":12,"to_stop_id":339,"geometry":"MULTILINESTRING((0 0,3016947.443632 1301999.630912))","attributes":{}},{"from_stop_id":12,"to_stop_id":340,"geometry":"MULTILINESTRING((0 0,2864343.884032 1287925.037541))","attributes":{}},{"from_stop_id":12,"to_stop_id":341,"geometry":"MULTILINESTRING((0 0,2704284.389841 1403235.306853))","attributes":{}},{"from_stop_id":12,"to_stop_id":342,"geometry":"MULTILINESTRING((0 0,2784211.784231 1409393.273323))","attributes":{}},{"from_stop_id":12,"to_stop_id":343,"geometry":"MULTILINESTRING((0 0,2837533.820321 1296810.174097))","attributes":{}},{"from_stop_id":12,"to_stop_id":344,"geometry":"MULTILINESTRING((0 0,2772189.279225 1428217.319359))","attributes":{}},{"from_stop_id":12,"to_stop_id":345,"geometry":"MULTILINESTRING((0 0,3225591.450156 1343573.018757))","attributes":{}},{"from_stop_id":12,"to_stop_id":346,"geometry":"MULTILINESTRING((0 0,3477174.612543 1283674.71127))","attributes":{}},{"from_stop_id":12,"to_stop_id":347,"geometry":"MULTILINESTRING((0 0,3274648.391275 1233996.943559))","attributes":{}},{"from_stop_id":12,"to_stop_id":348,"geometry":"MULTILINESTRING((0 0,3397099.831148 1264253.204374))","attributes":{}},{"from_stop_id":12,"to_stop_id":349,"geometry":"MULTILINESTRING((0 0,3455728.022086 1373793.639141))","attributes":{}},{"from_stop_id":12,"to_stop_id":350,"geometry":"MULTILINESTRING((0 0,3436061.652926 1213211.57496))","attributes":{}},{"from_stop_id":12,"to_stop_id":351,"geometry":"MULTILINESTRING((0 0,3514044.073172 1179109.65375))","attributes":{}},{"from_stop_id":12,"to_stop_id":352,"geometry":"MULTILINESTRING((0 0,3398005.192567 1256019.630529))","attributes":{}},{"from_stop_id":12,"to_stop_id":353,"geometry":"MULTILINESTRING((0 0,3282986.332455 1308075.701098))","attributes":{}},{"from_stop_id":12,"to_stop_id":354,"geometry":"MULTILINESTRING((0 0,3373162.244445 1366296.218818))","attributes":{}},{"from_stop_id":12,"to_stop_id":355,"geometry":"MULTILINESTRING((0 0,3448130.800798 1324424.733992))","attributes":{}},{"from_stop_id":12,"to_stop_id":356,"geometry":"MULTILINESTRING((0 0,3303309.597931 1209839.781308))","attributes":{}},{"from_stop_id":12,"to_stop_id":357,"geometry":"MULTILINESTRING((0 0,3506373.047061 1188438.329167))","attributes":{}},{"from_stop_id":12,"to_stop_id":358,"geometry":"MULTILINESTRING((0 0,3396462.304424 1241634.016885))","attributes":{}},{"from_stop_id":12,"to_stop_id":359,"geometry":"MULTILINESTRING((0 0,3255766.267927 1307285.258137))","attributes":{}},{"from_stop_id":12,"to_stop_id":360,"geometry":"MULTILINESTRING((0 0,3306144.348764 1285199.467952))","attributes":{}},{"from_stop_id":12,"to_stop_id":361,"geometry":"MULTILINESTRING((0 0,3475920.153202 1342642.160971))","attributes":{}},{"from_stop_id":12,"to_stop_id":362,"geometry":"MULTILINESTRING((0 0,3295056.927481 1219162.416969))","attributes":{}},{"from_stop_id":12,"to_stop_id":363,"geometry":"MULTILINESTRING((0 0,3268651.944265 1347017.210333))","attributes":{}},{"from_stop_id":12,"to_stop_id":364,"geometry":"MULTILINESTRING((0 0,3272830.877949 1226359.576393))","attributes":{}},{"from_stop_id":12,"to_stop_id":365,"geometry":"MULTILINESTRING((0 0,3534393.832686 1336226.039126))","attributes":{}},{"from_stop_id":12,"to_stop_id":366,"geometry":"MULTILINESTRING((0 0,3507627.840362 1191049.693361))","attributes":{}},{"from_stop_id":12,"to_stop_id":367,"geometry":"MULTILINESTRING((0 0,3365058.296835 1212663.243287))","attributes":{}},{"from_stop_id":12,"to_stop_id":368,"geometry":"MULTILINESTRING((0 0,3361848.621957 1188663.599131))","attributes":{}},{"from_stop_id":12,"to_stop_id":369,"geometry":"MULTILINESTRING((0 0,3448801.38941 1216297.607722))","attributes":{}},{"from_stop_id":12,"to_stop_id":370,"geometry":"MULTILINESTRING((0 0,3267227.054783 1313480.093424))","attributes":{}},{"from_stop_id":12,"to_stop_id":371,"geometry":"MULTILINESTRING((0 0,3500997.985448 1207545.07648))","attributes":{}},{"from_stop_id":12,"to_stop_id":372,"geometry":"MULTILINESTRING((0 0,3255440.547097 1308104.572987))","attributes":{}},{"from_stop_id":12,"to_stop_id":373,"geometry":"MULTILINESTRING((0 0,3460180.801718 1345708.408409))","attributes":{}},{"from_stop_id":12,"to_stop_id":374,"geometry":"MULTILINESTRING((0 0,3460180.801718 1319165.024895))","attributes":{}},{"from_stop_id":12,"to_stop_id":375,"geometry":"MULTILINESTRING((0 0,3343236.003096 1216392.821636))","attributes":{}},{"from_stop_id":12,"to_stop_id":376,"geometry":"MULTILINESTRING((0 0,3419328.441028 1236992.561661))","attributes":{}},{"from_stop_id":12,"to_stop_id":377,"geometry":"MULTILINESTRING((0 0,3347634.236177 1287257.731826))","attributes":{}},{"from_stop_id":12,"to_stop_id":378,"geometry":"MULTILINESTRING((0 0,3340942.821586 1233206.829332))","attributes":{}},{"from_stop_id":12,"to_stop_id":379,"geometry":"MULTILINESTRING((0 0,3267455.371058 1327982.693768))","attributes":{}},{"from_stop_id":12,"to_stop_id":380,"geometry":"MULTILINESTRING((0 0,3470582.272298 1165126.628759))","attributes":{}},{"from_stop_id":12,"to_stop_id":381,"geometry":"MULTILINESTRING((0 0,2503797.986922 1425592.630903))","attributes":{}},{"from_stop_id":12,"to_stop_id":382,"geometry":"MULTILINESTRING((0 0,2493333.954788 1557930.274245))","attributes":{}},{"from_stop_id":12,"to_stop_id":383,"geometry":"MULTILINESTRING((0 0,2497341.456456 1508901.832485))","attributes":{}},{"from_stop_id":12,"to_stop_id":384,"geometry":"MULTILINESTRING((0 0,2515820.491928 1526418.161798))","attributes":{}},{"from_stop_id":12,"to_stop_id":385,"geometry":"MULTILINESTRING((0 0,2614115.602298 1450251.298883))","attributes":{}},{"from_stop_id":12,"to_stop_id":386,"geometry":"MULTILINESTRING((0 0,2549995.575602 1220995.14721))","attributes":{}},{"from_stop_id":12,"to_stop_id":387,"geometry":"MULTILINESTRING((0 0,3003733.820075 1315450.715024))","attributes":{}},{"from_stop_id":12,"to_stop_id":388,"geometry":"MULTILINESTRING((0 0,2467841.791396 1428331.441642))","attributes":{}},{"from_stop_id":12,"to_stop_id":389,"geometry":"MULTILINESTRING((0 0,2504577.223358 1517257.895463))","attributes":{}},{"from_stop_id":12,"to_stop_id":390,"geometry":"MULTILINESTRING((0 0,2504131.945395 1513365.713314))","attributes":{}},{"from_stop_id":12,"to_stop_id":391,"geometry":"MULTILINESTRING((0 0,2467608.710646 1547481.81476))","attributes":{}},{"from_stop_id":12,"to_stop_id":392,"geometry":"MULTILINESTRING((0 0,2522499.661376 1589135.341172))","attributes":{}},{"from_stop_id":12,"to_stop_id":393,"geometry":"MULTILINESTRING((0 0,2501014.999652 1612448.689922))","attributes":{}},{"from_stop_id":12,"to_stop_id":394,"geometry":"MULTILINESTRING((0 0,2523501.536793 1518288.271755))","attributes":{}},{"from_stop_id":12,"to_stop_id":395,"geometry":"MULTILINESTRING((0 0,2480110.434928 1530022.049541))","attributes":{}},{"from_stop_id":12,"to_stop_id":396,"geometry":"MULTILINESTRING((0 0,2515263.894474 1617964.280143))","attributes":{}},{"from_stop_id":12,"to_stop_id":397,"geometry":"MULTILINESTRING((0 0,2436227.056011 1426847.887032))","attributes":{}},{"from_stop_id":12,"to_stop_id":398,"geometry":"MULTILINESTRING((0 0,2573038.710196 1338994.562324))","attributes":{}},{"from_stop_id":12,"to_stop_id":399,"geometry":"MULTILINESTRING((0 0,2501014.999652 1541768.542255))","attributes":{}},{"from_stop_id":12,"to_stop_id":400,"geometry":"MULTILINESTRING((0 0,2530180.70624 1548873.91746))","attributes":{}},{"from_stop_id":12,"to_stop_id":401,"geometry":"MULTILINESTRING((0 0,2531293.901148 1548530.065641))","attributes":{}},{"from_stop_id":12,"to_stop_id":402,"geometry":"MULTILINESTRING((0 0,2586842.327054 1386364.497124))","attributes":{}},{"from_stop_id":12,"to_stop_id":403,"geometry":"MULTILINESTRING((0 0,2513148.824149 1520005.652019))","attributes":{}},{"from_stop_id":12,"to_stop_id":404,"geometry":"MULTILINESTRING((0 0,2503130.069978 1516342.038054))","attributes":{}},{"from_stop_id":12,"to_stop_id":405,"geometry":"MULTILINESTRING((0 0,2503130.069978 1516342.038054))","attributes":{}},{"from_stop_id":12,"to_stop_id":406,"geometry":"MULTILINESTRING((0 0,2503130.069978 1516342.038054))","attributes":{}},{"from_stop_id":12,"to_stop_id":407,"geometry":"MULTILINESTRING((0 0,2507137.571646 1605211.268594))","attributes":{}},{"from_stop_id":12,"to_stop_id":408,"geometry":"MULTILINESTRING((0 0,2496562.220021 1509245.182147))","attributes":{}},{"from_stop_id":12,"to_stop_id":409,"geometry":"MULTILINESTRING((0 0,2497675.414929 1512793.380277))","attributes":{}},{"from_stop_id":12,"to_stop_id":410,"geometry":"MULTILINESTRING((0 0,2514707.29702 1359937.523466))","attributes":{}},{"from_stop_id":12,"to_stop_id":411,"geometry":"MULTILINESTRING((0 0,2514707.29702 1359937.523466))","attributes":{}},{"from_stop_id":12,"to_stop_id":412,"geometry":"MULTILINESTRING((0 0,2548882.380694 1499060.963465))","attributes":{}},{"from_stop_id":12,"to_stop_id":413,"geometry":"MULTILINESTRING((0 0,2575933.016956 1388985.682655))","attributes":{}},{"from_stop_id":12,"to_stop_id":414,"geometry":"MULTILINESTRING((0 0,1449222.063806 2504201.025748))","attributes":{}},{"from_stop_id":12,"to_stop_id":415,"geometry":"MULTILINESTRING((0 0,2553112.521344 1473788.227188))","attributes":{}},{"from_stop_id":12,"to_stop_id":416,"geometry":"MULTILINESTRING((0 0,2499233.8878 1395596.655428))","attributes":{}},{"from_stop_id":12,"to_stop_id":417,"geometry":"MULTILINESTRING((0 0,2500681.04118 1485564.071541))","attributes":{}},{"from_stop_id":12,"to_stop_id":418,"geometry":"MULTILINESTRING((0 0,2497118.817475 1637163.19859))","attributes":{}},{"from_stop_id":12,"to_stop_id":419,"geometry":"MULTILINESTRING((0 0,2525616.607118 1559879.512694))","attributes":{}},{"from_stop_id":12,"to_stop_id":420,"geometry":"MULTILINESTRING((0 0,2505913.057247 1351968.40193))","attributes":{}},{"from_stop_id":12,"to_stop_id":421,"geometry":"MULTILINESTRING((0 0,2534522.166381 1362784.144607))","attributes":{}},{"from_stop_id":12,"to_stop_id":422,"geometry":"MULTILINESTRING((0 0,2524503.41221 1518631.739161))","attributes":{}},{"from_stop_id":12,"to_stop_id":423,"geometry":"MULTILINESTRING((0 0,2511590.351278 1423196.383615))","attributes":{}},{"from_stop_id":12,"to_stop_id":424,"geometry":"MULTILINESTRING((0 0,2536215.391496 1549352.153912))","attributes":{}},{"from_stop_id":12,"to_stop_id":425,"geometry":"MULTILINESTRING((0 0,1602780.811429 2578141.391751))","attributes":{}},{"from_stop_id":12,"to_stop_id":426,"geometry":"MULTILINESTRING((0 0,2558233.21792 1477217.573614))","attributes":{}},{"from_stop_id":12,"to_stop_id":427,"geometry":"MULTILINESTRING((0 0,2514373.338548 1585117.908152))","attributes":{}},{"from_stop_id":12,"to_stop_id":428,"geometry":"MULTILINESTRING((0 0,2527175.079989 1609002.045793))","attributes":{}},{"from_stop_id":12,"to_stop_id":429,"geometry":"MULTILINESTRING((0 0,2527175.079989 1609002.045793))","attributes":{}},{"from_stop_id":12,"to_stop_id":430,"geometry":"MULTILINESTRING((0 0,2613781.643826 1449451.843062))","attributes":{}},{"from_stop_id":12,"to_stop_id":431,"geometry":"MULTILINESTRING((0 0,2527397.71897 1572839.855483))","attributes":{}},{"from_stop_id":12,"to_stop_id":432,"geometry":"MULTILINESTRING((0 0,2496784.859002 1509130.731782))","attributes":{}},{"from_stop_id":12,"to_stop_id":433,"geometry":"MULTILINESTRING((0 0,2534967.444344 1318406.936519))","attributes":{}},{"from_stop_id":12,"to_stop_id":434,"geometry":"MULTILINESTRING((0 0,2504243.264885 1534435.929554))","attributes":{}},{"from_stop_id":12,"to_stop_id":435,"geometry":"MULTILINESTRING((0 0,2505133.820812 1535352.397144))","attributes":{}},{"from_stop_id":12,"to_stop_id":436,"geometry":"MULTILINESTRING((0 0,2523501.536793 1519318.686941))","attributes":{}},{"from_stop_id":12,"to_stop_id":437,"geometry":"MULTILINESTRING((0 0,2523501.536793 1519318.686941))","attributes":{}},{"from_stop_id":12,"to_stop_id":438,"geometry":"MULTILINESTRING((0 0,2549995.575602 1220995.14721))","attributes":{}},{"from_stop_id":12,"to_stop_id":439,"geometry":"MULTILINESTRING((0 0,2548882.380694 1499060.963465))","attributes":{}},{"from_stop_id":12,"to_stop_id":440,"geometry":"MULTILINESTRING((0 0,2668745.642405 1456501.532259))","attributes":{}},{"from_stop_id":12,"to_stop_id":441,"geometry":"MULTILINESTRING((0 0,2501237.638634 1508672.935095))","attributes":{}},{"from_stop_id":12,"to_stop_id":442,"geometry":"MULTILINESTRING((0 0,2502016.87507 1508215.146038))","attributes":{}},{"from_stop_id":12,"to_stop_id":443,"geometry":"MULTILINESTRING((0 0,2529290.150314 1530999.452756))","attributes":{}},{"from_stop_id":12,"to_stop_id":444,"geometry":"MULTILINESTRING((0 0,2438119.487354 1451393.417489))","attributes":{}},{"from_stop_id":12,"to_stop_id":445,"geometry":"MULTILINESTRING((0 0,2491330.203953 1516342.038054))","attributes":{}},{"from_stop_id":12,"to_stop_id":446,"geometry":"MULTILINESTRING((0 0,2500235.763217 1616010.706653))","attributes":{}},{"from_stop_id":12,"to_stop_id":447,"geometry":"MULTILINESTRING((0 0,2524169.453737 1538560.27877))","attributes":{}},{"from_stop_id":12,"to_stop_id":448,"geometry":"MULTILINESTRING((0 0,2520273.27156 1376337.737475))","attributes":{}},{"from_stop_id":12,"to_stop_id":449,"geometry":"MULTILINESTRING((0 0,2506914.932665 1573987.094391))","attributes":{}},{"from_stop_id":12,"to_stop_id":450,"geometry":"MULTILINESTRING((0 0,2470179.500703 1474588.370542))","attributes":{}},{"from_stop_id":12,"to_stop_id":451,"geometry":"MULTILINESTRING((0 0,2502128.19456 1637508.221618))","attributes":{}},{"from_stop_id":12,"to_stop_id":452,"geometry":"MULTILINESTRING((0 0,2545542.79597 1454477.366376))","attributes":{}},{"from_stop_id":12,"to_stop_id":453,"geometry":"MULTILINESTRING((0 0,2572627.451469 1486965.567422))","attributes":{}},{"from_stop_id":12,"to_stop_id":454,"geometry":"MULTILINESTRING((0 0,2596972.400716 1344456.563165))","attributes":{}},{"from_stop_id":12,"to_stop_id":455,"geometry":"MULTILINESTRING((0 0,2479530.337929 1529395.912871))","attributes":{}},{"from_stop_id":12,"to_stop_id":456,"geometry":"MULTILINESTRING((0 0,2675405.887539 1455939.503352))","attributes":{}},{"from_stop_id":12,"to_stop_id":457,"geometry":"MULTILINESTRING((0 0,2675563.961216 1454934.276106))","attributes":{}},{"from_stop_id":12,"to_stop_id":458,"geometry":"MULTILINESTRING((0 0,2509363.961462 1424223.322522))","attributes":{}},{"from_stop_id":12,"to_stop_id":459,"geometry":"MULTILINESTRING((0 0,2531182.581657 1348781.336155))","attributes":{}},{"from_stop_id":12,"to_stop_id":460,"geometry":"MULTILINESTRING((0 0,2555227.591669 1466016.590016))","attributes":{}},{"from_stop_id":12,"to_stop_id":461,"geometry":"MULTILINESTRING((0 0,2544318.281571 1508787.383551))","attributes":{}},{"from_stop_id":12,"to_stop_id":462,"geometry":"MULTILINESTRING((0 0,2523278.897811 1405287.81904))","attributes":{}},{"from_stop_id":12,"to_stop_id":463,"geometry":"MULTILINESTRING((0 0,2523278.897811 1405287.81904))","attributes":{}},{"from_stop_id":12,"to_stop_id":464,"geometry":"MULTILINESTRING((0 0,2570033.083944 1544289.589153))","attributes":{}},{"from_stop_id":12,"to_stop_id":465,"geometry":"MULTILINESTRING((0 0,2476960.093338 1540926.97775))","attributes":{}},{"from_stop_id":12,"to_stop_id":466,"geometry":"MULTILINESTRING((0 0,2518046.881744 1574216.548161))","attributes":{}},{"from_stop_id":12,"to_stop_id":467,"geometry":"MULTILINESTRING((0 0,2504688.542849 1552427.311656))","attributes":{}},{"from_stop_id":12,"to_stop_id":468,"geometry":"MULTILINESTRING((0 0,2531293.901148 1481676.351466))","attributes":{}},{"from_stop_id":12,"to_stop_id":469,"geometry":"MULTILINESTRING((0 0,2501014.999652 1514968.309476))","attributes":{}},{"from_stop_id":12,"to_stop_id":470,"geometry":"MULTILINESTRING((0 0,2501460.277616 1510733.080314))","attributes":{}},{"from_stop_id":12,"to_stop_id":471,"geometry":"MULTILINESTRING((0 0,2517712.923271 1530312.209755))","attributes":{}},{"from_stop_id":12,"to_stop_id":472,"geometry":"MULTILINESTRING((0 0,2494781.108168 1437805.162745))","attributes":{}},{"from_stop_id":12,"to_stop_id":473,"geometry":"MULTILINESTRING((0 0,2447132.659169 1468523.085934))","attributes":{}},{"from_stop_id":12,"to_stop_id":474,"geometry":"MULTILINESTRING((0 0,2613781.643826 1449451.843062))","attributes":{}},{"from_stop_id":12,"to_stop_id":475,"geometry":"MULTILINESTRING((0 0,2506692.293683 1519204.194443))","attributes":{}},{"from_stop_id":12,"to_stop_id":476,"geometry":"MULTILINESTRING((0 0,2500458.402199 1380667.062306))","attributes":{}},{"from_stop_id":12,"to_stop_id":477,"geometry":"MULTILINESTRING((0 0,2556340.786577 1247873.555506))","attributes":{}},{"from_stop_id":12,"to_stop_id":478,"geometry":"MULTILINESTRING((0 0,2561684.122135 1573987.094391))","attributes":{}},{"from_stop_id":12,"to_stop_id":479,"geometry":"MULTILINESTRING((0 0,2520050.632578 1357546.567941))","attributes":{}},{"from_stop_id":12,"to_stop_id":480,"geometry":"MULTILINESTRING((0 0,2531405.220639 1380553.124689))","attributes":{}},{"from_stop_id":12,"to_stop_id":481,"geometry":"MULTILINESTRING((0 0,2505356.459793 1397078.62744))","attributes":{}},{"from_stop_id":12,"to_stop_id":482,"geometry":"MULTILINESTRING((0 0,2557565.300975 1473331.012647))","attributes":{}},{"from_stop_id":12,"to_stop_id":483,"geometry":"MULTILINESTRING((0 0,2507694.1691 1524585.861908))","attributes":{}},{"from_stop_id":12,"to_stop_id":484,"geometry":"MULTILINESTRING((0 0,2525839.246099 1562516.945087))","attributes":{}},{"from_stop_id":12,"to_stop_id":485,"geometry":"MULTILINESTRING((0 0,2525839.246099 1562516.945087))","attributes":{}},{"from_stop_id":12,"to_stop_id":486,"geometry":"MULTILINESTRING((0 0,2576378.29492 1507528.476754))","attributes":{}},{"from_stop_id":12,"to_stop_id":487,"geometry":"MULTILINESTRING((0 0,2503352.708959 1622101.750157))","attributes":{}},{"from_stop_id":12,"to_stop_id":488,"geometry":"MULTILINESTRING((0 0,2584838.57622 1552427.311656))","attributes":{}}]},"editable":false}