{"type":"FeatureCollection","features":[{"type":"Feature","geometry":{"type":"Point","coordinates":[23.220000000002,13.809999999998]},"properties":{"address":"13.81,23.22","placename":"13.81,23.22","title":"Warda"}},{"type":"Feature","geometry":{"type":"Point","coordinates":[22.487999999999,14.417000000002]},"properties":{"address":"14.417,22.488","placename":"14.417,22.488","title":"Wadi Bardi"}},{"type":"Feature","geometry":{"type":"Point","coordinates":[23.144000000004,13.418]},"properties":{"address":"13.418,23.144","placename":"13.418,23.144","title":"Umtajok"}},{"type":"Feature","geometry":{"type":"Point","coordinates":[22.689999999997,13.897999999996]},"properties":{"address":"13.898,22.69","placename":"13.898,22.69","title":"Umdaraba"}},{"type":"Feature","geometry":{"type":"Point","coordinates":[22.689999999997,13.897999999996]},"properties":{"address":"13.898,22.69","placename":"13.898,22.69","title":"Umdaraba"}},{"type":"Feature","geometry":{"type":"Point","coordinates":[22.526999999999,13.567000000003]},"properties":{"address":"13.567,22.527","placename":"13.567,22.527","title":"Um Sibaiga"}},{"type":"Feature","geometry":{"type":"Point","coordinates":[22.974999999996,13.119000000004]},"properties":{"address":"13.119,22.975","placename":"13.119,22.975","title":"Um Shalaya"}},{"type":"Feature","geometry":{"type":"Point","coordinates":[22.505999999996,12.450999999997]},"properties":{"address":"12.451,22.506","placename":"12.451,22.506","title":"Um Samgamti"}},{"type":"Feature","geometry":{"type":"Point","coordinates":[22.74,12.306000000003]},"properties":{"address":"12.306,22.74","placename":"12.306,22.74","title":"Um Kher"}},{"type":"Feature","geometry":{"type":"Point","coordinates":[22.637999999999,12.104000000003]},"properties":{"address":"12.104,22.638","placename":"12.104,22.638","title":"Um Jokoti"}},{"type":"Feature","geometry":{"type":"Point","coordinates":[23.012000000002,13.997999999999]},"properties":{"address":"13.998,23.012","placename":"13.998,23.012","title":"Um Haraza"}},{"type":"Feature","geometry":{"type":"Point","coordinates":[22.964000000002,11.138999999996]},"properties":{"address":"11.139,22.964","placename":"11.139,22.964","title":"Um Dukhon"}},{"type":"Feature","geometry":{"type":"Point","coordinates":[22.462000000004,12.306999999997]},"properties":{"address":"12.307,22.462","placename":"12.307,22.462","title":"Tundosa"}},{"type":"Feature","geometry":{"type":"Point","coordinates":[22.518000000001,13.52]},"properties":{"address":"13.52,22.518","placename":"13.52,22.518","title":"Tilaihaya"}},{"type":"Feature","geometry":{"type":"Point","coordinates":[23.479999999999,12.909999999997]},"properties":{"address":"12.91,23.48","placename":"12.91,23.48","title":"Teyba"}},{"type":"Feature","geometry":{"type":"Point","coordinates":[21.982966699996,13.076933299996]},"properties":{"address":"13.0769333,21.9829667","placename":"13.0769333,21.9829667","title":"Terbeba"}},{"type":"Feature","geometry":{"type":"Point","coordinates":[22.411,12.808000000001]},"properties":{"address":"12.808,22.411","placename":"12.808,22.411","title":"Tawang"}},{"type":"Feature","geometry":{"type":"Point","coordinates":[22.616999999996,13.616999999999]},"properties":{"address":"13.617,22.617","placename":"13.617,22.617","title":"Tanjaki"}},{"type":"Feature","geometry":{"type":"Point","coordinates":[22.471000000003,13.445999999998]},"properties":{"address":"13.446,22.471","placename":"13.446,22.471","title":"Tandicraw"}},{"type":"Feature","geometry":{"type":"Point","coordinates":[22.466999999996,13.483000000003]},"properties":{"address":"13.483,22.467","placename":"13.483,22.467","title":"Sultan house"}},{"type":"Feature","geometry":{"type":"Point","coordinates":[22.738999999998,13.191999999997]},"properties":{"address":"13.192,22.739","placename":"13.192,22.739","title":"Sisi"}},{"type":"Feature","geometry":{"type":"Point","coordinates":[22.500000000003,13.809999999998]},"properties":{"address":"13.81,22.5","placename":"13.81,22.5","title":"Sirba"}},{"type":"Feature","geometry":{"type":"Point","coordinates":[22.620000000001,13.999999999996]},"properties":{"address":"14,22.62","placename":"14,22.62","title":"Selea"}},{"type":"Feature","geometry":{"type":"Point","coordinates":[22.250911099996,13.709655599998]},"properties":{"address":"13.7096556,22.2509111","placename":"13.7096556,22.2509111","title":"Saraf Gidad"}},{"type":"Feature","geometry":{"type":"Point","coordinates":[23.086999999997,13.738999999999]},"properties":{"address":"13.739,23.087","placename":"13.739,23.087","title":"Sanidadi"}},{"type":"Feature","geometry":{"type":"Point","coordinates":[22.666999999999,12.522999999997]},"properties":{"address":"12.523,22.667","placename":"12.523,22.667","title":"Sala + Ior (NA)"}},{"type":"Feature","geometry":{"type":"Point","coordinates":[22.666999999999,12.522999999997]},"properties":{"address":"12.523,22.667","placename":"12.523,22.667","title":"Sala + Ior"}},{"type":"Feature","geometry":{"type":"Point","coordinates":[22.855999999999,13.428999999997]},"properties":{"address":"13.429,22.856","placename":"13.429,22.856","title":"Rosi"}},{"type":"Feature","geometry":{"type":"Point","coordinates":[22.954000000002,13.054999999997]},"properties":{"address":"13.055,22.954","placename":"13.055,22.954","title":"Romalia"}},{"type":"Feature","geometry":{"type":"Point","coordinates":[22.737999999996,12.027]},"properties":{"address":"12.027,22.738","placename":"12.027,22.738","title":"Ras El Feel"}},{"type":"Feature","geometry":{"type":"Point","coordinates":[22.542,12.689000000001]},"properties":{"address":"12.689,22.542","placename":"12.689,22.542","title":"Nur El Huda"}},{"type":"Feature","geometry":{"type":"Point","coordinates":[24.034999999997,12.958000000002]},"properties":{"address":"12.958,24.035","placename":"12.958,24.035","title":"Nertiti"}},{"type":"Feature","geometry":{"type":"Point","coordinates":[24.033579999996,12.966800000004]},"properties":{"address":"12.9668,24.03358","placename":"12.9668,24.03358","title":"Nertiti"}},{"type":"Feature","geometry":{"type":"Point","coordinates":[22.273999999997,13.609000000001]},"properties":{"address":"13.609,22.274","placename":"13.609,22.274","title":"Muli"}},{"type":"Feature","geometry":{"type":"Point","coordinates":[23.328999999997,11.989]},"properties":{"address":"11.989,23.329","placename":"11.989,23.329","title":"Mukjar"}},{"type":"Feature","geometry":{"type":"Point","coordinates":[23.110305600001,13.238255599996]},"properties":{"address":"13.2382556,23.1103056","placename":"13.2382556,23.1103056","title":"Muhajir"}},{"type":"Feature","geometry":{"type":"Point","coordinates":[22.867000000002,12.954000000003]},"properties":{"address":"12.954,22.867","placename":"12.954,22.867","title":"Mornie"}},{"type":"Feature","geometry":{"type":"Point","coordinates":[22.476999999996,14.551000000001]},"properties":{"address":"14.551,22.477","placename":"14.551,22.477","title":"Mastura"}},{"type":"Feature","geometry":{"type":"Point","coordinates":[22.190000000002,13.129999999998]},"properties":{"address":"13.13,22.19","placename":"13.13,22.19","title":"Mastari"}},{"type":"Feature","geometry":{"type":"Point","coordinates":[22.520000000004,13.997999999999]},"properties":{"address":"13.998,22.52","placename":"13.998,22.52","title":"Manjura"}},{"type":"Feature","geometry":{"type":"Point","coordinates":[22.640000000003,12.268999999997]},"properties":{"address":"12.269,22.64","placename":"12.269,22.64","title":"Mangarasa (NA)"}},{"type":"Feature","geometry":{"type":"Point","coordinates":[22.674999999996,13.689000000004]},"properties":{"address":"13.689,22.675","placename":"13.689,22.675","title":"Lambo"}},{"type":"Feature","geometry":{"type":"Point","coordinates":[22.460000000001,14.363999999996]},"properties":{"address":"14.364,22.46","placename":"14.364,22.46","title":"Kulbus"}},{"type":"Feature","geometry":{"type":"Point","coordinates":[22.379999999996,13.494999999998]},"properties":{"address":"13.495,22.38","placename":"13.495,22.38","title":"Korti"}},{"type":"Feature","geometry":{"type":"Point","coordinates":[21.901999999998,12.926999999999]},"properties":{"address":"12.927,21.902","placename":"12.927,21.902","title":"Kongo Haraza"}},{"type":"Feature","geometry":{"type":"Point","coordinates":[22.721,13.623]},"properties":{"address":"13.623,22.721","placename":"13.623,22.721","title":"Kirkir"}},{"type":"Feature","geometry":{"type":"Point","coordinates":[22.476000000003,13.424000000001]},"properties":{"address":"13.424,22.476","placename":"13.424,22.476","title":"Kirinding-2"}},{"type":"Feature","geometry":{"type":"Point","coordinates":[22.468999999999,13.428]},"properties":{"address":"13.428,22.469","placename":"13.428,22.469","title":"Kirinding-1"}},{"type":"Feature","geometry":{"type":"Point","coordinates":[23.973749999998,12.971720000002]},"properties":{"address":"12.97172,23.97375","placename":"12.97172,23.97375","title":"Khor-Ramla"}},{"type":"Feature","geometry":{"type":"Point","coordinates":[22.897000000004,13.344000000002]},"properties":{"address":"13.344,22.897","placename":"13.344,22.897","title":"Kerinik IDPs"}},{"type":"Feature","geometry":{"type":"Point","coordinates":[22.907000000004,10.902000000003]},"properties":{"address":"10.902,22.907","placename":"10.902,22.907","title":"Karanik"}},{"type":"Feature","geometry":{"type":"Point","coordinates":[22.669000000003,13.521000000002]},"properties":{"address":"13.521,22.669","placename":"13.521,22.669","title":"Kangok"}},{"type":"Feature","geometry":{"type":"Point","coordinates":[22.669000000003,13.521000000002]},"properties":{"address":"13.521,22.669","placename":"13.521,22.669","title":"Kangok"}},{"type":"Feature","geometry":{"type":"Point","coordinates":[22.504000000002,13.661000000003]},"properties":{"address":"13.661,22.504","placename":"13.661,22.504","title":"Kandobi Nomads"}},{"type":"Feature","geometry":{"type":"Point","coordinates":[22.495999999996,13.653000000001]},"properties":{"address":"13.653,22.496","placename":"13.653,22.496","title":"Kandobi"}},{"type":"Feature","geometry":{"type":"Point","coordinates":[22.771999999996,11.759999999997]},"properties":{"address":"11.76,22.772","placename":"11.76,22.772","title":"Jugma El Garbia (NA)"}},{"type":"Feature","geometry":{"type":"Point","coordinates":[22.428999999997,13.431999999996]},"properties":{"address":"13.432,22.429","placename":"13.432,22.429","title":"Jama"}},{"type":"Feature","geometry":{"type":"Point","coordinates":[22.703999999996,13.988000000001]},"properties":{"address":"13.988,22.704","placename":"13.988,22.704","title":"Jabal"}},{"type":"Feature","geometry":{"type":"Point","coordinates":[23.479999999999,12.909999999997]},"properties":{"address":"12.91,23.48","placename":"12.91,23.48","title":"Hesahesa"}},{"type":"Feature","geometry":{"type":"Point","coordinates":[22.702000000001,14.302999999996]},"properties":{"address":"14.303,22.702","placename":"14.303,22.702","title":"Helilat"}},{"type":"Feature","geometry":{"type":"Point","coordinates":[22.702000000001,14.302999999996]},"properties":{"address":"14.303,22.702","placename":"14.303,22.702","title":"Helilat"}},{"type":"Feature","geometry":{"type":"Point","coordinates":[22.587000000003,14.095000000003]},"properties":{"address":"14.095,22.587","placename":"14.095,22.587","title":"Hejieliga"}},{"type":"Feature","geometry":{"type":"Point","coordinates":[22.980999999998,13.152999999998]},"properties":{"address":"13.153,22.981","placename":"13.153,22.981","title":"Hajer Tama"}},{"type":"Feature","geometry":{"type":"Point","coordinates":[14.398025000002,22.5537556]},"properties":{"address":"22.5537556,14.398025","placename":"22.5537556,14.398025","title":"Hajer Laben"}},{"type":"Feature","geometry":{"type":"Point","coordinates":[22.7832105,13.783172400004]},"properties":{"address":"13.7831724,22.7832105","placename":"13.7831724,22.7832105","title":"Habilla LRs"}},{"type":"Feature","geometry":{"type":"Point","coordinates":[22.562000000001,12.680000000004]},"properties":{"address":"12.68,22.562","placename":"12.68,22.562","title":"Habilla"}},{"type":"Feature","geometry":{"type":"Point","coordinates":[22.678000000001,13.515000000002]},"properties":{"address":"13.515,22.678","placename":"13.515,22.678","title":"Gurf Elahmar"}},{"type":"Feature","geometry":{"type":"Point","coordinates":[22.767999999998,12.150000000002]},"properties":{"address":"12.15,22.768","placename":"12.15,22.768","title":"Gungar"}},{"type":"Feature","geometry":{"type":"Point","coordinates":[22.510999999997,12.055000000002]},"properties":{"address":"12.055,22.511","placename":"12.055,22.511","title":"Gumeiza"}},{"type":"Feature","geometry":{"type":"Point","coordinates":[22.688000000002,13.875000000002]},"properties":{"address":"13.875,22.688","placename":"13.875,22.688","title":"Goz Shido"}},{"type":"Feature","geometry":{"type":"Point","coordinates":[22.432000000003,14.547999999996]},"properties":{"address":"14.548,22.432","placename":"14.548,22.432","title":"Goz digga"}},{"type":"Feature","geometry":{"type":"Point","coordinates":[22.463999999999,13.226]},"properties":{"address":"13.226,22.464","placename":"13.226,22.464","title":"Goker"}},{"type":"Feature","geometry":{"type":"Point","coordinates":[22.451000000002,12.438]},"properties":{"address":"12.438,22.451","placename":"12.438,22.451","title":"Gobe"}},{"type":"Feature","geometry":{"type":"Point","coordinates":[22.935000000002,13.123000000003]},"properties":{"address":"13.123,22.935","placename":"13.123,22.935","title":"Genderni"}},{"type":"Feature","geometry":{"type":"Point","coordinates":[13.018583300002,21.938983299997]},"properties":{"address":"21.9389833,13.0185833","placename":"21.9389833,13.0185833","title":"Gemieza Babiker Res"}},{"type":"Feature","geometry":{"type":"Point","coordinates":[23.139999999997,12.379999999996]},"properties":{"address":"12.38,23.14","placename":"12.38,23.14","title":"Garsila"}},{"type":"Feature","geometry":{"type":"Point","coordinates":[22.897000000004,13.344000000002]},"properties":{"address":"13.344,22.897","placename":"13.344,22.897","title":"Galala"}},{"type":"Feature","geometry":{"type":"Point","coordinates":[22.59,12.124999999996]},"properties":{"address":"12.125,22.59","placename":"12.125,22.59","title":"Fur Buranga Res"}},{"type":"Feature","geometry":{"type":"Point","coordinates":[22.59,12.124999999996]},"properties":{"address":"12.125,22.59","placename":"12.125,22.59","title":"Fur Buranga (NA)"}},{"type":"Feature","geometry":{"type":"Point","coordinates":[22.437000000003,13.464000000003]},"properties":{"address":"13.464,22.437","placename":"13.464,22.437","title":"El Riad"}},{"type":"Feature","geometry":{"type":"Point","coordinates":[22.427000000002,13.433000000001]},"properties":{"address":"13.433,22.427","placename":"13.433,22.427","title":"El Hujaj"}},{"type":"Feature","geometry":{"type":"Point","coordinates":[22.521999999999,14.270000000001]},"properties":{"address":"14.27,22.522","placename":"14.27,22.522","title":"Douhoush"}},{"type":"Feature","geometry":{"type":"Point","coordinates":[22.486000000004,13.494999999998]},"properties":{"address":"13.495,22.486","placename":"13.495,22.486","title":"Dorti Marareet"}},{"type":"Feature","geometry":{"type":"Point","coordinates":[22.486000000004,13.494999999998]},"properties":{"address":"13.495,22.486","placename":"13.495,22.486","title":"Dorti Falata"}},{"type":"Feature","geometry":{"type":"Point","coordinates":[22.486000000004,13.494999999998]},"properties":{"address":"13.495,22.486","placename":"13.495,22.486","title":"Dorti"}},{"type":"Feature","geometry":{"type":"Point","coordinates":[22.576000000001,13.526999999997]},"properties":{"address":"13.527,22.576","placename":"13.527,22.576","title":"Deliaba"}},{"type":"Feature","geometry":{"type":"Point","coordinates":[23.237999999999,12.357]},"properties":{"address":"12.357,23.238","placename":"12.357,23.238","title":"Deleij"}},{"type":"Feature","geometry":{"type":"Point","coordinates":[22.738999999998,13.775999999999]},"properties":{"address":"13.776,22.739","placename":"13.776,22.739","title":"Buri Nomads"}},{"type":"Feature","geometry":{"type":"Point","coordinates":[22.728999999997,13.778999999997]},"properties":{"address":"13.779,22.729","placename":"13.779,22.729","title":"Buri Banat"}},{"type":"Feature","geometry":{"type":"Point","coordinates":[22.466999999996,13.716999999998]},"properties":{"address":"13.717,22.467","placename":"13.717,22.467","title":"Bir Dagig"}},{"type":"Feature","geometry":{"type":"Point","coordinates":[23.114000000002,11.941000000003]},"properties":{"address":"11.941,23.114","placename":"11.941,23.114","title":"Bindisi"}},{"type":"Feature","geometry":{"type":"Point","coordinates":[21.885000000002,12.711999999999]},"properties":{"address":"12.712,21.885","placename":"12.712,21.885","title":"Beida"}},{"type":"Feature","geometry":{"type":"Point","coordinates":[22.595,14.381000000003]},"properties":{"address":"14.381,22.595","placename":"14.381,22.595","title":"Batro"}},{"type":"Feature","geometry":{"type":"Point","coordinates":[22.279211100001,13.614466700002]},"properties":{"address":"13.6144667,22.2792111","placename":"13.6144667,22.2792111","title":"Bangadeed"}},{"type":"Feature","geometry":{"type":"Point","coordinates":[22.669000000003,13.511999999999]},"properties":{"address":"13.512,22.669","placename":"13.512,22.669","title":"Azirnie"}},{"type":"Feature","geometry":{"type":"Point","coordinates":[22.466999999996,14.333]},"properties":{"address":"14.333,22.467","placename":"14.333,22.467","title":"Arwa"}},{"type":"Feature","geometry":{"type":"Point","coordinates":[22.660000000004,14.130000000002]},"properties":{"address":"14.13,22.66","placename":"14.13,22.66","title":"Aro sharow"}},{"type":"Feature","geometry":{"type":"Point","coordinates":[22.166906199998,13.766854099997]},"properties":{"address":"13.7668541,22.1669062","placename":"13.7668541,22.1669062","title":"Armankul LRs"}},{"type":"Feature","geometry":{"type":"Point","coordinates":[22.495000000003,13.468999999996]},"properties":{"address":"13.469,22.495","placename":"13.469,22.495","title":"Ardamata"}},{"type":"Feature","geometry":{"type":"Point","coordinates":[22.499000000001,13.502999999999]},"properties":{"address":"13.503,22.499","placename":"13.503,22.499","title":"Arbokni"}},{"type":"Feature","geometry":{"type":"Point","coordinates":[22.168999999999,12.725000000001]},"properties":{"address":"12.725,22.169","placename":"12.725,22.169","title":"Arara"}},{"type":"Feature","geometry":{"type":"Point","coordinates":[26.983000000001,11.733999999997]},"properties":{"address":"11.734,26.983","placename":"11.734,26.983","title":"Al Shabab"}},{"type":"Feature","geometry":{"type":"Point","coordinates":[22.907000000004,10.902000000003]},"properties":{"address":"10.902,22.907","placename":"10.902,22.907","title":"Al Karanik"}},{"type":"Feature","geometry":{"type":"Point","coordinates":[23.482999999996,12.916999999997]},"properties":{"address":"12.917,23.483","placename":"12.917,23.483","title":"Al Hamedia"}},{"type":"Feature","geometry":{"type":"Point","coordinates":[22.6,13.583000000003]},"properties":{"address":"13.583,22.6","placename":"13.583,22.6","title":"Agoura"}},{"type":"Feature","geometry":{"type":"Point","coordinates":[22.433999999997,13.430000000002]},"properties":{"address":"13.43,22.434","placename":"13.43,22.434","title":"Abu Zar"}},{"type":"Feature","geometry":{"type":"Point","coordinates":[22.398000000002,13.858000000002]},"properties":{"address":"13.858,22.398","placename":"13.858,22.398","title":"Abu Sourouge"}},{"type":"Feature","geometry":{"type":"Point","coordinates":[22.491999999997,12.701000000002]},"properties":{"address":"12.701,22.492","placename":"12.701,22.492","title":"Abu Dahiyia"}},{"type":"Feature","geometry":{"type":"Point","coordinates":[31.176770999996,10.408779999998]},"properties":{"address":"10.40878,31.176771","placename":"10.40878,31.176771","title":"Warni"}},{"type":"Feature","geometry":{"type":"Point","coordinates":[29.352050999998,11.844202]},"properties":{"address":"11.844202,29.352051","placename":"11.844202,29.352051","title":"Wali"}},{"type":"Feature","geometry":{"type":"Point","coordinates":[30.012200000001,11.009699999997]},"properties":{"address":"11.0097,30.0122","placename":"11.0097,30.0122","title":"Umm Serdiba"}},{"type":"Feature","geometry":{"type":"Point","coordinates":[30.072309999996,11.48592]},"properties":{"address":"11.48592,30.07231","placename":"11.48592,30.07231","title":"Umm Heitan"}},{"type":"Feature","geometry":{"type":"Point","coordinates":[30.71635,11.04308]},"properties":{"address":"11.04308,30.71635","placename":"11.04308,30.71635","title":"Umm Dordo"}},{"type":"Feature","geometry":{"type":"Point","coordinates":[30.032799999998,10.861399999997]},"properties":{"address":"10.8614,30.0328","placename":"10.8614,30.0328","title":"Umm Dorain"}},{"type":"Feature","geometry":{"type":"Point","coordinates":[31.083333000002,11.766667000003]},"properties":{"address":"11.766667,31.083333","placename":"11.766667,31.083333","title":"Tosomi"}},{"type":"Feature","geometry":{"type":"Point","coordinates":[31.083333000002,11.999999999999]},"properties":{"address":"12,31.083333","placename":"12,31.083333","title":"Tongi"}},{"type":"Feature","geometry":{"type":"Point","coordinates":[29.244119999997,11.669379999996]},"properties":{"address":"11.66938,29.24412","placename":"11.66938,29.24412","title":"Timma"}},{"type":"Feature","geometry":{"type":"Point","coordinates":[31.449999999996,10.783333000002]},"properties":{"address":"10.783333,31.45","placename":"10.783333,31.45","title":"Tereida"}},{"type":"Feature","geometry":{"type":"Point","coordinates":[29.350000000004,11.716667000002]},"properties":{"address":"11.716667,29.35","placename":"11.716667,29.35","title":"Tebeik"}},{"type":"Feature","geometry":{"type":"Point","coordinates":[30.981109999996,10.860559999996]},"properties":{"address":"10.86056,30.98111","placename":"10.86056,30.98111","title":"Talodi"}},{"type":"Feature","geometry":{"type":"Point","coordinates":[30.200000000001,10.616667000002]},"properties":{"address":"10.616667,30.2","placename":"10.616667,30.2","title":"Taboli"}},{"type":"Feature","geometry":{"type":"Point","coordinates":[30.228833000001,10.828495000003]},"properties":{"address":"10.828495,30.228833","placename":"10.828495,30.228833","title":"Saraf El Gamos"}},{"type":"Feature","geometry":{"type":"Point","coordinates":[31.509557000003,10.637733999998]},"properties":{"address":"10.637734,31.509557","placename":"10.637734,31.509557","title":"Niaro"}},{"type":"Feature","geometry":{"type":"Point","coordinates":[31.749999999996,11.916667000002]},"properties":{"address":"11.916667,31.75","placename":"11.916667,31.75","title":"Managir"}},{"type":"Feature","geometry":{"type":"Point","coordinates":[29.400339999999,10.949315999996]},"properties":{"address":"10.949316,29.40034","placename":"10.949316,29.40034","title":"Lima"}},{"type":"Feature","geometry":{"type":"Point","coordinates":[29.362800000002,12.011500000002]},"properties":{"address":"12.0115,29.3628","placename":"12.0115,29.3628","title":"Kujuria"}},{"type":"Feature","geometry":{"type":"Point","coordinates":[29.600000000001,10.885832999996]},"properties":{"address":"10.885833,29.6","placename":"10.885833,29.6","title":"Korongo Abdalla"}},{"type":"Feature","geometry":{"type":"Point","coordinates":[31.224722000004,11.973056000002]},"properties":{"address":"11.973056,31.224722","placename":"11.973056,31.224722","title":"Khor Fidaila"}},{"type":"Feature","geometry":{"type":"Point","coordinates":[29.699600000001,11.467799999996]},"properties":{"address":"11.4678,29.6996","placename":"11.4678,29.6996","title":"Kega"}},{"type":"Feature","geometry":{"type":"Point","coordinates":[29.247045999996,11.662171999998]},"properties":{"address":"11.662172,29.247046","placename":"11.662172,29.247046","title":"Kayo"}},{"type":"Feature","geometry":{"type":"Point","coordinates":[30.510939999999,11.084000000002]},"properties":{"address":"11.084,30.51094","placename":"11.084,30.51094","title":"Kauda"}},{"type":"Feature","geometry":{"type":"Point","coordinates":[31.498284999996,10.614678]},"properties":{"address":"10.614678,31.498285","placename":"10.614678,31.498285","title":"Kau"}},{"type":"Feature","geometry":{"type":"Point","coordinates":[29.674135000001,10.803581999998]},"properties":{"address":"10.803582,29.674135","placename":"10.803582,29.674135","title":"Katcha"}},{"type":"Feature","geometry":{"type":"Point","coordinates":[30.975086000001,11.812918999996]},"properties":{"address":"11.812919,30.975086","placename":"11.812919,30.975086","title":"Kaloba"}},{"type":"Feature","geometry":{"type":"Point","coordinates":[30.301631999999,12.180841]},"properties":{"address":"12.180841,30.301632","placename":"12.180841,30.301632","title":"Kafeir"}},{"type":"Feature","geometry":{"type":"Point","coordinates":[29.491567999998,11.669126000001]},"properties":{"address":"11.669126,29.491568","placename":"11.669126,29.491568","title":"Julud"}},{"type":"Feature","geometry":{"type":"Point","coordinates":[30.524800000004,11.210789999999]},"properties":{"address":"11.21079,30.5248","placename":"11.21079,30.5248","title":"Heiban"}},{"type":"Feature","geometry":{"type":"Point","coordinates":[31.567195,10.532300000001]},"properties":{"address":"10.5323,31.567195","placename":"10.5323,31.567195","title":"Fungor"}},{"type":"Feature","geometry":{"type":"Point","coordinates":[30.866667000004,10.833332999996]},"properties":{"address":"10.833333,30.866667","placename":"10.833333,30.866667","title":"El Azraq"}},{"type":"Feature","geometry":{"type":"Point","coordinates":[31.043333,12.246666999999]},"properties":{"address":"12.246667,31.043333","placename":"12.246667,31.043333","title":"Banat El Moreib"}},{"type":"Feature","geometry":{"type":"Point","coordinates":[30.516667000001,11.283332999999]},"properties":{"address":"11.283333,30.516667","placename":"11.283333,30.516667","title":"Angerri"}},{"type":"Feature","geometry":{"type":"Point","coordinates":[29.416666999997,11.016667000001]},"properties":{"address":"11.016667,29.416667","placename":"11.016667,29.416667","title":"Abu Sinun"}},{"type":"Feature","geometry":{"type":"Point","coordinates":[31.235990999998,11.454376000002]},"properties":{"address":"11.454376,31.235991","placename":"11.454376,31.235991","title":"Abu Jebeeha"}},{"type":"Feature","geometry":{"type":"Point","coordinates":[28.975981000004,11.981235999996]},"properties":{"address":"11.981236,28.975981","placename":"11.981236,28.975981","title":"Abo Jonok"}},{"type":"Feature","geometry":{"type":"Point","coordinates":[24.903000000001,12.724000000001]},"properties":{"address":"12.724,24.903","placename":"12.724,24.903","title":"Zalata"}},{"type":"Feature","geometry":{"type":"Point","coordinates":[25.490000000004,11.570000000001]},"properties":{"address":"11.57,25.49","placename":"11.57,25.49","title":"Yassin"}},{"type":"Feature","geometry":{"type":"Point","coordinates":[25.011000000004,12.558999999999]},"properties":{"address":"12.559,25.011","placename":"12.559,25.011","title":"Yara"}},{"type":"Feature","geometry":{"type":"Point","coordinates":[24.293,12.504999999997]},"properties":{"address":"12.505,24.293","placename":"12.505,24.293","title":"Yahia Hajar"}},{"type":"Feature","geometry":{"type":"Point","coordinates":[25.730838900002,11.491794399997]},"properties":{"address":"11.4917944,25.7308389","placename":"11.4917944,25.7308389","title":"Wazazeen"}},{"type":"Feature","geometry":{"type":"Point","coordinates":[27.101699999999,11.615666699999]},"properties":{"address":"11.6156667,27.1017","placename":"11.6156667,27.1017","title":"Wad Joda"}},{"type":"Feature","geometry":{"type":"Point","coordinates":[25.504999999996,12.495999999999]},"properties":{"address":"12.496,25.505","placename":"12.496,25.505","title":"Wad al mairam"}},{"type":"Feature","geometry":{"type":"Point","coordinates":[24.850000000001,11.983000000003]},"properties":{"address":"11.983,24.85","placename":"11.983,24.85","title":"Umsauna"}},{"type":"Feature","geometry":{"type":"Point","coordinates":[25.702000000003,12.650000000004]},"properties":{"address":"12.65,25.702","placename":"12.65,25.702","title":"Umridim"}},{"type":"Feature","geometry":{"type":"Point","coordinates":[26.638244300002,11.312797899999]},"properties":{"address":"11.3127979,26.6382443","placename":"11.3127979,26.6382443","title":"Umrakuba"}},{"type":"Feature","geometry":{"type":"Point","coordinates":[25.048000000001,11.784000000003]},"properties":{"address":"11.784,25.048","placename":"11.784,25.048","title":"Um-Kunya"}},{"type":"Feature","geometry":{"type":"Point","coordinates":[25.775788399998,12.5250872]},"properties":{"address":"12.5250872,25.7757884","placename":"12.5250872,25.7757884","title":"Um Lawaya"}},{"type":"Feature","geometry":{"type":"Point","coordinates":[23.982999999999,12.032999999999]},"properties":{"address":"12.033,23.983","placename":"12.033,23.983","title":"Um Labasa"}},{"type":"Feature","geometry":{"type":"Point","coordinates":[25.165000000002,11.999999999999]},"properties":{"address":"12,25.165","placename":"12,25.165","title":"Um Kurdos"}},{"type":"Feature","geometry":{"type":"Point","coordinates":[26.442000000002,11.374999999997]},"properties":{"address":"11.375,26.442","placename":"11.375,26.442","title":"Um Gogaya"}},{"type":"Feature","geometry":{"type":"Point","coordinates":[25.944999999996,11.720000000003]},"properties":{"address":"11.72,25.945","placename":"11.72,25.945","title":"Um Boim"}},{"type":"Feature","geometry":{"type":"Point","coordinates":[25.193000000001,12.316999999997]},"properties":{"address":"12.317,25.193","placename":"12.317,25.193","title":"Um Alkhirat"}},{"type":"Feature","geometry":{"type":"Point","coordinates":[24.517000000003,11.216999999996]},"properties":{"address":"11.217,24.517","placename":"11.217,24.517","title":"Tiwal"}},{"type":"Feature","geometry":{"type":"Point","coordinates":[24.638999999996,11.844999999999]},"properties":{"address":"11.845,24.639","placename":"11.845,24.639","title":"Timbisco"}},{"type":"Feature","geometry":{"type":"Point","coordinates":[24.106000000003,12.854]},"properties":{"address":"12.854,24.106","placename":"12.854,24.106","title":"Thur East & West"}},{"type":"Feature","geometry":{"type":"Point","coordinates":[24.304933299996,12.457333299999]},"properties":{"address":"12.4573333,24.3049333","placename":"12.4573333,24.3049333","title":"Tartur"}},{"type":"Feature","geometry":{"type":"Point","coordinates":[24.2040007,12.6494767]},"properties":{"address":"12.6494767,24.2040007","placename":"12.6494767,24.2040007","title":"Taringa"}},{"type":"Feature","geometry":{"type":"Point","coordinates":[25.228999999996,12.264000000004]},"properties":{"address":"12.264,25.229","placename":"12.264,25.229","title":"Taisha"}},{"type":"Feature","geometry":{"type":"Point","coordinates":[25.0343944,11.820180599999]},"properties":{"address":"11.8201806,25.0343944","placename":"11.8201806,25.0343944","title":"Tabeldiat"}},{"type":"Feature","geometry":{"type":"Point","coordinates":[26.916000000002,11.689999999996]},"properties":{"address":"11.69,26.916","placename":"11.69,26.916","title":"Taalba"}},{"type":"Feature","geometry":{"type":"Point","coordinates":[25.698999999997,11.671000000002]},"properties":{"address":"11.671,25.699","placename":"11.671,25.699","title":"Silia"}},{"type":"Feature","geometry":{"type":"Point","coordinates":[27.188999999997,11.263]},"properties":{"address":"11.263,27.189","placename":"11.263,27.189","title":"Sharif IDPs"}},{"type":"Feature","geometry":{"type":"Point","coordinates":[27.083194399998,11.519666700003]},"properties":{"address":"11.5196667,27.0831944","placename":"11.5196667,27.0831944","title":"Shag Tayeeb"}},{"type":"Feature","geometry":{"type":"Point","coordinates":[25.606999999997,12.460000000001]},"properties":{"address":"12.46,25.607","placename":"12.46,25.607","title":"Shaeria Town"}},{"type":"Feature","geometry":{"type":"Point","coordinates":[24.869092300001,12.166330900004]},"properties":{"address":"12.1663309,24.8690923","placename":"12.1663309,24.8690923","title":"Shadida"}},{"type":"Feature","geometry":{"type":"Point","coordinates":[24.82,12.005000000004]},"properties":{"address":"12.005,24.82","placename":"12.005,24.82","title":"Serif Camp"}},{"type":"Feature","geometry":{"type":"Point","coordinates":[24.177,12.296000000002]},"properties":{"address":"12.296,24.177","placename":"12.296,24.177","title":"Savana B"}},{"type":"Feature","geometry":{"type":"Point","coordinates":[24.177,12.296000000002]},"properties":{"address":"12.296,24.177","placename":"12.296,24.177","title":"Savana A"}},{"type":"Feature","geometry":{"type":"Point","coordinates":[24.843918000001,11.739815]},"properties":{"address":"11.739815,24.843918","placename":"11.739815,24.843918","title":"Sania Deliba"}},{"type":"Feature","geometry":{"type":"Point","coordinates":[25.416000000001,11.732999999999]},"properties":{"address":"11.733,25.416","placename":"11.733,25.416","title":"Sania Afandu"}},{"type":"Feature","geometry":{"type":"Point","coordinates":[24.850000000001,11.983000000003]},"properties":{"address":"11.983,24.85","placename":"11.983,24.85","title":"Sakeley"}},{"type":"Feature","geometry":{"type":"Point","coordinates":[24.705723870003,10.92237697]},"properties":{"address":"10.92237697,24.70572387","placename":"10.92237697,24.70572387","title":"Rajraj"}},{"type":"Feature","geometry":{"type":"Point","coordinates":[25.310000000002,11.534999999998]},"properties":{"address":"11.535,25.31","placename":"11.535,25.31","title":"Rajella"}},{"type":"Feature","geometry":{"type":"Point","coordinates":[24.177,12.296000000002]},"properties":{"address":"12.296,24.177","placename":"12.296,24.177","title":"Otash"}},{"type":"Feature","geometry":{"type":"Point","coordinates":[24.177,12.296000000002]},"properties":{"address":"12.296,24.177","placename":"12.296,24.177","title":"Nyamma"}},{"type":"Feature","geometry":{"type":"Point","coordinates":[25.524999999997,12.606999999998]},"properties":{"address":"12.607,25.525","placename":"12.607,25.525","title":"Netiga"}},{"type":"Feature","geometry":{"type":"Point","coordinates":[24.460720000001,10.795139999998]},"properties":{"address":"10.79514,24.46072","placename":"10.79514,24.46072","title":"Nekhara"}},{"type":"Feature","geometry":{"type":"Point","coordinates":[24.513999999997,12.541]},"properties":{"address":"12.541,24.514","placename":"12.541,24.514","title":"Neima"}},{"type":"Feature","geometry":{"type":"Point","coordinates":[25.407991700003,12.892969400002]},"properties":{"address":"12.8929694,25.4079917","placename":"12.8929694,25.4079917","title":"Negaia"}},{"type":"Feature","geometry":{"type":"Point","coordinates":[24.508392200001,12.030815100001]},"properties":{"address":"12.0308151,24.5083922","placename":"12.0308151,24.5083922","title":"Narri"}},{"type":"Feature","geometry":{"type":"Point","coordinates":[25.615999999996,11.974000000002]},"properties":{"address":"11.974,25.616","placename":"11.974,25.616","title":"Muhajeria"}},{"type":"Feature","geometry":{"type":"Point","coordinates":[24.880999999996,12.004000000001]},"properties":{"address":"12.004,24.881","placename":"12.004,24.881","title":"Mosey"}},{"type":"Feature","geometry":{"type":"Point","coordinates":[24.340999999999,12.073999999999]},"properties":{"address":"12.074,24.341","placename":"12.074,24.341","title":"Moaro"}},{"type":"Feature","geometry":{"type":"Point","coordinates":[24.903000000001,12.724000000001]},"properties":{"address":"12.724,24.903","placename":"12.724,24.903","title":"Mershing"}},{"type":"Feature","geometry":{"type":"Point","coordinates":[25.141000000003,12.397000000001]},"properties":{"address":"12.397,25.141","placename":"12.397,25.141","title":"Merier"}},{"type":"Feature","geometry":{"type":"Point","coordinates":[24.977000000004,12.672000000004]},"properties":{"address":"12.672,24.977","placename":"12.672,24.977","title":"Menawashi"}},{"type":"Feature","geometry":{"type":"Point","coordinates":[25.277999999997,11.851000000001]},"properties":{"address":"11.851,25.278","placename":"11.851,25.278","title":"Marla South"}},{"type":"Feature","geometry":{"type":"Point","coordinates":[25.024000000001,11.813999999997]},"properties":{"address":"11.814,25.024","placename":"11.814,25.024","title":"Magarine"}},{"type":"Feature","geometry":{"type":"Point","coordinates":[24.333179299996,12.6168337]},"properties":{"address":"12.6168337,24.3331793","placename":"12.6168337,24.3331793","title":"Limo"}},{"type":"Feature","geometry":{"type":"Point","coordinates":[25.416000000001,11.569000000001]},"properties":{"address":"11.569,25.416","placename":"11.569,25.416","title":"Labado"}},{"type":"Feature","geometry":{"type":"Point","coordinates":[23.802999999997,11.755000000001]},"properties":{"address":"11.755,23.803","placename":"11.755,23.803","title":"Kubum"}},{"type":"Feature","geometry":{"type":"Point","coordinates":[24.825,12.726000000002]},"properties":{"address":"12.726,24.825","placename":"12.726,24.825","title":"Koroly"}},{"type":"Feature","geometry":{"type":"Point","coordinates":[24.264199999999,12.547399999998]},"properties":{"address":"12.5474,24.2642","placename":"12.5474,24.2642","title":"Kideka"}},{"type":"Feature","geometry":{"type":"Point","coordinates":[26.166000000002,11.391999999996]},"properties":{"address":"11.392,26.166","placename":"11.392,26.166","title":"Khor Omer"}},{"type":"Feature","geometry":{"type":"Point","coordinates":[25.27,12.647000000001]},"properties":{"address":"12.647,25.27","placename":"12.647,25.27","title":"Khor Abechi"}},{"type":"Feature","geometry":{"type":"Point","coordinates":[25.098000000004,12.511000000002]},"properties":{"address":"12.511,25.098","placename":"12.511,25.098","title":"Keri Kier"}},{"type":"Feature","geometry":{"type":"Point","coordinates":[24.285000000003,12.504999999997]},"properties":{"address":"12.505,24.285","placename":"12.505,24.285","title":"Kass Town (New Arrivals)"}},{"type":"Feature","geometry":{"type":"Point","coordinates":[24.290039999998,12.502150000003]},"properties":{"address":"12.50215,24.29004","placename":"12.50215,24.29004","title":"Kass Town (New Arrivals from WD)"}},{"type":"Feature","geometry":{"type":"Point","coordinates":[25.333,12.625999999999]},"properties":{"address":"12.626,25.333","placename":"12.626,25.333","title":"Karumji"}},{"type":"Feature","geometry":{"type":"Point","coordinates":[25.015000000002,12.005000000004]},"properties":{"address":"12.005,25.015","placename":"12.005,25.015","title":"Kalma"}},{"type":"Feature","geometry":{"type":"Point","coordinates":[25.287999999997,11.111000000001]},"properties":{"address":"11.111,25.288","placename":"11.111,25.288","title":"Joghana"}},{"type":"Feature","geometry":{"type":"Point","coordinates":[24.75875267,11.094817839998]},"properties":{"address":"11.09481784,24.75875267","placename":"11.09481784,24.75875267","title":"Jidad"}},{"type":"Feature","geometry":{"type":"Point","coordinates":[26.717000000001,11.682999999998]},"properties":{"address":"11.683,26.717","placename":"11.683,26.717","title":"Jad Elseid(Alnair)"}},{"type":"Feature","geometry":{"type":"Point","coordinates":[26.717000000001,11.682999999998]},"properties":{"address":"11.683,26.717","placename":"11.683,26.717","title":"Jad Elseid IDPs"}},{"type":"Feature","geometry":{"type":"Point","coordinates":[24.172,12.302000000003]},"properties":{"address":"12.302,24.172","placename":"12.302,24.172","title":"Humira School"}},{"type":"Feature","geometry":{"type":"Point","coordinates":[24.390000000001,12.013999999999]},"properties":{"address":"12.014,24.39","placename":"12.014,24.39","title":"Hilat Hosa"}},{"type":"Feature","geometry":{"type":"Point","coordinates":[26.069000000001,11.608000000004]},"properties":{"address":"11.608,26.069","placename":"11.608,26.069","title":"Hilat Ali"}},{"type":"Feature","geometry":{"type":"Point","coordinates":[26.661999999998,11.425000000001]},"properties":{"address":"11.425,26.662","placename":"11.425,26.662","title":"Hilal"}},{"type":"Feature","geometry":{"type":"Point","coordinates":[25.169000000001,11.792000000001]},"properties":{"address":"11.792,25.169","placename":"11.792,25.169","title":"Hijaar"}},{"type":"Feature","geometry":{"type":"Point","coordinates":[22.587000000003,14.095000000003]},"properties":{"address":"14.095,22.587","placename":"14.095,22.587","title":"Higliega"}},{"type":"Feature","geometry":{"type":"Point","coordinates":[25.067,10.683000000002]},"properties":{"address":"10.683,25.067","placename":"10.683,25.067","title":"Heriga"}},{"type":"Feature","geometry":{"type":"Point","coordinates":[24.340331499996,12.672603399996]},"properties":{"address":"12.6726034,24.3403315","placename":"12.6726034,24.3403315","title":"Hashaba"}},{"type":"Feature","geometry":{"type":"Point","coordinates":[24.854,12.246000000001]},"properties":{"address":"12.246,24.854","placename":"12.246,24.854","title":"Halouf"}},{"type":"Feature","geometry":{"type":"Point","coordinates":[25.011000000004,12.558999999999]},"properties":{"address":"12.559,25.011","placename":"12.559,25.011","title":"Goruf"}},{"type":"Feature","geometry":{"type":"Point","coordinates":[25.140000000001,11.274999999996]},"properties":{"address":"11.275,25.14","placename":"11.275,25.14","title":"Gereida Camp"}},{"type":"Feature","geometry":{"type":"Point","coordinates":[25.147522499996,11.272931000004]},"properties":{"address":"11.272931,25.1475225","placename":"11.272931,25.1475225","title":"Gereida"}},{"type":"Feature","geometry":{"type":"Point","coordinates":[25.029000000001,11.953]},"properties":{"address":"11.953,25.029","placename":"11.953,25.029","title":"Gadi"}},{"type":"Feature","geometry":{"type":"Point","coordinates":[25.051999999999,12.224999999997]},"properties":{"address":"12.225,25.052","placename":"12.225,25.052","title":"Fasha"}},{"type":"Feature","geometry":{"type":"Point","coordinates":[24.329999999997,12.561000000001]},"properties":{"address":"12.561,24.33","placename":"12.561,24.33","title":"Erly"}},{"type":"Feature","geometry":{"type":"Point","coordinates":[24.666000000001,12.010999999996]},"properties":{"address":"12.011,24.666","placename":"12.011,24.666","title":"Elban Jadied"}},{"type":"Feature","geometry":{"type":"Point","coordinates":[24.432500000003,10.67042]},"properties":{"address":"10.67042,24.4325","placename":"10.67042,24.4325","title":"El Tomat"}},{"type":"Feature","geometry":{"type":"Point","coordinates":[24.280999999996,12.508000000001]},"properties":{"address":"12.508,24.281","placename":"12.508,24.281","title":"El Thanawia Banat"}},{"type":"Feature","geometry":{"type":"Point","coordinates":[26.512999999999,11.776000000003]},"properties":{"address":"11.776,26.513","placename":"11.776,26.513","title":"El Fwileh"}},{"type":"Feature","geometry":{"type":"Point","coordinates":[26.013077199999,11.848499699998]},"properties":{"address":"11.8484997,26.0130772","placename":"11.8484997,26.0130772","title":"El Ardieb"}},{"type":"Feature","geometry":{"type":"Point","coordinates":[26.149999999999,11.430000000001]},"properties":{"address":"11.43,26.15","placename":"11.43,26.15","title":"Ed Daein Town"}},{"type":"Feature","geometry":{"type":"Point","coordinates":[25.175000000003,11.856000000001]},"properties":{"address":"11.856,25.175","placename":"11.856,25.175","title":"Dwana"}},{"type":"Feature","geometry":{"type":"Point","coordinates":[25.504999999996,12.495999999999]},"properties":{"address":"12.496,25.505","placename":"12.496,25.505","title":"Duma Duma"}},{"type":"Feature","geometry":{"type":"Point","coordinates":[24.865000000002,12.519999999997]},"properties":{"address":"12.52,24.865","placename":"12.52,24.865","title":"Duma Adwa"}},{"type":"Feature","geometry":{"type":"Point","coordinates":[24.122999999999,12.706000000004]},"properties":{"address":"12.706,24.123","placename":"12.706,24.123","title":"Dugu camp"}},{"type":"Feature","geometry":{"type":"Point","coordinates":[25.029000000001,11.953]},"properties":{"address":"11.953,25.029","placename":"11.953,25.029","title":"Draib El Raih"}},{"type":"Feature","geometry":{"type":"Point","coordinates":[25.067373300001,11.5221777]},"properties":{"address":"11.5221777,25.0673733","placename":"11.5221777,25.0673733","title":"Donkey Dressa"}},{"type":"Feature","geometry":{"type":"Point","coordinates":[24.633151200003,11.516867600002]},"properties":{"address":"11.5168676,24.6331512","placename":"11.5168676,24.6331512","title":"Domaya"}},{"type":"Feature","geometry":{"type":"Point","coordinates":[25.252000000002,11.436000000001]},"properties":{"address":"11.436,25.252","placename":"11.436,25.252","title":"Dito"}},{"type":"Feature","geometry":{"type":"Point","coordinates":[26.773999999999,11.534999999998]},"properties":{"address":"11.535,26.774","placename":"11.535,26.774","title":"Direga"}},{"type":"Feature","geometry":{"type":"Point","coordinates":[24.579970040003,10.949843589997]},"properties":{"address":"10.94984359,24.57997004","placename":"10.94984359,24.57997004","title":"Dimso"}},{"type":"Feature","geometry":{"type":"Point","coordinates":[24.69455,11.698430599997]},"properties":{"address":"11.6984306,24.69455","placename":"11.6984306,24.69455","title":"Dimo"}},{"type":"Feature","geometry":{"type":"Point","coordinates":[24.226319399998,12.5714639]},"properties":{"address":"12.5714639,24.2263194","placename":"12.5714639,24.2263194","title":"Dibis"}},{"type":"Feature","geometry":{"type":"Point","coordinates":[24.924000000004,12.076000000002]},"properties":{"address":"12.076,24.924","placename":"12.076,24.924","title":"Dereige"}},{"type":"Feature","geometry":{"type":"Point","coordinates":[26.428999999996,11.425000000001]},"properties":{"address":"11.425,26.429","placename":"11.425,26.429","title":"Dar Alsalam"}},{"type":"Feature","geometry":{"type":"Point","coordinates":[24.609000000003,12.007999999998]},"properties":{"address":"12.008,24.609","placename":"12.008,24.609","title":"Dalal Angra"}},{"type":"Feature","geometry":{"type":"Point","coordinates":[23.785,12.058999999999]},"properties":{"address":"12.059,23.785","placename":"12.059,23.785","title":"Dagadousa"}},{"type":"Feature","geometry":{"type":"Point","coordinates":[25.050000000004,11.868999999999]},"properties":{"address":"11.869,25.05","placename":"11.869,25.05","title":"Couka"}},{"type":"Feature","geometry":{"type":"Point","coordinates":[25.026999999998,11.998000000004]},"properties":{"address":"11.998,25.027","placename":"11.998,25.027","title":"Bileil"}},{"type":"Feature","geometry":{"type":"Point","coordinates":[26.572000000001,11.397999999999]},"properties":{"address":"11.398,26.572","placename":"11.398,26.572","title":"Bakhit"}},{"type":"Feature","geometry":{"type":"Point","coordinates":[24.405000000001,12.124000000001]},"properties":{"address":"12.124,24.405","placename":"12.124,24.405","title":"Azomri"}},{"type":"Feature","geometry":{"type":"Point","coordinates":[25.727999999997,11.377999999999]},"properties":{"address":"11.378,25.728","placename":"11.378,25.728","title":"Assalaya"}},{"type":"Feature","geometry":{"type":"Point","coordinates":[23.913000000004,12.205999999999]},"properties":{"address":"12.206,23.913","placename":"12.206,23.913","title":"Ardeba"}},{"type":"Feature","geometry":{"type":"Point","coordinates":[24.566999999997,12.088000000002]},"properties":{"address":"12.088,24.567","placename":"12.088,24.567","title":"Amar Jaded"}},{"type":"Feature","geometry":{"type":"Point","coordinates":[24.740999999997,12.192999999996]},"properties":{"address":"12.193,24.741","placename":"12.193,24.741","title":"Amakasara"}},{"type":"Feature","geometry":{"type":"Point","coordinates":[24.909999999996,12.101999999998]},"properties":{"address":"12.102,24.91","placename":"12.102,24.91","title":"Al Salam"}},{"type":"Feature","geometry":{"type":"Point","coordinates":[26.399000000003,11.747999999998]},"properties":{"address":"11.748,26.399","placename":"11.748,26.399","title":"Al Sahab"}},{"type":"Feature","geometry":{"type":"Point","coordinates":[24.577429999997,11.485100000004]},"properties":{"address":"11.4851,24.57743","placename":"11.4851,24.57743","title":"Al Safia"}},{"type":"Feature","geometry":{"type":"Point","coordinates":[25.5926667,11.352405599996]},"properties":{"address":"11.3524056,25.5926667","placename":"11.3524056,25.5926667","title":"Al Rouse"}},{"type":"Feature","geometry":{"type":"Point","coordinates":[26.776000000003,11.541]},"properties":{"address":"11.541,26.776","placename":"11.541,26.776","title":"Al Neem"}},{"type":"Feature","geometry":{"type":"Point","coordinates":[26.975999999997,11.578999999996]},"properties":{"address":"11.579,26.976","placename":"11.579,26.976","title":"Al Mazroub HC"}},{"type":"Feature","geometry":{"type":"Point","coordinates":[26.114999999997,11.469999999997]},"properties":{"address":"11.47,26.115","placename":"11.47,26.115","title":"Al Mashroot"}},{"type":"Feature","geometry":{"type":"Point","coordinates":[24.871000000004,12.916000000002]},"properties":{"address":"12.916,24.871","placename":"12.916,24.871","title":"Al Malam"}},{"type":"Feature","geometry":{"type":"Point","coordinates":[27.047999999996,11.251999999997]},"properties":{"address":"11.252,27.048","placename":"11.252,27.048","title":"Al Gora IDPs"}},{"type":"Feature","geometry":{"type":"Point","coordinates":[25.794000000003,11.095000000001]},"properties":{"address":"11.095,25.794","placename":"11.095,25.794","title":"Al Firdos"}},{"type":"Feature","geometry":{"type":"Point","coordinates":[24.286999999998,12.499000000004]},"properties":{"address":"12.499,24.287","placename":"12.499,24.287","title":"Al Battery"}},{"type":"Feature","geometry":{"type":"Point","coordinates":[25.856104800004,12.443283399997]},"properties":{"address":"12.4432834,25.8561048","placename":"12.4432834,25.8561048","title":"Ajara"}},{"type":"Feature","geometry":{"type":"Point","coordinates":[27.089,11.308000000001]},"properties":{"address":"11.308,27.089","placename":"11.308,27.089","title":"Adilla IDPs"}},{"type":"Feature","geometry":{"type":"Point","coordinates":[24.716436799999,11.186199700003]},"properties":{"address":"11.1861997,24.7164368","placename":"11.1861997,24.7164368","title":"Abu Sallala"}},{"type":"Feature","geometry":{"type":"Point","coordinates":[25.104999999999,12.175999999998]},"properties":{"address":"12.176,25.105","placename":"12.176,25.105","title":"Abu Odam"}},{"type":"Feature","geometry":{"type":"Point","coordinates":[26.201999999997,10.986000000002]},"properties":{"address":"10.986,26.202","placename":"10.986,26.202","title":"Abu Matariq IDPs"}},{"type":"Feature","geometry":{"type":"Point","coordinates":[26.535701899999,11.586806300002]},"properties":{"address":"11.5868063,26.5357019","placename":"11.5868063,26.5357019","title":"Abu karinka HC"}},{"type":"Feature","geometry":{"type":"Point","coordinates":[26.854000000004,11.065999999998]},"properties":{"address":"11.066,26.854","placename":"11.066,26.854","title":"Abu Jabra (Ed Daein)"}},{"type":"Feature","geometry":{"type":"Point","coordinates":[26.739999999999,11.060000000004]},"properties":{"address":"11.06,26.74","placename":"11.06,26.74","title":"Abu Jabra (Buram)"}},{"type":"Feature","geometry":{"type":"Point","coordinates":[24.676033300001,11.597016699999]},"properties":{"address":"11.5970167,24.6760333","placename":"11.5970167,24.6760333","title":"Abu ajoura"}},{"type":"Feature","geometry":{"type":"Point","coordinates":[24.279000000001,12.513999999999]},"properties":{"address":"12.514,24.279","placename":"12.514,24.279","title":"A\/Jabar A"}},{"type":"Feature","geometry":{"type":"Point","coordinates":[25.309,13.481000000001]},"properties":{"address":"13.481,25.309","placename":"13.481,25.309","title":"Zam Zam Camp"}},{"type":"Feature","geometry":{"type":"Point","coordinates":[25.309,13.481000000001]},"properties":{"address":"13.481,25.309","placename":"13.481,25.309","title":"Zam Zam Camp"}},{"type":"Feature","geometry":{"type":"Point","coordinates":[25.499000000003,13.892000000004]},"properties":{"address":"13.892,25.499","placename":"13.892,25.499","title":"Wama"}},{"type":"Feature","geometry":{"type":"Point","coordinates":[25.381263099999,15.3759499]},"properties":{"address":"15.3759499,25.3812631","placename":"15.3759499,25.3812631","title":"Wakahem"}},{"type":"Feature","geometry":{"type":"Point","coordinates":[26.239000000003,14.800000000002]},"properties":{"address":"14.8,26.239","placename":"14.8,26.239","title":"Wadi Osher"}},{"type":"Feature","geometry":{"type":"Point","coordinates":[25.750855599999,13.046483299998]},"properties":{"address":"13.0464833,25.7508556","placename":"13.0464833,25.7508556","title":"Wadi Kota"}},{"type":"Feature","geometry":{"type":"Point","coordinates":[23.532999999999,15.299999999996]},"properties":{"address":"15.3,23.533","placename":"15.3,23.533","title":"Uru"}},{"type":"Feature","geometry":{"type":"Point","coordinates":[25.151999999996,14.424999999996]},"properties":{"address":"14.425,25.152","placename":"14.425,25.152","title":"Um Sidr"}},{"type":"Feature","geometry":{"type":"Point","coordinates":[24.311999999999,14.625000000001]},"properties":{"address":"14.625,24.312","placename":"14.625,24.312","title":"Um Shidiq"}},{"type":"Feature","geometry":{"type":"Point","coordinates":[25.119500000003,13.381166699997]},"properties":{"address":"13.3811667,25.1195","placename":"13.3811667,25.1195","title":"Um Sayalla - Alein"}},{"type":"Feature","geometry":{"type":"Point","coordinates":[24.893,14.672000000001]},"properties":{"address":"14.672,24.893","placename":"14.672,24.893","title":"Um Rai"}},{"type":"Feature","geometry":{"type":"Point","coordinates":[24.280085099997,14.729530399998]},"properties":{"address":"14.7295304,24.2800851","placename":"14.7295304,24.2800851","title":"Um Marahik Area"}},{"type":"Feature","geometry":{"type":"Point","coordinates":[24.280000000003,14.729999999997]},"properties":{"address":"14.73,24.28","placename":"14.73,24.28","title":"Um Mahareik"}},{"type":"Feature","geometry":{"type":"Point","coordinates":[24.736999999998,13.994]},"properties":{"address":"13.994,24.737","placename":"13.994,24.737","title":"Um layona"}},{"type":"Feature","geometry":{"type":"Point","coordinates":[25.072,13.348999999996]},"properties":{"address":"13.349,25.072","placename":"13.349,25.072","title":"Um Laota"}},{"type":"Feature","geometry":{"type":"Point","coordinates":[25.171999999997,13.187999999999]},"properties":{"address":"13.188,25.172","placename":"13.188,25.172","title":"Um Khair"}},{"type":"Feature","geometry":{"type":"Point","coordinates":[26.691150600004,13.6024667]},"properties":{"address":"13.6024667,26.6911506","placename":"13.6024667,26.6911506","title":"Um Kadada"}},{"type":"Feature","geometry":{"type":"Point","coordinates":[24.170999999998,14.941999999996]},"properties":{"address":"14.942,24.171","placename":"14.942,24.171","title":"Um Haraz"}},{"type":"Feature","geometry":{"type":"Point","coordinates":[24.900000000004,13.633333299997]},"properties":{"address":"13.6333333,24.9","placename":"13.6333333,24.9","title":"Um Gelbag"}},{"type":"Feature","geometry":{"type":"Point","coordinates":[25.929379999997,13.579318000003]},"properties":{"address":"13.579318,25.92938","placename":"13.579318,25.92938","title":"Um Dum Area"}},{"type":"Feature","geometry":{"type":"Point","coordinates":[25.483197899998,13.033168200003]},"properties":{"address":"13.0331682,25.4831979","placename":"13.0331682,25.4831979","title":"Um Dul"}},{"type":"Feature","geometry":{"type":"Point","coordinates":[25.153130600003,12.9799056]},"properties":{"address":"12.9799056,25.1531306","placename":"12.9799056,25.1531306","title":"Um Deressaya"}},{"type":"Feature","geometry":{"type":"Point","coordinates":[24.904612300001,13.499824600002]},"properties":{"address":"13.4998246,24.9046123","placename":"13.4998246,24.9046123","title":"Um Buranga"}},{"type":"Feature","geometry":{"type":"Point","coordinates":[26.898390200002,14.936087900002]},"properties":{"address":"14.9360879,26.8983902","placename":"14.9360879,26.8983902","title":"Um Bayada"}},{"type":"Feature","geometry":{"type":"Point","coordinates":[23.704579999996,15.020690000001]},"properties":{"address":"15.02069,23.70458","placename":"15.02069,23.70458","title":"Um Barru"}},{"type":"Feature","geometry":{"type":"Point","coordinates":[25.383306500004,14.016666399998]},"properties":{"address":"14.0166664,25.3833065","placename":"14.0166664,25.3833065","title":"Um Ajaja"}},{"type":"Feature","geometry":{"type":"Point","coordinates":[24.091000000002,15.196999999998]},"properties":{"address":"15.197,24.091","placename":"15.197,24.091","title":"Turba"}},{"type":"Feature","geometry":{"type":"Point","coordinates":[25.649999999996,14.035999999996]},"properties":{"address":"14.036,25.65","placename":"14.036,25.65","title":"Tofto"}},{"type":"Feature","geometry":{"type":"Point","coordinates":[23.950000000001,15.333]},"properties":{"address":"15.333,23.95","placename":"15.333,23.95","title":"Ternawdo"}},{"type":"Feature","geometry":{"type":"Point","coordinates":[24.911024800004,13.4839056]},"properties":{"address":"13.4839056,24.9110248","placename":"13.4839056,24.9110248","title":"Tawila & Rwanda"}},{"type":"Feature","geometry":{"type":"Point","coordinates":[25.1108407,13.196626000004]},"properties":{"address":"13.196626,25.1108407","placename":"13.196626,25.1108407","title":"Tangrara"}},{"type":"Feature","geometry":{"type":"Point","coordinates":[24.828249999999,13.726320000002]},"properties":{"address":"13.72632,24.82825","placename":"13.72632,24.82825","title":"Ta'alba"}},{"type":"Feature","geometry":{"type":"Point","coordinates":[25.881000000003,14.493999999999]},"properties":{"address":"14.494,25.881","placename":"14.494,25.881","title":"Sindy"}},{"type":"Feature","geometry":{"type":"Point","coordinates":[24.098999999999,13.606999999999]},"properties":{"address":"13.607,24.099","placename":"13.607,24.099","title":"Shoba Mansour"}},{"type":"Feature","geometry":{"type":"Point","coordinates":[25.072499999997,13.168333300004]},"properties":{"address":"13.1683333,25.0725","placename":"13.1683333,25.0725","title":"Shewa Safaha"}},{"type":"Feature","geometry":{"type":"Point","coordinates":[25.073000000002,13.167999999998]},"properties":{"address":"13.168,25.073","placename":"13.168,25.073","title":"Sherifa"}},{"type":"Feature","geometry":{"type":"Point","coordinates":[24.004738000001,15.4488357]},"properties":{"address":"15.4488357,24.004738","placename":"15.4488357,24.004738","title":"Shegeg Karo"}},{"type":"Feature","geometry":{"type":"Point","coordinates":[25.189000000002,13.059999999998]},"properties":{"address":"13.06,25.189","placename":"13.06,25.189","title":"Shangil Tobay Camp"}},{"type":"Feature","geometry":{"type":"Point","coordinates":[26.538000000001,15.005000000001]},"properties":{"address":"15.005,26.538","placename":"15.005,26.538","title":"Shakhakha"}},{"type":"Feature","geometry":{"type":"Point","coordinates":[26.481000000003,12.064000000003]},"properties":{"address":"12.064,26.481","placename":"12.064,26.481","title":"Shak-Elkhadir"}},{"type":"Feature","geometry":{"type":"Point","coordinates":[25.233133300002,13.650543300001]},"properties":{"address":"13.6505433,25.2331333","placename":"13.6505433,25.2331333","title":"Shagra Area"}},{"type":"Feature","geometry":{"type":"Point","coordinates":[26.412000000001,15.474999999998]},"properties":{"address":"15.475,26.412","placename":"15.475,26.412","title":"Sereif"}},{"type":"Feature","geometry":{"type":"Point","coordinates":[25.752999999998,14.313000000001]},"properties":{"address":"14.313,25.753","placename":"14.313,25.753","title":"Sayeh"}},{"type":"Feature","geometry":{"type":"Point","coordinates":[25.050297800001,13.693080600002]},"properties":{"address":"13.6930806,25.0502978","placename":"13.6930806,25.0502978","title":"Sarfaya Area"}},{"type":"Feature","geometry":{"type":"Point","coordinates":[23.312000000002,13.477000000003]},"properties":{"address":"13.477,23.312","placename":"13.477,23.312","title":"Saraf Omra"}},{"type":"Feature","geometry":{"type":"Point","coordinates":[25.604,14.598999999998]},"properties":{"address":"14.599,25.604","placename":"14.599,25.604","title":"Sani Haye"}},{"type":"Feature","geometry":{"type":"Point","coordinates":[23.772279999999,13.588670000003]},"properties":{"address":"13.58867,23.77228","placename":"13.58867,23.77228","title":"Sangir (Sangir, Jebel-Moos, Tege)"}},{"type":"Feature","geometry":{"type":"Point","coordinates":[25.626649999996,13.373183299997]},"properties":{"address":"13.3731833,25.62665","placename":"13.3731833,25.62665","title":"Sag El Naam"}},{"type":"Feature","geometry":{"type":"Point","coordinates":[23.8909,14.848295799998]},"properties":{"address":"14.8482958,23.8909","placename":"14.8482958,23.8909","title":"Orschi (inclues Ana Bagi)"}},{"type":"Feature","geometry":{"type":"Point","coordinates":[24.247000000004,15.066999999996]},"properties":{"address":"15.067,24.247","placename":"15.067,24.247","title":"Oriri"}},{"type":"Feature","geometry":{"type":"Point","coordinates":[24.864,14.762999999999]},"properties":{"address":"14.763,24.864","placename":"14.763,24.864","title":"Onyo"}},{"type":"Feature","geometry":{"type":"Point","coordinates":[24.039999999997,13.452000000004]},"properties":{"address":"13.452,24.04","placename":"13.452,24.04","title":"Nomo"}},{"type":"Feature","geometry":{"type":"Point","coordinates":[24.901999999999,13.462999999999]},"properties":{"address":"13.463,24.902","placename":"13.463,24.902","title":"Nina"}},{"type":"Feature","geometry":{"type":"Point","coordinates":[24.228999999998,15.259000000004]},"properties":{"address":"15.259,24.229","placename":"15.259,24.229","title":"Muzbat"}},{"type":"Feature","geometry":{"type":"Point","coordinates":[23.650000000001,15.167]},"properties":{"address":"15.167,23.65","placename":"15.167,23.65","title":"Mustariha"}},{"type":"Feature","geometry":{"type":"Point","coordinates":[24.915999999998,10.650000000002]},"properties":{"address":"10.65,24.916","placename":"10.65,24.916","title":"Mulam Elhush"}},{"type":"Feature","geometry":{"type":"Point","coordinates":[25.736999999996,14.555999999999]},"properties":{"address":"14.556,25.737","placename":"14.556,25.737","title":"Mou"}},{"type":"Feature","geometry":{"type":"Point","coordinates":[24.218999999997,14.851999999997]},"properties":{"address":"14.852,24.219","placename":"14.852,24.219","title":"Miski"}},{"type":"Feature","geometry":{"type":"Point","coordinates":[25.549999999999,14.139999999999]},"properties":{"address":"14.14,25.55","placename":"14.14,25.55","title":"Mellit town- Residents"}},{"type":"Feature","geometry":{"type":"Point","coordinates":[23.832230600001,13.550349999999]},"properties":{"address":"13.55035,23.8322306","placename":"13.55035,23.8322306","title":"Mastriha (Mastriha, Mithieb)"}},{"type":"Feature","geometry":{"type":"Point","coordinates":[24.629316299996,14.099970799996]},"properties":{"address":"14.0999708,24.6293163","placename":"14.0999708,24.6293163","title":"Masri (incl Dawa\/Beliga)"}},{"type":"Feature","geometry":{"type":"Point","coordinates":[26.333999999999,14.969]},"properties":{"address":"14.969,26.334","placename":"14.969,26.334","title":"Marsous"}},{"type":"Feature","geometry":{"type":"Point","coordinates":[26.577000000002,14.817999999999]},"properties":{"address":"14.818,26.577","placename":"14.818,26.577","title":"Marega"}},{"type":"Feature","geometry":{"type":"Point","coordinates":[26.1529557,15.082504199999]},"properties":{"address":"15.0825042,26.1529557","placename":"15.0825042,26.1529557","title":"Malha Town"}},{"type":"Feature","geometry":{"type":"Point","coordinates":[24.624999999997,14.456999999999]},"properties":{"address":"14.457,24.625","placename":"14.457,24.625","title":"Malagat"}},{"type":"Feature","geometry":{"type":"Point","coordinates":[26.040000000001,14.605]},"properties":{"address":"14.605,26.04","placename":"14.605,26.04","title":"Mado Shamal"}},{"type":"Feature","geometry":{"type":"Point","coordinates":[25.118999999998,13.686000000001]},"properties":{"address":"13.686,25.119","placename":"13.686,25.119","title":"Mado Jenub"}},{"type":"Feature","geometry":{"type":"Point","coordinates":[24.067000000003,15.032999999997]},"properties":{"address":"15.033,24.067","placename":"15.033,24.067","title":"Lil"}},{"type":"Feature","geometry":{"type":"Point","coordinates":[26.969000000002,11.891000000004]},"properties":{"address":"11.891,26.969","placename":"11.891,26.969","title":"Likeliki"}},{"type":"Feature","geometry":{"type":"Point","coordinates":[24.966000000001,14.084999999999]},"properties":{"address":"14.085,24.966","placename":"14.085,24.966","title":"Lemena"}},{"type":"Feature","geometry":{"type":"Point","coordinates":[24.649999999998,14.205999999998]},"properties":{"address":"14.206,24.65","placename":"14.206,24.65","title":"Kutum Town"}},{"type":"Feature","geometry":{"type":"Point","coordinates":[24.224694000001,14.622543999996]},"properties":{"address":"14.622544,24.224694","placename":"14.622544,24.224694","title":"Kurbia (includes Um Mahareik)"}},{"type":"Feature","geometry":{"type":"Point","coordinates":[24.893628500001,13.506832400003]},"properties":{"address":"13.5068324,24.8936285","placename":"13.5068324,24.8936285","title":"Kunjarra"}},{"type":"Feature","geometry":{"type":"Point","coordinates":[24.910139799998,13.949317199997]},"properties":{"address":"13.9493172,24.9101398","placename":"13.9493172,24.9101398","title":"Kuma"}},{"type":"Feature","geometry":{"type":"Point","coordinates":[25.229999999997,14.149000000003]},"properties":{"address":"14.149,25.23","placename":"14.149,25.23","title":"Kul Kul"}},{"type":"Feature","geometry":{"type":"Point","coordinates":[26.008999999998,14.402999999996]},"properties":{"address":"14.403,26.009","placename":"14.403,26.009","title":"Koskorie"}},{"type":"Feature","geometry":{"type":"Point","coordinates":[24.754756000002,13.852330999997]},"properties":{"address":"13.852331,24.754756","placename":"13.852331,24.754756","title":"Korma"}},{"type":"Feature","geometry":{"type":"Point","coordinates":[24.729000000001,14.152999999996]},"properties":{"address":"14.153,24.729","placename":"14.153,24.729","title":"Korgay"}},{"type":"Feature","geometry":{"type":"Point","coordinates":[24.94434722,13.380219439998]},"properties":{"address":"13.38021944,24.94434722","placename":"13.38021944,24.94434722","title":"Khartoum-Jadid"}},{"type":"Feature","geometry":{"type":"Point","coordinates":[25.699999999999,14.454999999997]},"properties":{"address":"14.455,25.7","placename":"14.455,25.7","title":"Kedrin"}},{"type":"Feature","geometry":{"type":"Point","coordinates":[24.654999999999,14.234000000002]},"properties":{"address":"14.234,24.655","placename":"14.234,24.655","title":"Kassab Camp"}},{"type":"Feature","geometry":{"type":"Point","coordinates":[23.432538889997,15.027497219997]},"properties":{"address":"15.02749722,23.43253889","placename":"15.02749722,23.43253889","title":"Kamo"}},{"type":"Feature","geometry":{"type":"Point","coordinates":[25.939503999999,12.953467999997]},"properties":{"address":"12.953468,25.939504","placename":"12.953468,25.939504","title":"Kalamindo"}},{"type":"Feature","geometry":{"type":"Point","coordinates":[23.809330600003,13.430338899996]},"properties":{"address":"13.4303389,23.8093306","placename":"13.4303389,23.8093306","title":"Kala"}},{"type":"Feature","geometry":{"type":"Point","coordinates":[24.952694499999,14.012738899998]},"properties":{"address":"14.0127389,24.9526945","placename":"14.0127389,24.9526945","title":"Kafot"}},{"type":"Feature","geometry":{"type":"Point","coordinates":[23.79180552,14.026999930004]},"properties":{"address":"14.02699993,23.79180552","placename":"14.02699993,23.79180552","title":"Kabkabeiya Town"}},{"type":"Feature","geometry":{"type":"Point","coordinates":[23.415975,14.922258329998]},"properties":{"address":"14.92225833,23.415975","placename":"14.92225833,23.415975","title":"Jurageem"}},{"type":"Feature","geometry":{"type":"Point","coordinates":[24.067000000003,15.299999999996]},"properties":{"address":"15.3,24.067","placename":"15.3,24.067","title":"Juktora"}},{"type":"Feature","geometry":{"type":"Point","coordinates":[23.323938999997,14.979530999999]},"properties":{"address":"14.979531,23.323939","placename":"14.979531,23.323939","title":"Jourbokay"}},{"type":"Feature","geometry":{"type":"Point","coordinates":[25.38533517,13.559698059998]},"properties":{"address":"13.55969806,25.38533517","placename":"13.55969806,25.38533517","title":"Jougojougo Area"}},{"type":"Feature","geometry":{"type":"Point","coordinates":[26.052999999999,15.390999999996]},"properties":{"address":"15.391,26.053","placename":"15.391,26.053","title":"Jebel Eisa"}},{"type":"Feature","geometry":{"type":"Point","coordinates":[25.523966670001,13.150900000004]},"properties":{"address":"13.1509,25.52396667","placename":"13.1509,25.52396667","title":"Jauwr"}},{"type":"Feature","geometry":{"type":"Point","coordinates":[24.759000000003,14.134000000004]},"properties":{"address":"14.134,24.759","placename":"14.134,24.759","title":"Jamboli"}},{"type":"Feature","geometry":{"type":"Point","coordinates":[24.666000000001,13.897999999996]},"properties":{"address":"13.898,24.666","placename":"13.898,24.666","title":"Jabir"}},{"type":"Feature","geometry":{"type":"Point","coordinates":[25.638,14.155999999999]},"properties":{"address":"14.156,25.638","placename":"14.156,25.638","title":"Hillat Kharif"}},{"type":"Feature","geometry":{"type":"Point","coordinates":[25.450000000002,14.788000000001]},"properties":{"address":"14.788,25.45","placename":"14.788,25.45","title":"Hilif Shamal"}},{"type":"Feature","geometry":{"type":"Point","coordinates":[25.388999999996,14.733]},"properties":{"address":"14.733,25.389","placename":"14.733,25.389","title":"Hilif Saniya"}},{"type":"Feature","geometry":{"type":"Point","coordinates":[25.388999999996,14.733]},"properties":{"address":"14.733,25.389","placename":"14.733,25.389","title":"Hilif Jenub"}},{"type":"Feature","geometry":{"type":"Point","coordinates":[23.166,14.938999999999]},"properties":{"address":"14.939,23.166","placename":"14.939,23.166","title":"Hilaliya"}},{"type":"Feature","geometry":{"type":"Point","coordinates":[26.632999999998,11.959000000004]},"properties":{"address":"11.959,26.633","placename":"11.959,26.633","title":"Haskanita"}},{"type":"Feature","geometry":{"type":"Point","coordinates":[25.141000000003,14.278]},"properties":{"address":"14.278,25.141","placename":"14.278,25.141","title":"Hashaba South"}},{"type":"Feature","geometry":{"type":"Point","coordinates":[24.981000000002,14.438]},"properties":{"address":"14.438,24.981","placename":"14.438,24.981","title":"Hashaba North"}},{"type":"Feature","geometry":{"type":"Point","coordinates":[25.079999999997,14.387999999998]},"properties":{"address":"14.388,25.08","placename":"14.388,25.08","title":"Hashaba Center"}},{"type":"Feature","geometry":{"type":"Point","coordinates":[25.399999999999,14.149000000003]},"properties":{"address":"14.149,25.4","placename":"14.149,25.4","title":"Hashaba Baraka"}},{"type":"Feature","geometry":{"type":"Point","coordinates":[24.133333330001,13.649999999998]},"properties":{"address":"13.65,24.13333333","placename":"13.65,24.13333333","title":"Harra"}},{"type":"Feature","geometry":{"type":"Point","coordinates":[23.952999999997,14.200999999998]},"properties":{"address":"14.201,23.953","placename":"14.201,23.953","title":"Hareiga"}},{"type":"Feature","geometry":{"type":"Point","coordinates":[23.916000000001,15.145000000004]},"properties":{"address":"15.145,23.916","placename":"15.145,23.916","title":"Gurbura"}},{"type":"Feature","geometry":{"type":"Point","coordinates":[25.914000000001,14.182]},"properties":{"address":"14.182,25.914","placename":"14.182,25.914","title":"Goz Laben"}},{"type":"Feature","geometry":{"type":"Point","coordinates":[25.264950000004,13.311849999999]},"properties":{"address":"13.31185,25.26495","placename":"13.31185,25.26495","title":"Gos Diges"}},{"type":"Feature","geometry":{"type":"Point","coordinates":[25.4628,13.416688899999]},"properties":{"address":"13.4166889,25.4628","placename":"13.4166889,25.4628","title":"Gos Beina"}},{"type":"Feature","geometry":{"type":"Point","coordinates":[24.762,14.220000000003]},"properties":{"address":"14.22,24.762","placename":"14.22,24.762","title":"Goba"}},{"type":"Feature","geometry":{"type":"Point","coordinates":[25.437983332997,13.257316667002]},"properties":{"address":"13.257316667,25.437983333","placename":"13.257316667,25.437983333","title":"Gerwit Beshim"}},{"type":"Feature","geometry":{"type":"Point","coordinates":[23.8784021,13.622436900001]},"properties":{"address":"13.6224369,23.8784021","placename":"13.6224369,23.8784021","title":"Gergo (Gergo, Sabrna, Sanabiel)"}},{"type":"Feature","geometry":{"type":"Point","coordinates":[23.24307778,15.154827779997]},"properties":{"address":"15.15482778,23.24307778","placename":"15.15482778,23.24307778","title":"Gasimba"}},{"type":"Feature","geometry":{"type":"Point","coordinates":[25.349999999996,13.592000000004]},"properties":{"address":"13.592,25.35","placename":"13.592,25.35","title":"Garni Area"}},{"type":"Feature","geometry":{"type":"Point","coordinates":[23.865327800004,13.759850000001]},"properties":{"address":"13.75985,23.8653278","placename":"13.75985,23.8653278","title":"Gara-Zawia"}},{"type":"Feature","geometry":{"type":"Point","coordinates":[23.874176999996,13.736964999997]},"properties":{"address":"13.736965,23.874177","placename":"13.736965,23.874177","title":"Gara-Ferjawia"}},{"type":"Feature","geometry":{"type":"Point","coordinates":[23.619999999999,15.542999999996]},"properties":{"address":"15.543,23.62","placename":"15.543,23.62","title":"Furawiya"}},{"type":"Feature","geometry":{"type":"Point","coordinates":[24.009999999996,14.800000000002]},"properties":{"address":"14.8,24.01","placename":"14.8,24.01","title":"Frog"}},{"type":"Feature","geometry":{"type":"Point","coordinates":[25.512,13.969999999999]},"properties":{"address":"13.97,25.512","placename":"13.97,25.512","title":"Fazi Dor"}},{"type":"Feature","geometry":{"type":"Point","coordinates":[24.561000000004,14.151999999996]},"properties":{"address":"14.152,24.561","placename":"14.152,24.561","title":"Fata Borno"}},{"type":"Feature","geometry":{"type":"Point","coordinates":[23.903959800001,13.441552899997]},"properties":{"address":"13.4415529,23.9039598","placename":"13.4415529,23.9039598","title":"Fago"}},{"type":"Feature","geometry":{"type":"Point","coordinates":[26.862836099998,12.2081972]},"properties":{"address":"12.2081972,26.8628361","placename":"12.2081972,26.8628361","title":"Eyal Amin"}},{"type":"Feature","geometry":{"type":"Point","coordinates":[24.562145000004,14.235844999996]},"properties":{"address":"14.235845,24.562145","placename":"14.235845,24.562145","title":"ElSheikh A\/AlBagi"}},{"type":"Feature","geometry":{"type":"Point","coordinates":[23.419999999996,13.988511399999]},"properties":{"address":"13.9885114,23.42","placename":"13.9885114,23.42","title":"El-Serief IDPs"}},{"type":"Feature","geometry":{"type":"Point","coordinates":[23.379334799996,13.988800499997]},"properties":{"address":"13.9888005,23.3793348","placename":"13.9888005,23.3793348","title":"El Sereif Bn Hussein"}},{"type":"Feature","geometry":{"type":"Point","coordinates":[25.369999999997,13.672000000001]},"properties":{"address":"13.672,25.37","placename":"13.672,25.37","title":"El Salam Camp"}},{"type":"Feature","geometry":{"type":"Point","coordinates":[26.968,15.168]},"properties":{"address":"15.168,26.968","placename":"15.168,26.968","title":"El Hatan"}},{"type":"Feature","geometry":{"type":"Point","coordinates":[26.248000000001,15.587999999999]},"properties":{"address":"15.588,26.248","placename":"15.588,26.248","title":"El Hara"}},{"type":"Feature","geometry":{"type":"Point","coordinates":[26.733999999997,14.885]},"properties":{"address":"14.885,26.734","placename":"14.885,26.734","title":"El Fula"}},{"type":"Feature","geometry":{"type":"Point","coordinates":[25.355999999998,13.626000000004]},"properties":{"address":"13.626,25.356","placename":"13.626,25.356","title":"El Fasher Town IDPs"}},{"type":"Feature","geometry":{"type":"Point","coordinates":[24.490999999999,14.572000000003]},"properties":{"address":"14.572,24.491","placename":"14.572,24.491","title":"El Dur"}},{"type":"Feature","geometry":{"type":"Point","coordinates":[26.773999999999,15.393000000004]},"properties":{"address":"15.393,26.774","placename":"15.393,26.774","title":"Ein Bessaro"}},{"type":"Feature","geometry":{"type":"Point","coordinates":[23.236549999996,14.736227780001]},"properties":{"address":"14.73622778,23.23655","placename":"14.73622778,23.23655","title":"Eid Elkhair"}},{"type":"Feature","geometry":{"type":"Point","coordinates":[25.719654700002,13.113250200001]},"properties":{"address":"13.1132502,25.7196547","placename":"13.1132502,25.7196547","title":"Ed Al Bideda"}},{"type":"Feature","geometry":{"type":"Point","coordinates":[24.866999999997,14.079999999997]},"properties":{"address":"14.08,24.867","placename":"14.08,24.867","title":"Durum"}},{"type":"Feature","geometry":{"type":"Point","coordinates":[25.159333299998,13.295138899999]},"properties":{"address":"13.2951389,25.1593333","placename":"13.2951389,25.1593333","title":"Demsilik"}},{"type":"Feature","geometry":{"type":"Point","coordinates":[24.292619999996,14.352960000004]},"properties":{"address":"14.35296,24.29262","placename":"14.35296,24.29262","title":"Deliba"}},{"type":"Feature","geometry":{"type":"Point","coordinates":[25.853999999997,14.522000000003]},"properties":{"address":"14.522,25.854","placename":"14.522,25.854","title":"Dekelik"}},{"type":"Feature","geometry":{"type":"Point","coordinates":[24.585000000003,14.607000000004]},"properties":{"address":"14.607,24.585","placename":"14.607,24.585","title":"Deesa"}},{"type":"Feature","geometry":{"type":"Point","coordinates":[24.508850000002,14.055419999999]},"properties":{"address":"14.05542,24.50885","placename":"14.05542,24.50885","title":"Dawa"}},{"type":"Feature","geometry":{"type":"Point","coordinates":[25.522114000001,13.056532999999]},"properties":{"address":"13.056533,25.522114","placename":"13.056533,25.522114","title":"Dar Elsalam Town"}},{"type":"Feature","geometry":{"type":"Point","coordinates":[25.407416660002,13.291066670001]},"properties":{"address":"13.29106667,25.40741666","placename":"13.29106667,25.40741666","title":"Dar El Neeim"}},{"type":"Feature","geometry":{"type":"Point","coordinates":[26.524000000002,15.521000000003]},"properties":{"address":"15.521,26.524","placename":"15.521,26.524","title":"Dar Deifa"}},{"type":"Feature","geometry":{"type":"Point","coordinates":[26.668,11.849999999997]},"properties":{"address":"11.85,26.668","placename":"11.85,26.668","title":"Dalil Babiker"}},{"type":"Feature","geometry":{"type":"Point","coordinates":[24.914999999996,13.452999999998]},"properties":{"address":"13.453,24.915","placename":"13.453,24.915","title":"Dali Camp"}},{"type":"Feature","geometry":{"type":"Point","coordinates":[25.363000000002,14.196999999997]},"properties":{"address":"14.197,25.363","placename":"14.197,25.363","title":"Daba Toga"}},{"type":"Feature","geometry":{"type":"Point","coordinates":[23.457000000002,15.414000000004]},"properties":{"address":"15.414,23.457","placename":"15.414,23.457","title":"Boba"}},{"type":"Feature","geometry":{"type":"Point","coordinates":[24.596999999999,14.665000000004]},"properties":{"address":"14.665,24.597","placename":"14.665,24.597","title":"Birmaza"}},{"type":"Feature","geometry":{"type":"Point","coordinates":[25.004,13.722000000003]},"properties":{"address":"13.722,25.004","placename":"13.722,25.004","title":"Birka Saira (Nimra)"}},{"type":"Feature","geometry":{"type":"Point","coordinates":[24.735000000003,14.713000000003]},"properties":{"address":"14.713,24.735","placename":"14.713,24.735","title":"Beridik"}},{"type":"Feature","geometry":{"type":"Point","coordinates":[24.740999999997,14.569999999999]},"properties":{"address":"14.57,24.741","placename":"14.57,24.741","title":"Bere"}},{"type":"Feature","geometry":{"type":"Point","coordinates":[25.710277800004,14.111388899999]},"properties":{"address":"14.1113889,25.7102778","placename":"14.1113889,25.7102778","title":"Benama"}},{"type":"Feature","geometry":{"type":"Point","coordinates":[24.603000000001,14.656]},"properties":{"address":"14.656,24.603","placename":"14.656,24.603","title":"Bakuri"}},{"type":"Feature","geometry":{"type":"Point","coordinates":[25.195355500004,14.620536599998]},"properties":{"address":"14.6205366,25.1953555","placename":"14.6205366,25.1953555","title":"Ba'ashim\/Tima"}},{"type":"Feature","geometry":{"type":"Point","coordinates":[25.475000000003,14.025999999999]},"properties":{"address":"14.026,25.475","placename":"14.026,25.475","title":"Armadyat"}},{"type":"Feature","geometry":{"type":"Point","coordinates":[24.745999999997,14.202999999996]},"properties":{"address":"14.203,24.746","placename":"14.203,24.746","title":"Argala"}},{"type":"Feature","geometry":{"type":"Point","coordinates":[24.566000000004,14.512999999996]},"properties":{"address":"14.513,24.566","placename":"14.513,24.566","title":"Areida"}},{"type":"Feature","geometry":{"type":"Point","coordinates":[25.086052799998,13.267608299996]},"properties":{"address":"13.2676083,25.0860528","placename":"13.2676083,25.0860528","title":"Arasho"}},{"type":"Feature","geometry":{"type":"Point","coordinates":[24.850000000001,14.682000000001]},"properties":{"address":"14.682,24.85","placename":"14.682,24.85","title":"Anka"}},{"type":"Feature","geometry":{"type":"Point","coordinates":[24.433333330001,14.283333330004]},"properties":{"address":"14.28333333,24.43333333","placename":"14.28333333,24.43333333","title":"Amow"}},{"type":"Feature","geometry":{"type":"Point","coordinates":[24.879000000001,14.053000000003]},"properties":{"address":"14.053,24.879","placename":"14.053,24.879","title":"Amar Jedid"}},{"type":"Feature","geometry":{"type":"Point","coordinates":[26.733173299997,11.966880400002]},"properties":{"address":"11.9668804,26.7331733","placename":"11.9668804,26.7331733","title":"Al Saat"}},{"type":"Feature","geometry":{"type":"Point","coordinates":[26.501000000004,12.014999999996]},"properties":{"address":"12.015,26.501","placename":"12.015,26.501","title":"Al Khamsat"}},{"type":"Feature","geometry":{"type":"Point","coordinates":[25.447453999998,13.529880999999]},"properties":{"address":"13.529881,25.447454","placename":"13.529881,25.447454","title":"Abudwiel"}},{"type":"Feature","geometry":{"type":"Point","coordinates":[25.344000000002,13.665999999999]},"properties":{"address":"13.666,25.344","placename":"13.666,25.344","title":"Abu Shouk Camp"}},{"type":"Feature","geometry":{"type":"Point","coordinates":[25.615000000003,14.571]},"properties":{"address":"14.571,25.615","placename":"14.571,25.615","title":"Abu Noshab"}},{"type":"Feature","geometry":{"type":"Point","coordinates":[23.832866669997,14.669577779998]},"properties":{"address":"14.66957778,23.83286667","placename":"14.66957778,23.83286667","title":"Abu Liha"}},{"type":"Feature","geometry":{"type":"Point","coordinates":[25.812222219998,14.084999999999]},"properties":{"address":"14.085,25.81222222","placename":"14.085,25.81222222","title":"Abu Geira"}},{"type":"Feature","geometry":{"type":"Point","coordinates":[23.411999999999,14.331]},"properties":{"address":"14.331,23.412","placename":"14.331,23.412","title":"Abu Gamera"}},{"type":"Feature","geometry":{"type":"Point","coordinates":[25.640110000004,13.2984104]},"properties":{"address":"13.2984104,25.64011","placename":"13.2984104,25.64011","title":"Abu Delek"}},{"type":"Feature","geometry":{"type":"Point","coordinates":[24.596999999999,14.412000000004]},"properties":{"address":"14.412,24.597","placename":"14.412,24.597","title":"Abdul Shakour"}},{"type":"Feature","geometry":{"type":"Point","coordinates":[22.965999999997,11.138999999996]},"properties":{"address":"11.139,22.966","placename":"11.139,22.966","title":"Um Dukhun"}},{"type":"Feature","geometry":{"type":"Point","coordinates":[23.479999999999,12.909999999997]},"properties":{"address":"12.91,23.48","placename":"12.91,23.48","title":"Taiba"}},{"type":"Feature","geometry":{"type":"Point","coordinates":[26.983000000001,11.733999999997]},"properties":{"address":"11.734,26.983","placename":"11.734,26.983","title":"Shabab"}},{"type":"Feature","geometry":{"type":"Point","coordinates":[23.479999999999,12.909999999997]},"properties":{"address":"12.91,23.48","placename":"12.91,23.48","title":"HasaHisa"}},{"type":"Feature","geometry":{"type":"Point","coordinates":[23.482999999996,12.916999999997]},"properties":{"address":"12.917,23.483","placename":"12.917,23.483","title":"Hamidiya"}},{"type":"Feature","geometry":{"type":"Point","coordinates":[23.137543699999,12.372530800004]},"properties":{"address":"12.3725308,23.1375437","placename":"12.3725308,23.1375437","title":"Garsila"}},{"type":"Feature","geometry":{"type":"Point","coordinates":[22.589600000002,12.125116700003]},"properties":{"address":"12.1251167,22.5896","placename":"12.1251167,22.5896","title":"Furubaranga"}},{"type":"Feature","geometry":{"type":"Point","coordinates":[25.140263900004,11.275427799996]},"properties":{"address":"11.2754278,25.1402639","placename":"11.2754278,25.1402639","title":"Gerida"}},{"type":"Feature","geometry":{"type":"Point","coordinates":[26.149999999999,11.430000000001]},"properties":{"address":"11.43,26.15","placename":"11.43,26.15","title":"Ed Daein"}},{"type":"Feature","geometry":{"type":"Point","coordinates":[24.649877200002,14.206471100001]},"properties":{"address":"14.2064711,24.6498772","placename":"14.2064711,24.6498772","title":"Kutum"}},{"type":"Feature","geometry":{"type":"Point","coordinates":[24.100862920702,13.668104867901]},"properties":{"address":"13.6681048679,24.1008629207","placename":"13.6681048679,24.1008629207","title":"Kabkabiya"}},{"type":"Feature","geometry":{"type":"Point","coordinates":[23.481063899997,12.899989100003]},"properties":{"address":"12.8999891,23.4810639","placename":"12.8999891,23.4810639","title":"Zalingie"}},{"type":"Feature","geometry":{"type":"Point","coordinates":[23.283157999997,11.950009599999]},"properties":{"address":"11.9500096,23.283158","placename":"11.9500096,23.283158","title":"Mukjar"}},{"type":"Feature","geometry":{"type":"Point","coordinates":[22.866927999996,12.954246800004]},"properties":{"address":"12.9542468,22.866928","placename":"12.9542468,22.866928","title":"Mornie"}},{"type":"Feature","geometry":{"type":"Point","coordinates":[22.561933300002,12.680049999996]},"properties":{"address":"12.68005,22.5619333","placename":"12.68005,22.5619333","title":"Habila"}},{"type":"Feature","geometry":{"type":"Point","coordinates":[34.289530000003,10.559020000003]},"properties":{"address":"10.55902,34.28953","placename":"10.55902,34.28953","title":"Kurmuk"}},{"type":"Feature","geometry":{"type":"Point","coordinates":[29.729401,11.014238000001]},"properties":{"address":"11.014238,29.729401","placename":"11.014238,29.729401","title":"Kadugli"}},{"type":"Feature","geometry":{"type":"Point","coordinates":[36.410499999996,15.429600000002]},"properties":{"address":"15.4296,36.4105","placename":"15.4296,36.4105","title":"Kassala"}},{"type":"Feature","geometry":{"type":"Point","coordinates":[34.3598639726,11.789792264303]},"properties":{"address":"11.7897922643,34.3598639726","placename":"11.7897922643,34.3598639726","title":"Ed Damazin"}},{"type":"Feature","geometry":{"type":"Point","coordinates":[30.244893972597,13.1676489143]},"properties":{"address":"13.1676489143,30.2448939726","placename":"13.1676489143,30.2448939726","title":"El Obeid"}},{"type":"Feature","geometry":{"type":"Point","coordinates":[35.386619999999,14.039673999999]},"properties":{"address":"14.039674,35.386620","placename":"14.039674,35.38662","title":"Sorghum Local - Gedaref"}},{"type":"Feature","geometry":{"type":"Point","coordinates":[24.890582800002,12.055573000002]},"properties":{"address":"12.055573,24.8905828","placename":"12.055573,24.8905828","title":"Nyala"}},{"type":"Feature","geometry":{"type":"Point","coordinates":[25.355938699996,13.626394100001]},"properties":{"address":"13.6263941,25.3559387","placename":"13.6263941,25.3559387","title":"El Fasher"}},{"type":"Feature","geometry":{"type":"Point","coordinates":[22.445403999997,13.441266400003]},"properties":{"address":"13.4412664,22.445404","placename":"13.4412664,22.445404","title":"Sorghum Local - El Geniena"}},{"type":"Feature","geometry":{"type":"Point","coordinates":[24.890582800002,12.055573000002]},"properties":{"address":"12.055573,24.8905828","placename":"12.055573,24.8905828","title":"Nyala"}},{"type":"Feature","geometry":{"type":"Point","coordinates":[25.355938699996,13.626394100001]},"properties":{"address":"13.6263941,25.3559387","placename":"13.6263941,25.3559387","title":"El Fasher"}},{"type":"Feature","geometry":{"type":"Point","coordinates":[22.445403999997,13.441266400003]},"properties":{"address":"13.4412664,22.445404","placename":"13.4412664,22.445404","title":"El Geniena"}},{"type":"Feature","geometry":{"type":"Point","coordinates":[30.244893972597,13.1676489143]},"properties":{"address":"13.1676489143,30.2448939726","placename":"13.1676489143,30.2448939726","title":"El Obeid"}},{"type":"Feature","geometry":{"type":"Point","coordinates":[32.536399999998,15.572499999996]},"properties":{"address":"15.5725,32.5364","placename":"15.5725,32.5364","title":"Khartoum"}},{"type":"Feature","geometry":{"type":"Point","coordinates":[37.215200000001,19.589600000003]},"properties":{"address":"19.5896,37.2152","placename":"19.5896,37.2152","title":"Port Sudan"}},{"type":"Feature","geometry":{"type":"Point","coordinates":[-95.712890999999,37.090240000003]},"properties":{"address":"USA","placename":"United States","title":"Sorghum - Food Aid"}},{"type":"Feature","geometry":{"type":"LineString","coordinates":[[-95.712890999999,37.090240000003],[37.215200000001,19.589600000003]]},"properties":[]},{"type":"Feature","geometry":{"type":"LineString","coordinates":[[37.215200000001,19.589600000003],[32.536399999998,15.572499999996]]},"properties":[]},{"type":"Feature","geometry":{"type":"LineString","coordinates":[[32.536399999998,15.572499999996],[30.244893972597,13.1676489143]]},"properties":[]},{"type":"Feature","geometry":{"type":"LineString","coordinates":[[30.244893972597,13.1676489143],[22.445403999997,13.441266400003]]},"properties":[]},{"type":"Feature","geometry":{"type":"LineString","coordinates":[[30.244893972597,13.1676489143],[25.355938699996,13.626394100001]]},"properties":[]},{"type":"Feature","geometry":{"type":"LineString","coordinates":[[30.244893972597,13.1676489143],[24.890582800002,12.055573000002]]},"properties":[]},{"type":"Feature","geometry":{"type":"LineString","coordinates":[[22.445403999997,13.441266400003],[25.355938699996,13.626394100001]]},"properties":[]},{"type":"Feature","geometry":{"type":"LineString","coordinates":[[22.445403999997,13.441266400003],[24.890582800002,12.055573000002]]},"properties":[]},{"type":"Feature","geometry":{"type":"LineString","coordinates":[[35.386619999999,14.039673999999],[30.244893972597,13.1676489143]]},"properties":[]},{"type":"Feature","geometry":{"type":"LineString","coordinates":[[30.244893972597,13.1676489143],[34.3598639726,11.789792264303]]},"properties":[]},{"type":"Feature","geometry":{"type":"LineString","coordinates":[[30.244893972597,13.1676489143],[36.410499999996,15.429600000002]]},"properties":[]},{"type":"Feature","geometry":{"type":"LineString","coordinates":[[30.244893972597,13.1676489143],[29.729401,11.014238000001]]},"properties":[]},{"type":"Feature","geometry":{"type":"LineString","coordinates":[[30.244893972597,13.1676489143],[34.289530000003,10.559020000003]]},"properties":[]},{"type":"Feature","geometry":{"type":"LineString","coordinates":[[30.244893972597,13.1676489143],[22.561933300002,12.680049999996]]},"properties":[]},{"type":"Feature","geometry":{"type":"LineString","coordinates":[[30.244893972597,13.1676489143],[22.866927999996,12.954246800004]]},"properties":[]},{"type":"Feature","geometry":{"type":"LineString","coordinates":[[30.244893972597,13.1676489143],[23.283157999997,11.950009599999]]},"properties":[]},{"type":"Feature","geometry":{"type":"LineString","coordinates":[[30.244893972597,13.1676489143],[23.481063899997,12.899989100003]]},"properties":[]},{"type":"Feature","geometry":{"type":"LineString","coordinates":[[30.244893972597,13.1676489143],[24.100862920702,13.668104867901]]},"properties":[]},{"type":"Feature","geometry":{"type":"LineString","coordinates":[[30.244893972597,13.1676489143],[24.649877200002,14.206471100001]]},"properties":[]},{"type":"Feature","geometry":{"type":"LineString","coordinates":[[30.244893972597,13.1676489143],[26.149999999999,11.430000000001]]},"properties":[]},{"type":"Feature","geometry":{"type":"LineString","coordinates":[[30.244893972597,13.1676489143],[25.140263900004,11.275427799996]]},"properties":[]},{"type":"Feature","geometry":{"type":"LineString","coordinates":[[30.244893972597,13.1676489143],[22.589600000002,12.125116700003]]},"properties":[]},{"type":"Feature","geometry":{"type":"LineString","coordinates":[[30.244893972597,13.1676489143],[23.137543699999,12.372530800004]]},"properties":[]},{"type":"Feature","geometry":{"type":"LineString","coordinates":[[30.244893972597,13.1676489143],[23.482999999996,12.916999999997]]},"properties":[]},{"type":"Feature","geometry":{"type":"LineString","coordinates":[[30.244893972597,13.1676489143],[23.479999999999,12.909999999997]]},"properties":[]},{"type":"Feature","geometry":{"type":"LineString","coordinates":[[30.244893972597,13.1676489143],[26.983000000001,11.733999999997]]},"properties":[]},{"type":"Feature","geometry":{"type":"LineString","coordinates":[[30.244893972597,13.1676489143],[23.479999999999,12.909999999997]]},"properties":[]},{"type":"Feature","geometry":{"type":"LineString","coordinates":[[30.244893972597,13.1676489143],[22.965999999997,11.138999999996]]},"properties":[]},{"type":"Feature","geometry":{"type":"LineString","coordinates":[[30.244893972597,13.1676489143],[24.596999999999,14.412000000004]]},"properties":[]},{"type":"Feature","geometry":{"type":"LineString","coordinates":[[30.244893972597,13.1676489143],[25.640110000004,13.2984104]]},"properties":[]},{"type":"Feature","geometry":{"type":"LineString","coordinates":[[30.244893972597,13.1676489143],[23.411999999999,14.331]]},"properties":[]},{"type":"Feature","geometry":{"type":"LineString","coordinates":[[30.244893972597,13.1676489143],[25.812222219998,14.084999999999]]},"properties":[]},{"type":"Feature","geometry":{"type":"LineString","coordinates":[[30.244893972597,13.1676489143],[23.832866669997,14.669577779998]]},"properties":[]},{"type":"Feature","geometry":{"type":"LineString","coordinates":[[30.244893972597,13.1676489143],[25.615000000003,14.571]]},"properties":[]},{"type":"Feature","geometry":{"type":"LineString","coordinates":[[30.244893972597,13.1676489143],[25.344000000002,13.665999999999]]},"properties":[]},{"type":"Feature","geometry":{"type":"LineString","coordinates":[[30.244893972597,13.1676489143],[25.447453999998,13.529880999999]]},"properties":[]},{"type":"Feature","geometry":{"type":"LineString","coordinates":[[30.244893972597,13.1676489143],[26.501000000004,12.014999999996]]},"properties":[]},{"type":"Feature","geometry":{"type":"LineString","coordinates":[[30.244893972597,13.1676489143],[26.733173299997,11.966880400002]]},"properties":[]},{"type":"Feature","geometry":{"type":"LineString","coordinates":[[30.244893972597,13.1676489143],[24.879000000001,14.053000000003]]},"properties":[]},{"type":"Feature","geometry":{"type":"LineString","coordinates":[[30.244893972597,13.1676489143],[24.433333330001,14.283333330004]]},"properties":[]},{"type":"Feature","geometry":{"type":"LineString","coordinates":[[30.244893972597,13.1676489143],[24.850000000001,14.682000000001]]},"properties":[]},{"type":"Feature","geometry":{"type":"LineString","coordinates":[[30.244893972597,13.1676489143],[25.086052799998,13.267608299996]]},"properties":[]},{"type":"Feature","geometry":{"type":"LineString","coordinates":[[30.244893972597,13.1676489143],[24.566000000004,14.512999999996]]},"properties":[]},{"type":"Feature","geometry":{"type":"LineString","coordinates":[[30.244893972597,13.1676489143],[24.745999999997,14.202999999996]]},"properties":[]},{"type":"Feature","geometry":{"type":"LineString","coordinates":[[30.244893972597,13.1676489143],[25.475000000003,14.025999999999]]},"properties":[]},{"type":"Feature","geometry":{"type":"LineString","coordinates":[[30.244893972597,13.1676489143],[25.195355500004,14.620536599998]]},"properties":[]},{"type":"Feature","geometry":{"type":"LineString","coordinates":[[30.244893972597,13.1676489143],[24.603000000001,14.656]]},"properties":[]},{"type":"Feature","geometry":{"type":"LineString","coordinates":[[30.244893972597,13.1676489143],[25.710277800004,14.111388899999]]},"properties":[]},{"type":"Feature","geometry":{"type":"LineString","coordinates":[[30.244893972597,13.1676489143],[24.740999999997,14.569999999999]]},"properties":[]},{"type":"Feature","geometry":{"type":"LineString","coordinates":[[30.244893972597,13.1676489143],[24.735000000003,14.713000000003]]},"properties":[]},{"type":"Feature","geometry":{"type":"LineString","coordinates":[[30.244893972597,13.1676489143],[25.004,13.722000000003]]},"properties":[]},{"type":"Feature","geometry":{"type":"LineString","coordinates":[[30.244893972597,13.1676489143],[24.596999999999,14.665000000004]]},"properties":[]},{"type":"Feature","geometry":{"type":"LineString","coordinates":[[30.244893972597,13.1676489143],[23.457000000002,15.414000000004]]},"properties":[]},{"type":"Feature","geometry":{"type":"LineString","coordinates":[[30.244893972597,13.1676489143],[25.363000000002,14.196999999997]]},"properties":[]},{"type":"Feature","geometry":{"type":"LineString","coordinates":[[30.244893972597,13.1676489143],[24.914999999996,13.452999999998]]},"properties":[]},{"type":"Feature","geometry":{"type":"LineString","coordinates":[[30.244893972597,13.1676489143],[26.668,11.849999999997]]},"properties":[]},{"type":"Feature","geometry":{"type":"LineString","coordinates":[[30.244893972597,13.1676489143],[26.524000000002,15.521000000003]]},"properties":[]},{"type":"Feature","geometry":{"type":"LineString","coordinates":[[30.244893972597,13.1676489143],[25.407416660002,13.291066670001]]},"properties":[]},{"type":"Feature","geometry":{"type":"LineString","coordinates":[[30.244893972597,13.1676489143],[25.522114000001,13.056532999999]]},"properties":[]},{"type":"Feature","geometry":{"type":"LineString","coordinates":[[30.244893972597,13.1676489143],[24.508850000002,14.055419999999]]},"properties":[]},{"type":"Feature","geometry":{"type":"LineString","coordinates":[[30.244893972597,13.1676489143],[24.585000000003,14.607000000004]]},"properties":[]},{"type":"Feature","geometry":{"type":"LineString","coordinates":[[30.244893972597,13.1676489143],[25.853999999997,14.522000000003]]},"properties":[]},{"type":"Feature","geometry":{"type":"LineString","coordinates":[[30.244893972597,13.1676489143],[24.292619999996,14.352960000004]]},"properties":[]},{"type":"Feature","geometry":{"type":"LineString","coordinates":[[30.244893972597,13.1676489143],[25.159333299998,13.295138899999]]},"properties":[]},{"type":"Feature","geometry":{"type":"LineString","coordinates":[[30.244893972597,13.1676489143],[24.866999999997,14.079999999997]]},"properties":[]},{"type":"Feature","geometry":{"type":"LineString","coordinates":[[30.244893972597,13.1676489143],[25.719654700002,13.113250200001]]},"properties":[]},{"type":"Feature","geometry":{"type":"LineString","coordinates":[[30.244893972597,13.1676489143],[23.236549999996,14.736227780001]]},"properties":[]},{"type":"Feature","geometry":{"type":"LineString","coordinates":[[30.244893972597,13.1676489143],[26.773999999999,15.393000000004]]},"properties":[]},{"type":"Feature","geometry":{"type":"LineString","coordinates":[[30.244893972597,13.1676489143],[24.490999999999,14.572000000003]]},"properties":[]},{"type":"Feature","geometry":{"type":"LineString","coordinates":[[30.244893972597,13.1676489143],[25.355999999998,13.626000000004]]},"properties":[]},{"type":"Feature","geometry":{"type":"LineString","coordinates":[[30.244893972597,13.1676489143],[26.733999999997,14.885]]},"properties":[]},{"type":"Feature","geometry":{"type":"LineString","coordinates":[[30.244893972597,13.1676489143],[26.248000000001,15.587999999999]]},"properties":[]},{"type":"Feature","geometry":{"type":"LineString","coordinates":[[30.244893972597,13.1676489143],[26.968,15.168]]},"properties":[]},{"type":"Feature","geometry":{"type":"LineString","coordinates":[[30.244893972597,13.1676489143],[25.369999999997,13.672000000001]]},"properties":[]},{"type":"Feature","geometry":{"type":"LineString","coordinates":[[30.244893972597,13.1676489143],[23.379334799996,13.988800499997]]},"properties":[]},{"type":"Feature","geometry":{"type":"LineString","coordinates":[[30.244893972597,13.1676489143],[23.419999999996,13.988511399999]]},"properties":[]},{"type":"Feature","geometry":{"type":"LineString","coordinates":[[30.244893972597,13.1676489143],[24.562145000004,14.235844999996]]},"properties":[]},{"type":"Feature","geometry":{"type":"LineString","coordinates":[[30.244893972597,13.1676489143],[26.862836099998,12.2081972]]},"properties":[]},{"type":"Feature","geometry":{"type":"LineString","coordinates":[[30.244893972597,13.1676489143],[23.903959800001,13.441552899997]]},"properties":[]},{"type":"Feature","geometry":{"type":"LineString","coordinates":[[30.244893972597,13.1676489143],[24.561000000004,14.151999999996]]},"properties":[]},{"type":"Feature","geometry":{"type":"LineString","coordinates":[[30.244893972597,13.1676489143],[25.512,13.969999999999]]},"properties":[]},{"type":"Feature","geometry":{"type":"LineString","coordinates":[[30.244893972597,13.1676489143],[24.009999999996,14.800000000002]]},"properties":[]},{"type":"Feature","geometry":{"type":"LineString","coordinates":[[30.244893972597,13.1676489143],[23.619999999999,15.542999999996]]},"properties":[]},{"type":"Feature","geometry":{"type":"LineString","coordinates":[[30.244893972597,13.1676489143],[23.874176999996,13.736964999997]]},"properties":[]},{"type":"Feature","geometry":{"type":"LineString","coordinates":[[30.244893972597,13.1676489143],[23.865327800004,13.759850000001]]},"properties":[]},{"type":"Feature","geometry":{"type":"LineString","coordinates":[[30.244893972597,13.1676489143],[25.349999999996,13.592000000004]]},"properties":[]},{"type":"Feature","geometry":{"type":"LineString","coordinates":[[30.244893972597,13.1676489143],[23.24307778,15.154827779997]]},"properties":[]},{"type":"Feature","geometry":{"type":"LineString","coordinates":[[30.244893972597,13.1676489143],[23.8784021,13.622436900001]]},"properties":[]},{"type":"Feature","geometry":{"type":"LineString","coordinates":[[30.244893972597,13.1676489143],[25.437983332997,13.257316667002]]},"properties":[]},{"type":"Feature","geometry":{"type":"LineString","coordinates":[[30.244893972597,13.1676489143],[24.762,14.220000000003]]},"properties":[]},{"type":"Feature","geometry":{"type":"LineString","coordinates":[[30.244893972597,13.1676489143],[25.4628,13.416688899999]]},"properties":[]},{"type":"Feature","geometry":{"type":"LineString","coordinates":[[30.244893972597,13.1676489143],[25.264950000004,13.311849999999]]},"properties":[]},{"type":"Feature","geometry":{"type":"LineString","coordinates":[[30.244893972597,13.1676489143],[25.914000000001,14.182]]},"properties":[]},{"type":"Feature","geometry":{"type":"LineString","coordinates":[[30.244893972597,13.1676489143],[23.916000000001,15.145000000004]]},"properties":[]},{"type":"Feature","geometry":{"type":"LineString","coordinates":[[30.244893972597,13.1676489143],[23.952999999997,14.200999999998]]},"properties":[]},{"type":"Feature","geometry":{"type":"LineString","coordinates":[[30.244893972597,13.1676489143],[24.133333330001,13.649999999998]]},"properties":[]},{"type":"Feature","geometry":{"type":"LineString","coordinates":[[30.244893972597,13.1676489143],[25.399999999999,14.149000000003]]},"properties":[]},{"type":"Feature","geometry":{"type":"LineString","coordinates":[[30.244893972597,13.1676489143],[25.079999999997,14.387999999998]]},"properties":[]},{"type":"Feature","geometry":{"type":"LineString","coordinates":[[30.244893972597,13.1676489143],[24.981000000002,14.438]]},"properties":[]},{"type":"Feature","geometry":{"type":"LineString","coordinates":[[30.244893972597,13.1676489143],[25.141000000003,14.278]]},"properties":[]},{"type":"Feature","geometry":{"type":"LineString","coordinates":[[30.244893972597,13.1676489143],[26.632999999998,11.959000000004]]},"properties":[]},{"type":"Feature","geometry":{"type":"LineString","coordinates":[[30.244893972597,13.1676489143],[23.166,14.938999999999]]},"properties":[]},{"type":"Feature","geometry":{"type":"LineString","coordinates":[[30.244893972597,13.1676489143],[25.388999999996,14.733]]},"properties":[]},{"type":"Feature","geometry":{"type":"LineString","coordinates":[[30.244893972597,13.1676489143],[25.388999999996,14.733]]},"properties":[]},{"type":"Feature","geometry":{"type":"LineString","coordinates":[[30.244893972597,13.1676489143],[25.450000000002,14.788000000001]]},"properties":[]},{"type":"Feature","geometry":{"type":"LineString","coordinates":[[30.244893972597,13.1676489143],[25.638,14.155999999999]]},"properties":[]},{"type":"Feature","geometry":{"type":"LineString","coordinates":[[30.244893972597,13.1676489143],[24.666000000001,13.897999999996]]},"properties":[]},{"type":"Feature","geometry":{"type":"LineString","coordinates":[[30.244893972597,13.1676489143],[24.759000000003,14.134000000004]]},"properties":[]},{"type":"Feature","geometry":{"type":"LineString","coordinates":[[30.244893972597,13.1676489143],[25.523966670001,13.150900000004]]},"properties":[]},{"type":"Feature","geometry":{"type":"LineString","coordinates":[[30.244893972597,13.1676489143],[26.052999999999,15.390999999996]]},"properties":[]},{"type":"Feature","geometry":{"type":"LineString","coordinates":[[30.244893972597,13.1676489143],[25.38533517,13.559698059998]]},"properties":[]},{"type":"Feature","geometry":{"type":"LineString","coordinates":[[30.244893972597,13.1676489143],[23.323938999997,14.979530999999]]},"properties":[]},{"type":"Feature","geometry":{"type":"LineString","coordinates":[[30.244893972597,13.1676489143],[24.067000000003,15.299999999996]]},"properties":[]},{"type":"Feature","geometry":{"type":"LineString","coordinates":[[30.244893972597,13.1676489143],[23.415975,14.922258329998]]},"properties":[]},{"type":"Feature","geometry":{"type":"LineString","coordinates":[[30.244893972597,13.1676489143],[23.79180552,14.026999930004]]},"properties":[]},{"type":"Feature","geometry":{"type":"LineString","coordinates":[[30.244893972597,13.1676489143],[24.952694499999,14.012738899998]]},"properties":[]},{"type":"Feature","geometry":{"type":"LineString","coordinates":[[30.244893972597,13.1676489143],[23.809330600003,13.430338899996]]},"properties":[]},{"type":"Feature","geometry":{"type":"LineString","coordinates":[[30.244893972597,13.1676489143],[25.939503999999,12.953467999997]]},"properties":[]},{"type":"Feature","geometry":{"type":"LineString","coordinates":[[30.244893972597,13.1676489143],[23.432538889997,15.027497219997]]},"properties":[]},{"type":"Feature","geometry":{"type":"LineString","coordinates":[[30.244893972597,13.1676489143],[24.654999999999,14.234000000002]]},"properties":[]},{"type":"Feature","geometry":{"type":"LineString","coordinates":[[30.244893972597,13.1676489143],[25.699999999999,14.454999999997]]},"properties":[]},{"type":"Feature","geometry":{"type":"LineString","coordinates":[[30.244893972597,13.1676489143],[24.94434722,13.380219439998]]},"properties":[]},{"type":"Feature","geometry":{"type":"LineString","coordinates":[[30.244893972597,13.1676489143],[24.729000000001,14.152999999996]]},"properties":[]},{"type":"Feature","geometry":{"type":"LineString","coordinates":[[30.244893972597,13.1676489143],[24.754756000002,13.852330999997]]},"properties":[]},{"type":"Feature","geometry":{"type":"LineString","coordinates":[[30.244893972597,13.1676489143],[26.008999999998,14.402999999996]]},"properties":[]},{"type":"Feature","geometry":{"type":"LineString","coordinates":[[30.244893972597,13.1676489143],[25.229999999997,14.149000000003]]},"properties":[]},{"type":"Feature","geometry":{"type":"LineString","coordinates":[[30.244893972597,13.1676489143],[24.910139799998,13.949317199997]]},"properties":[]},{"type":"Feature","geometry":{"type":"LineString","coordinates":[[30.244893972597,13.1676489143],[24.893628500001,13.506832400003]]},"properties":[]},{"type":"Feature","geometry":{"type":"LineString","coordinates":[[30.244893972597,13.1676489143],[24.224694000001,14.622543999996]]},"properties":[]},{"type":"Feature","geometry":{"type":"LineString","coordinates":[[30.244893972597,13.1676489143],[24.649999999998,14.205999999998]]},"properties":[]},{"type":"Feature","geometry":{"type":"LineString","coordinates":[[30.244893972597,13.1676489143],[24.966000000001,14.084999999999]]},"properties":[]},{"type":"Feature","geometry":{"type":"LineString","coordinates":[[30.244893972597,13.1676489143],[26.969000000002,11.891000000004]]},"properties":[]},{"type":"Feature","geometry":{"type":"LineString","coordinates":[[30.244893972597,13.1676489143],[24.067000000003,15.032999999997]]},"properties":[]},{"type":"Feature","geometry":{"type":"LineString","coordinates":[[30.244893972597,13.1676489143],[25.118999999998,13.686000000001]]},"properties":[]},{"type":"Feature","geometry":{"type":"LineString","coordinates":[[30.244893972597,13.1676489143],[26.040000000001,14.605]]},"properties":[]},{"type":"Feature","geometry":{"type":"LineString","coordinates":[[30.244893972597,13.1676489143],[24.624999999997,14.456999999999]]},"properties":[]},{"type":"Feature","geometry":{"type":"LineString","coordinates":[[30.244893972597,13.1676489143],[26.1529557,15.082504199999]]},"properties":[]},{"type":"Feature","geometry":{"type":"LineString","coordinates":[[30.244893972597,13.1676489143],[26.577000000002,14.817999999999]]},"properties":[]},{"type":"Feature","geometry":{"type":"LineString","coordinates":[[30.244893972597,13.1676489143],[26.333999999999,14.969]]},"properties":[]},{"type":"Feature","geometry":{"type":"LineString","coordinates":[[30.244893972597,13.1676489143],[24.629316299996,14.099970799996]]},"properties":[]},{"type":"Feature","geometry":{"type":"LineString","coordinates":[[30.244893972597,13.1676489143],[23.832230600001,13.550349999999]]},"properties":[]},{"type":"Feature","geometry":{"type":"LineString","coordinates":[[30.244893972597,13.1676489143],[25.549999999999,14.139999999999]]},"properties":[]},{"type":"Feature","geometry":{"type":"LineString","coordinates":[[30.244893972597,13.1676489143],[24.218999999997,14.851999999997]]},"properties":[]},{"type":"Feature","geometry":{"type":"LineString","coordinates":[[30.244893972597,13.1676489143],[25.736999999996,14.555999999999]]},"properties":[]},{"type":"Feature","geometry":{"type":"LineString","coordinates":[[30.244893972597,13.1676489143],[24.915999999998,10.650000000002]]},"properties":[]},{"type":"Feature","geometry":{"type":"LineString","coordinates":[[30.244893972597,13.1676489143],[23.650000000001,15.167]]},"properties":[]},{"type":"Feature","geometry":{"type":"LineString","coordinates":[[30.244893972597,13.1676489143],[24.228999999998,15.259000000004]]},"properties":[]},{"type":"Feature","geometry":{"type":"LineString","coordinates":[[30.244893972597,13.1676489143],[24.901999999999,13.462999999999]]},"properties":[]},{"type":"Feature","geometry":{"type":"LineString","coordinates":[[30.244893972597,13.1676489143],[24.039999999997,13.452000000004]]},"properties":[]},{"type":"Feature","geometry":{"type":"LineString","coordinates":[[30.244893972597,13.1676489143],[24.864,14.762999999999]]},"properties":[]},{"type":"Feature","geometry":{"type":"LineString","coordinates":[[30.244893972597,13.1676489143],[24.247000000004,15.066999999996]]},"properties":[]},{"type":"Feature","geometry":{"type":"LineString","coordinates":[[30.244893972597,13.1676489143],[23.8909,14.848295799998]]},"properties":[]},{"type":"Feature","geometry":{"type":"LineString","coordinates":[[30.244893972597,13.1676489143],[25.626649999996,13.373183299997]]},"properties":[]},{"type":"Feature","geometry":{"type":"LineString","coordinates":[[30.244893972597,13.1676489143],[23.772279999999,13.588670000003]]},"properties":[]},{"type":"Feature","geometry":{"type":"LineString","coordinates":[[30.244893972597,13.1676489143],[25.604,14.598999999998]]},"properties":[]},{"type":"Feature","geometry":{"type":"LineString","coordinates":[[30.244893972597,13.1676489143],[23.312000000002,13.477000000003]]},"properties":[]},{"type":"Feature","geometry":{"type":"LineString","coordinates":[[30.244893972597,13.1676489143],[25.050297800001,13.693080600002]]},"properties":[]},{"type":"Feature","geometry":{"type":"LineString","coordinates":[[30.244893972597,13.1676489143],[25.752999999998,14.313000000001]]},"properties":[]},{"type":"Feature","geometry":{"type":"LineString","coordinates":[[30.244893972597,13.1676489143],[26.412000000001,15.474999999998]]},"properties":[]},{"type":"Feature","geometry":{"type":"LineString","coordinates":[[30.244893972597,13.1676489143],[25.233133300002,13.650543300001]]},"properties":[]},{"type":"Feature","geometry":{"type":"LineString","coordinates":[[30.244893972597,13.1676489143],[26.481000000003,12.064000000003]]},"properties":[]},{"type":"Feature","geometry":{"type":"LineString","coordinates":[[30.244893972597,13.1676489143],[26.538000000001,15.005000000001]]},"properties":[]},{"type":"Feature","geometry":{"type":"LineString","coordinates":[[30.244893972597,13.1676489143],[25.189000000002,13.059999999998]]},"properties":[]},{"type":"Feature","geometry":{"type":"LineString","coordinates":[[30.244893972597,13.1676489143],[24.004738000001,15.4488357]]},"properties":[]},{"type":"Feature","geometry":{"type":"LineString","coordinates":[[30.244893972597,13.1676489143],[25.073000000002,13.167999999998]]},"properties":[]},{"type":"Feature","geometry":{"type":"LineString","coordinates":[[30.244893972597,13.1676489143],[25.072499999997,13.168333300004]]},"properties":[]},{"type":"Feature","geometry":{"type":"LineString","coordinates":[[30.244893972597,13.1676489143],[24.098999999999,13.606999999999]]},"properties":[]},{"type":"Feature","geometry":{"type":"LineString","coordinates":[[30.244893972597,13.1676489143],[25.881000000003,14.493999999999]]},"properties":[]},{"type":"Feature","geometry":{"type":"LineString","coordinates":[[30.244893972597,13.1676489143],[24.828249999999,13.726320000002]]},"properties":[]},{"type":"Feature","geometry":{"type":"LineString","coordinates":[[30.244893972597,13.1676489143],[25.1108407,13.196626000004]]},"properties":[]},{"type":"Feature","geometry":{"type":"LineString","coordinates":[[30.244893972597,13.1676489143],[24.911024800004,13.4839056]]},"properties":[]},{"type":"Feature","geometry":{"type":"LineString","coordinates":[[30.244893972597,13.1676489143],[23.950000000001,15.333]]},"properties":[]},{"type":"Feature","geometry":{"type":"LineString","coordinates":[[30.244893972597,13.1676489143],[25.649999999996,14.035999999996]]},"properties":[]},{"type":"Feature","geometry":{"type":"LineString","coordinates":[[30.244893972597,13.1676489143],[24.091000000002,15.196999999998]]},"properties":[]},{"type":"Feature","geometry":{"type":"LineString","coordinates":[[30.244893972597,13.1676489143],[25.383306500004,14.016666399998]]},"properties":[]},{"type":"Feature","geometry":{"type":"LineString","coordinates":[[30.244893972597,13.1676489143],[23.704579999996,15.020690000001]]},"properties":[]},{"type":"Feature","geometry":{"type":"LineString","coordinates":[[30.244893972597,13.1676489143],[26.898390200002,14.936087900002]]},"properties":[]},{"type":"Feature","geometry":{"type":"LineString","coordinates":[[30.244893972597,13.1676489143],[24.904612300001,13.499824600002]]},"properties":[]},{"type":"Feature","geometry":{"type":"LineString","coordinates":[[30.244893972597,13.1676489143],[25.153130600003,12.9799056]]},"properties":[]},{"type":"Feature","geometry":{"type":"LineString","coordinates":[[30.244893972597,13.1676489143],[25.483197899998,13.033168200003]]},"properties":[]},{"type":"Feature","geometry":{"type":"LineString","coordinates":[[30.244893972597,13.1676489143],[25.929379999997,13.579318000003]]},"properties":[]},{"type":"Feature","geometry":{"type":"LineString","coordinates":[[30.244893972597,13.1676489143],[24.900000000004,13.633333299997]]},"properties":[]},{"type":"Feature","geometry":{"type":"LineString","coordinates":[[30.244893972597,13.1676489143],[24.170999999998,14.941999999996]]},"properties":[]},{"type":"Feature","geometry":{"type":"LineString","coordinates":[[30.244893972597,13.1676489143],[26.691150600004,13.6024667]]},"properties":[]},{"type":"Feature","geometry":{"type":"LineString","coordinates":[[30.244893972597,13.1676489143],[25.171999999997,13.187999999999]]},"properties":[]},{"type":"Feature","geometry":{"type":"LineString","coordinates":[[30.244893972597,13.1676489143],[25.072,13.348999999996]]},"properties":[]},{"type":"Feature","geometry":{"type":"LineString","coordinates":[[30.244893972597,13.1676489143],[24.736999999998,13.994]]},"properties":[]},{"type":"Feature","geometry":{"type":"LineString","coordinates":[[30.244893972597,13.1676489143],[24.280000000003,14.729999999997]]},"properties":[]},{"type":"Feature","geometry":{"type":"LineString","coordinates":[[30.244893972597,13.1676489143],[24.280085099997,14.729530399998]]},"properties":[]},{"type":"Feature","geometry":{"type":"LineString","coordinates":[[30.244893972597,13.1676489143],[24.893,14.672000000001]]},"properties":[]},{"type":"Feature","geometry":{"type":"LineString","coordinates":[[30.244893972597,13.1676489143],[25.119500000003,13.381166699997]]},"properties":[]},{"type":"Feature","geometry":{"type":"LineString","coordinates":[[30.244893972597,13.1676489143],[24.311999999999,14.625000000001]]},"properties":[]},{"type":"Feature","geometry":{"type":"LineString","coordinates":[[30.244893972597,13.1676489143],[25.151999999996,14.424999999996]]},"properties":[]},{"type":"Feature","geometry":{"type":"LineString","coordinates":[[30.244893972597,13.1676489143],[23.532999999999,15.299999999996]]},"properties":[]},{"type":"Feature","geometry":{"type":"LineString","coordinates":[[30.244893972597,13.1676489143],[25.750855599999,13.046483299998]]},"properties":[]},{"type":"Feature","geometry":{"type":"LineString","coordinates":[[30.244893972597,13.1676489143],[26.239000000003,14.800000000002]]},"properties":[]},{"type":"Feature","geometry":{"type":"LineString","coordinates":[[30.244893972597,13.1676489143],[25.381263099999,15.3759499]]},"properties":[]},{"type":"Feature","geometry":{"type":"LineString","coordinates":[[30.244893972597,13.1676489143],[25.499000000003,13.892000000004]]},"properties":[]},{"type":"Feature","geometry":{"type":"LineString","coordinates":[[30.244893972597,13.1676489143],[25.309,13.481000000001]]},"properties":[]},{"type":"Feature","geometry":{"type":"LineString","coordinates":[[30.244893972597,13.1676489143],[25.309,13.481000000001]]},"properties":[]},{"type":"Feature","geometry":{"type":"LineString","coordinates":[[30.244893972597,13.1676489143],[24.279000000001,12.513999999999]]},"properties":[]},{"type":"Feature","geometry":{"type":"LineString","coordinates":[[30.244893972597,13.1676489143],[24.676033300001,11.597016699999]]},"properties":[]},{"type":"Feature","geometry":{"type":"LineString","coordinates":[[30.244893972597,13.1676489143],[26.739999999999,11.060000000004]]},"properties":[]},{"type":"Feature","geometry":{"type":"LineString","coordinates":[[30.244893972597,13.1676489143],[26.854000000004,11.065999999998]]},"properties":[]},{"type":"Feature","geometry":{"type":"LineString","coordinates":[[30.244893972597,13.1676489143],[26.535701899999,11.586806300002]]},"properties":[]},{"type":"Feature","geometry":{"type":"LineString","coordinates":[[30.244893972597,13.1676489143],[26.201999999997,10.986000000002]]},"properties":[]},{"type":"Feature","geometry":{"type":"LineString","coordinates":[[30.244893972597,13.1676489143],[25.104999999999,12.175999999998]]},"properties":[]},{"type":"Feature","geometry":{"type":"LineString","coordinates":[[30.244893972597,13.1676489143],[24.716436799999,11.186199700003]]},"properties":[]},{"type":"Feature","geometry":{"type":"LineString","coordinates":[[30.244893972597,13.1676489143],[27.089,11.308000000001]]},"properties":[]},{"type":"Feature","geometry":{"type":"LineString","coordinates":[[30.244893972597,13.1676489143],[25.856104800004,12.443283399997]]},"properties":[]},{"type":"Feature","geometry":{"type":"LineString","coordinates":[[30.244893972597,13.1676489143],[24.286999999998,12.499000000004]]},"properties":[]},{"type":"Feature","geometry":{"type":"LineString","coordinates":[[30.244893972597,13.1676489143],[25.794000000003,11.095000000001]]},"properties":[]},{"type":"Feature","geometry":{"type":"LineString","coordinates":[[30.244893972597,13.1676489143],[27.047999999996,11.251999999997]]},"properties":[]},{"type":"Feature","geometry":{"type":"LineString","coordinates":[[30.244893972597,13.1676489143],[24.871000000004,12.916000000002]]},"properties":[]},{"type":"Feature","geometry":{"type":"LineString","coordinates":[[30.244893972597,13.1676489143],[26.114999999997,11.469999999997]]},"properties":[]},{"type":"Feature","geometry":{"type":"LineString","coordinates":[[30.244893972597,13.1676489143],[26.975999999997,11.578999999996]]},"properties":[]},{"type":"Feature","geometry":{"type":"LineString","coordinates":[[30.244893972597,13.1676489143],[26.776000000003,11.541]]},"properties":[]},{"type":"Feature","geometry":{"type":"LineString","coordinates":[[30.244893972597,13.1676489143],[25.5926667,11.352405599996]]},"properties":[]},{"type":"Feature","geometry":{"type":"LineString","coordinates":[[30.244893972597,13.1676489143],[24.577429999997,11.485100000004]]},"properties":[]},{"type":"Feature","geometry":{"type":"LineString","coordinates":[[30.244893972597,13.1676489143],[26.399000000003,11.747999999998]]},"properties":[]},{"type":"Feature","geometry":{"type":"LineString","coordinates":[[30.244893972597,13.1676489143],[24.909999999996,12.101999999998]]},"properties":[]},{"type":"Feature","geometry":{"type":"LineString","coordinates":[[30.244893972597,13.1676489143],[24.740999999997,12.192999999996]]},"properties":[]},{"type":"Feature","geometry":{"type":"LineString","coordinates":[[30.244893972597,13.1676489143],[24.566999999997,12.088000000002]]},"properties":[]},{"type":"Feature","geometry":{"type":"LineString","coordinates":[[30.244893972597,13.1676489143],[23.913000000004,12.205999999999]]},"properties":[]},{"type":"Feature","geometry":{"type":"LineString","coordinates":[[30.244893972597,13.1676489143],[25.727999999997,11.377999999999]]},"properties":[]},{"type":"Feature","geometry":{"type":"LineString","coordinates":[[30.244893972597,13.1676489143],[24.405000000001,12.124000000001]]},"properties":[]},{"type":"Feature","geometry":{"type":"LineString","coordinates":[[30.244893972597,13.1676489143],[26.572000000001,11.397999999999]]},"properties":[]},{"type":"Feature","geometry":{"type":"LineString","coordinates":[[30.244893972597,13.1676489143],[25.026999999998,11.998000000004]]},"properties":[]},{"type":"Feature","geometry":{"type":"LineString","coordinates":[[30.244893972597,13.1676489143],[25.050000000004,11.868999999999]]},"properties":[]},{"type":"Feature","geometry":{"type":"LineString","coordinates":[[30.244893972597,13.1676489143],[23.785,12.058999999999]]},"properties":[]},{"type":"Feature","geometry":{"type":"LineString","coordinates":[[30.244893972597,13.1676489143],[24.609000000003,12.007999999998]]},"properties":[]},{"type":"Feature","geometry":{"type":"LineString","coordinates":[[30.244893972597,13.1676489143],[26.428999999996,11.425000000001]]},"properties":[]},{"type":"Feature","geometry":{"type":"LineString","coordinates":[[30.244893972597,13.1676489143],[24.924000000004,12.076000000002]]},"properties":[]},{"type":"Feature","geometry":{"type":"LineString","coordinates":[[30.244893972597,13.1676489143],[24.226319399998,12.5714639]]},"properties":[]},{"type":"Feature","geometry":{"type":"LineString","coordinates":[[30.244893972597,13.1676489143],[24.69455,11.698430599997]]},"properties":[]},{"type":"Feature","geometry":{"type":"LineString","coordinates":[[30.244893972597,13.1676489143],[24.579970040003,10.949843589997]]},"properties":[]},{"type":"Feature","geometry":{"type":"LineString","coordinates":[[30.244893972597,13.1676489143],[26.773999999999,11.534999999998]]},"properties":[]},{"type":"Feature","geometry":{"type":"LineString","coordinates":[[30.244893972597,13.1676489143],[25.252000000002,11.436000000001]]},"properties":[]},{"type":"Feature","geometry":{"type":"LineString","coordinates":[[30.244893972597,13.1676489143],[24.633151200003,11.516867600002]]},"properties":[]},{"type":"Feature","geometry":{"type":"LineString","coordinates":[[30.244893972597,13.1676489143],[25.067373300001,11.5221777]]},"properties":[]},{"type":"Feature","geometry":{"type":"LineString","coordinates":[[30.244893972597,13.1676489143],[25.029000000001,11.953]]},"properties":[]},{"type":"Feature","geometry":{"type":"LineString","coordinates":[[30.244893972597,13.1676489143],[24.122999999999,12.706000000004]]},"properties":[]},{"type":"Feature","geometry":{"type":"LineString","coordinates":[[30.244893972597,13.1676489143],[24.865000000002,12.519999999997]]},"properties":[]},{"type":"Feature","geometry":{"type":"LineString","coordinates":[[30.244893972597,13.1676489143],[25.504999999996,12.495999999999]]},"properties":[]},{"type":"Feature","geometry":{"type":"LineString","coordinates":[[30.244893972597,13.1676489143],[25.175000000003,11.856000000001]]},"properties":[]},{"type":"Feature","geometry":{"type":"LineString","coordinates":[[30.244893972597,13.1676489143],[26.149999999999,11.430000000001]]},"properties":[]},{"type":"Feature","geometry":{"type":"LineString","coordinates":[[30.244893972597,13.1676489143],[26.013077199999,11.848499699998]]},"properties":[]},{"type":"Feature","geometry":{"type":"LineString","coordinates":[[30.244893972597,13.1676489143],[26.512999999999,11.776000000003]]},"properties":[]},{"type":"Feature","geometry":{"type":"LineString","coordinates":[[30.244893972597,13.1676489143],[24.280999999996,12.508000000001]]},"properties":[]},{"type":"Feature","geometry":{"type":"LineString","coordinates":[[30.244893972597,13.1676489143],[24.432500000003,10.67042]]},"properties":[]},{"type":"Feature","geometry":{"type":"LineString","coordinates":[[30.244893972597,13.1676489143],[24.666000000001,12.010999999996]]},"properties":[]},{"type":"Feature","geometry":{"type":"LineString","coordinates":[[30.244893972597,13.1676489143],[24.329999999997,12.561000000001]]},"properties":[]},{"type":"Feature","geometry":{"type":"LineString","coordinates":[[30.244893972597,13.1676489143],[25.051999999999,12.224999999997]]},"properties":[]},{"type":"Feature","geometry":{"type":"LineString","coordinates":[[30.244893972597,13.1676489143],[25.029000000001,11.953]]},"properties":[]},{"type":"Feature","geometry":{"type":"LineString","coordinates":[[30.244893972597,13.1676489143],[25.147522499996,11.272931000004]]},"properties":[]},{"type":"Feature","geometry":{"type":"LineString","coordinates":[[30.244893972597,13.1676489143],[25.140000000001,11.274999999996]]},"properties":[]},{"type":"Feature","geometry":{"type":"LineString","coordinates":[[30.244893972597,13.1676489143],[25.011000000004,12.558999999999]]},"properties":[]},{"type":"Feature","geometry":{"type":"LineString","coordinates":[[30.244893972597,13.1676489143],[24.854,12.246000000001]]},"properties":[]},{"type":"Feature","geometry":{"type":"LineString","coordinates":[[30.244893972597,13.1676489143],[24.340331499996,12.672603399996]]},"properties":[]},{"type":"Feature","geometry":{"type":"LineString","coordinates":[[30.244893972597,13.1676489143],[25.067,10.683000000002]]},"properties":[]},{"type":"Feature","geometry":{"type":"LineString","coordinates":[[30.244893972597,13.1676489143],[22.587000000003,14.095000000003]]},"properties":[]},{"type":"Feature","geometry":{"type":"LineString","coordinates":[[30.244893972597,13.1676489143],[25.169000000001,11.792000000001]]},"properties":[]},{"type":"Feature","geometry":{"type":"LineString","coordinates":[[30.244893972597,13.1676489143],[26.661999999998,11.425000000001]]},"properties":[]},{"type":"Feature","geometry":{"type":"LineString","coordinates":[[30.244893972597,13.1676489143],[26.069000000001,11.608000000004]]},"properties":[]},{"type":"Feature","geometry":{"type":"LineString","coordinates":[[30.244893972597,13.1676489143],[24.390000000001,12.013999999999]]},"properties":[]},{"type":"Feature","geometry":{"type":"LineString","coordinates":[[30.244893972597,13.1676489143],[24.172,12.302000000003]]},"properties":[]},{"type":"Feature","geometry":{"type":"LineString","coordinates":[[30.244893972597,13.1676489143],[26.717000000001,11.682999999998]]},"properties":[]},{"type":"Feature","geometry":{"type":"LineString","coordinates":[[30.244893972597,13.1676489143],[26.717000000001,11.682999999998]]},"properties":[]},{"type":"Feature","geometry":{"type":"LineString","coordinates":[[30.244893972597,13.1676489143],[24.75875267,11.094817839998]]},"properties":[]},{"type":"Feature","geometry":{"type":"LineString","coordinates":[[30.244893972597,13.1676489143],[25.287999999997,11.111000000001]]},"properties":[]},{"type":"Feature","geometry":{"type":"LineString","coordinates":[[30.244893972597,13.1676489143],[25.015000000002,12.005000000004]]},"properties":[]},{"type":"Feature","geometry":{"type":"LineString","coordinates":[[30.244893972597,13.1676489143],[25.333,12.625999999999]]},"properties":[]},{"type":"Feature","geometry":{"type":"LineString","coordinates":[[30.244893972597,13.1676489143],[24.290039999998,12.502150000003]]},"properties":[]},{"type":"Feature","geometry":{"type":"LineString","coordinates":[[30.244893972597,13.1676489143],[24.285000000003,12.504999999997]]},"properties":[]},{"type":"Feature","geometry":{"type":"LineString","coordinates":[[30.244893972597,13.1676489143],[25.098000000004,12.511000000002]]},"properties":[]},{"type":"Feature","geometry":{"type":"LineString","coordinates":[[30.244893972597,13.1676489143],[25.27,12.647000000001]]},"properties":[]},{"type":"Feature","geometry":{"type":"LineString","coordinates":[[30.244893972597,13.1676489143],[26.166000000002,11.391999999996]]},"properties":[]},{"type":"Feature","geometry":{"type":"LineString","coordinates":[[30.244893972597,13.1676489143],[24.264199999999,12.547399999998]]},"properties":[]},{"type":"Feature","geometry":{"type":"LineString","coordinates":[[30.244893972597,13.1676489143],[24.825,12.726000000002]]},"properties":[]},{"type":"Feature","geometry":{"type":"LineString","coordinates":[[30.244893972597,13.1676489143],[23.802999999997,11.755000000001]]},"properties":[]},{"type":"Feature","geometry":{"type":"LineString","coordinates":[[30.244893972597,13.1676489143],[25.416000000001,11.569000000001]]},"properties":[]},{"type":"Feature","geometry":{"type":"LineString","coordinates":[[30.244893972597,13.1676489143],[24.333179299996,12.6168337]]},"properties":[]},{"type":"Feature","geometry":{"type":"LineString","coordinates":[[30.244893972597,13.1676489143],[25.024000000001,11.813999999997]]},"properties":[]},{"type":"Feature","geometry":{"type":"LineString","coordinates":[[30.244893972597,13.1676489143],[25.277999999997,11.851000000001]]},"properties":[]},{"type":"Feature","geometry":{"type":"LineString","coordinates":[[30.244893972597,13.1676489143],[24.977000000004,12.672000000004]]},"properties":[]},{"type":"Feature","geometry":{"type":"LineString","coordinates":[[30.244893972597,13.1676489143],[25.141000000003,12.397000000001]]},"properties":[]},{"type":"Feature","geometry":{"type":"LineString","coordinates":[[30.244893972597,13.1676489143],[24.903000000001,12.724000000001]]},"properties":[]},{"type":"Feature","geometry":{"type":"LineString","coordinates":[[30.244893972597,13.1676489143],[24.340999999999,12.073999999999]]},"properties":[]},{"type":"Feature","geometry":{"type":"LineString","coordinates":[[30.244893972597,13.1676489143],[24.880999999996,12.004000000001]]},"properties":[]},{"type":"Feature","geometry":{"type":"LineString","coordinates":[[30.244893972597,13.1676489143],[25.615999999996,11.974000000002]]},"properties":[]},{"type":"Feature","geometry":{"type":"LineString","coordinates":[[30.244893972597,13.1676489143],[24.508392200001,12.030815100001]]},"properties":[]},{"type":"Feature","geometry":{"type":"LineString","coordinates":[[30.244893972597,13.1676489143],[25.407991700003,12.892969400002]]},"properties":[]},{"type":"Feature","geometry":{"type":"LineString","coordinates":[[30.244893972597,13.1676489143],[24.513999999997,12.541]]},"properties":[]},{"type":"Feature","geometry":{"type":"LineString","coordinates":[[30.244893972597,13.1676489143],[24.460720000001,10.795139999998]]},"properties":[]},{"type":"Feature","geometry":{"type":"LineString","coordinates":[[30.244893972597,13.1676489143],[25.524999999997,12.606999999998]]},"properties":[]},{"type":"Feature","geometry":{"type":"LineString","coordinates":[[30.244893972597,13.1676489143],[24.177,12.296000000002]]},"properties":[]},{"type":"Feature","geometry":{"type":"LineString","coordinates":[[30.244893972597,13.1676489143],[24.177,12.296000000002]]},"properties":[]},{"type":"Feature","geometry":{"type":"LineString","coordinates":[[30.244893972597,13.1676489143],[25.310000000002,11.534999999998]]},"properties":[]},{"type":"Feature","geometry":{"type":"LineString","coordinates":[[30.244893972597,13.1676489143],[24.705723870003,10.92237697]]},"properties":[]},{"type":"Feature","geometry":{"type":"LineString","coordinates":[[30.244893972597,13.1676489143],[24.850000000001,11.983000000003]]},"properties":[]},{"type":"Feature","geometry":{"type":"LineString","coordinates":[[30.244893972597,13.1676489143],[25.416000000001,11.732999999999]]},"properties":[]},{"type":"Feature","geometry":{"type":"LineString","coordinates":[[30.244893972597,13.1676489143],[24.843918000001,11.739815]]},"properties":[]},{"type":"Feature","geometry":{"type":"LineString","coordinates":[[30.244893972597,13.1676489143],[24.177,12.296000000002]]},"properties":[]},{"type":"Feature","geometry":{"type":"LineString","coordinates":[[30.244893972597,13.1676489143],[24.177,12.296000000002]]},"properties":[]},{"type":"Feature","geometry":{"type":"LineString","coordinates":[[30.244893972597,13.1676489143],[24.82,12.005000000004]]},"properties":[]},{"type":"Feature","geometry":{"type":"LineString","coordinates":[[30.244893972597,13.1676489143],[24.869092300001,12.166330900004]]},"properties":[]},{"type":"Feature","geometry":{"type":"LineString","coordinates":[[30.244893972597,13.1676489143],[25.606999999997,12.460000000001]]},"properties":[]},{"type":"Feature","geometry":{"type":"LineString","coordinates":[[30.244893972597,13.1676489143],[27.083194399998,11.519666700003]]},"properties":[]},{"type":"Feature","geometry":{"type":"LineString","coordinates":[[30.244893972597,13.1676489143],[27.188999999997,11.263]]},"properties":[]},{"type":"Feature","geometry":{"type":"LineString","coordinates":[[30.244893972597,13.1676489143],[25.698999999997,11.671000000002]]},"properties":[]},{"type":"Feature","geometry":{"type":"LineString","coordinates":[[30.244893972597,13.1676489143],[26.916000000002,11.689999999996]]},"properties":[]},{"type":"Feature","geometry":{"type":"LineString","coordinates":[[30.244893972597,13.1676489143],[25.0343944,11.820180599999]]},"properties":[]},{"type":"Feature","geometry":{"type":"LineString","coordinates":[[30.244893972597,13.1676489143],[25.228999999996,12.264000000004]]},"properties":[]},{"type":"Feature","geometry":{"type":"LineString","coordinates":[[30.244893972597,13.1676489143],[24.2040007,12.6494767]]},"properties":[]},{"type":"Feature","geometry":{"type":"LineString","coordinates":[[30.244893972597,13.1676489143],[24.304933299996,12.457333299999]]},"properties":[]},{"type":"Feature","geometry":{"type":"LineString","coordinates":[[30.244893972597,13.1676489143],[24.106000000003,12.854]]},"properties":[]},{"type":"Feature","geometry":{"type":"LineString","coordinates":[[30.244893972597,13.1676489143],[24.638999999996,11.844999999999]]},"properties":[]},{"type":"Feature","geometry":{"type":"LineString","coordinates":[[30.244893972597,13.1676489143],[24.517000000003,11.216999999996]]},"properties":[]},{"type":"Feature","geometry":{"type":"LineString","coordinates":[[30.244893972597,13.1676489143],[25.193000000001,12.316999999997]]},"properties":[]},{"type":"Feature","geometry":{"type":"LineString","coordinates":[[30.244893972597,13.1676489143],[25.944999999996,11.720000000003]]},"properties":[]},{"type":"Feature","geometry":{"type":"LineString","coordinates":[[30.244893972597,13.1676489143],[26.442000000002,11.374999999997]]},"properties":[]},{"type":"Feature","geometry":{"type":"LineString","coordinates":[[30.244893972597,13.1676489143],[25.165000000002,11.999999999999]]},"properties":[]},{"type":"Feature","geometry":{"type":"LineString","coordinates":[[30.244893972597,13.1676489143],[23.982999999999,12.032999999999]]},"properties":[]},{"type":"Feature","geometry":{"type":"LineString","coordinates":[[30.244893972597,13.1676489143],[25.775788399998,12.5250872]]},"properties":[]},{"type":"Feature","geometry":{"type":"LineString","coordinates":[[30.244893972597,13.1676489143],[25.048000000001,11.784000000003]]},"properties":[]},{"type":"Feature","geometry":{"type":"LineString","coordinates":[[30.244893972597,13.1676489143],[26.638244300002,11.312797899999]]},"properties":[]},{"type":"Feature","geometry":{"type":"LineString","coordinates":[[30.244893972597,13.1676489143],[25.702000000003,12.650000000004]]},"properties":[]},{"type":"Feature","geometry":{"type":"LineString","coordinates":[[30.244893972597,13.1676489143],[24.850000000001,11.983000000003]]},"properties":[]},{"type":"Feature","geometry":{"type":"LineString","coordinates":[[30.244893972597,13.1676489143],[25.504999999996,12.495999999999]]},"properties":[]},{"type":"Feature","geometry":{"type":"LineString","coordinates":[[30.244893972597,13.1676489143],[27.101699999999,11.615666699999]]},"properties":[]},{"type":"Feature","geometry":{"type":"LineString","coordinates":[[30.244893972597,13.1676489143],[25.730838900002,11.491794399997]]},"properties":[]},{"type":"Feature","geometry":{"type":"LineString","coordinates":[[30.244893972597,13.1676489143],[24.293,12.504999999997]]},"properties":[]},{"type":"Feature","geometry":{"type":"LineString","coordinates":[[30.244893972597,13.1676489143],[25.011000000004,12.558999999999]]},"properties":[]},{"type":"Feature","geometry":{"type":"LineString","coordinates":[[30.244893972597,13.1676489143],[25.490000000004,11.570000000001]]},"properties":[]},{"type":"Feature","geometry":{"type":"LineString","coordinates":[[30.244893972597,13.1676489143],[24.903000000001,12.724000000001]]},"properties":[]},{"type":"Feature","geometry":{"type":"LineString","coordinates":[[30.244893972597,13.1676489143],[28.975981000004,11.981235999996]]},"properties":[]},{"type":"Feature","geometry":{"type":"LineString","coordinates":[[30.244893972597,13.1676489143],[31.235990999998,11.454376000002]]},"properties":[]},{"type":"Feature","geometry":{"type":"LineString","coordinates":[[30.244893972597,13.1676489143],[29.416666999997,11.016667000001]]},"properties":[]},{"type":"Feature","geometry":{"type":"LineString","coordinates":[[30.244893972597,13.1676489143],[30.516667000001,11.283332999999]]},"properties":[]},{"type":"Feature","geometry":{"type":"LineString","coordinates":[[30.244893972597,13.1676489143],[31.043333,12.246666999999]]},"properties":[]},{"type":"Feature","geometry":{"type":"LineString","coordinates":[[30.244893972597,13.1676489143],[30.866667000004,10.833332999996]]},"properties":[]},{"type":"Feature","geometry":{"type":"LineString","coordinates":[[30.244893972597,13.1676489143],[31.567195,10.532300000001]]},"properties":[]},{"type":"Feature","geometry":{"type":"LineString","coordinates":[[30.244893972597,13.1676489143],[30.524800000004,11.210789999999]]},"properties":[]},{"type":"Feature","geometry":{"type":"LineString","coordinates":[[30.244893972597,13.1676489143],[29.491567999998,11.669126000001]]},"properties":[]},{"type":"Feature","geometry":{"type":"LineString","coordinates":[[30.244893972597,13.1676489143],[30.301631999999,12.180841]]},"properties":[]},{"type":"Feature","geometry":{"type":"LineString","coordinates":[[30.244893972597,13.1676489143],[30.975086000001,11.812918999996]]},"properties":[]},{"type":"Feature","geometry":{"type":"LineString","coordinates":[[30.244893972597,13.1676489143],[29.674135000001,10.803581999998]]},"properties":[]},{"type":"Feature","geometry":{"type":"LineString","coordinates":[[30.244893972597,13.1676489143],[31.498284999996,10.614678]]},"properties":[]},{"type":"Feature","geometry":{"type":"LineString","coordinates":[[30.244893972597,13.1676489143],[30.510939999999,11.084000000002]]},"properties":[]},{"type":"Feature","geometry":{"type":"LineString","coordinates":[[30.244893972597,13.1676489143],[29.247045999996,11.662171999998]]},"properties":[]},{"type":"Feature","geometry":{"type":"LineString","coordinates":[[30.244893972597,13.1676489143],[29.699600000001,11.467799999996]]},"properties":[]},{"type":"Feature","geometry":{"type":"LineString","coordinates":[[30.244893972597,13.1676489143],[31.224722000004,11.973056000002]]},"properties":[]},{"type":"Feature","geometry":{"type":"LineString","coordinates":[[30.244893972597,13.1676489143],[29.600000000001,10.885832999996]]},"properties":[]},{"type":"Feature","geometry":{"type":"LineString","coordinates":[[30.244893972597,13.1676489143],[29.362800000002,12.011500000002]]},"properties":[]},{"type":"Feature","geometry":{"type":"LineString","coordinates":[[30.244893972597,13.1676489143],[29.400339999999,10.949315999996]]},"properties":[]},{"type":"Feature","geometry":{"type":"LineString","coordinates":[[30.244893972597,13.1676489143],[31.749999999996,11.916667000002]]},"properties":[]},{"type":"Feature","geometry":{"type":"LineString","coordinates":[[30.244893972597,13.1676489143],[31.509557000003,10.637733999998]]},"properties":[]},{"type":"Feature","geometry":{"type":"LineString","coordinates":[[30.244893972597,13.1676489143],[30.228833000001,10.828495000003]]},"properties":[]},{"type":"Feature","geometry":{"type":"LineString","coordinates":[[30.244893972597,13.1676489143],[30.200000000001,10.616667000002]]},"properties":[]},{"type":"Feature","geometry":{"type":"LineString","coordinates":[[30.244893972597,13.1676489143],[30.981109999996,10.860559999996]]},"properties":[]},{"type":"Feature","geometry":{"type":"LineString","coordinates":[[30.244893972597,13.1676489143],[29.350000000004,11.716667000002]]},"properties":[]},{"type":"Feature","geometry":{"type":"LineString","coordinates":[[30.244893972597,13.1676489143],[31.449999999996,10.783333000002]]},"properties":[]},{"type":"Feature","geometry":{"type":"LineString","coordinates":[[30.244893972597,13.1676489143],[29.244119999997,11.669379999996]]},"properties":[]},{"type":"Feature","geometry":{"type":"LineString","coordinates":[[30.244893972597,13.1676489143],[31.083333000002,11.999999999999]]},"properties":[]},{"type":"Feature","geometry":{"type":"LineString","coordinates":[[30.244893972597,13.1676489143],[31.083333000002,11.766667000003]]},"properties":[]},{"type":"Feature","geometry":{"type":"LineString","coordinates":[[30.244893972597,13.1676489143],[30.032799999998,10.861399999997]]},"properties":[]},{"type":"Feature","geometry":{"type":"LineString","coordinates":[[30.244893972597,13.1676489143],[30.71635,11.04308]]},"properties":[]},{"type":"Feature","geometry":{"type":"LineString","coordinates":[[30.244893972597,13.1676489143],[30.072309999996,11.48592]]},"properties":[]},{"type":"Feature","geometry":{"type":"LineString","coordinates":[[30.244893972597,13.1676489143],[30.012200000001,11.009699999997]]},"properties":[]},{"type":"Feature","geometry":{"type":"LineString","coordinates":[[30.244893972597,13.1676489143],[29.352050999998,11.844202]]},"properties":[]},{"type":"Feature","geometry":{"type":"LineString","coordinates":[[30.244893972597,13.1676489143],[31.176770999996,10.408779999998]]},"properties":[]},{"type":"Feature","geometry":{"type":"LineString","coordinates":[[30.244893972597,13.1676489143],[22.491999999997,12.701000000002]]},"properties":[]},{"type":"Feature","geometry":{"type":"LineString","coordinates":[[30.244893972597,13.1676489143],[22.398000000002,13.858000000002]]},"properties":[]},{"type":"Feature","geometry":{"type":"LineString","coordinates":[[30.244893972597,13.1676489143],[22.433999999997,13.430000000002]]},"properties":[]},{"type":"Feature","geometry":{"type":"LineString","coordinates":[[30.244893972597,13.1676489143],[22.6,13.583000000003]]},"properties":[]},{"type":"Feature","geometry":{"type":"LineString","coordinates":[[30.244893972597,13.1676489143],[23.482999999996,12.916999999997]]},"properties":[]},{"type":"Feature","geometry":{"type":"LineString","coordinates":[[30.244893972597,13.1676489143],[22.907000000004,10.902000000003]]},"properties":[]},{"type":"Feature","geometry":{"type":"LineString","coordinates":[[30.244893972597,13.1676489143],[26.983000000001,11.733999999997]]},"properties":[]},{"type":"Feature","geometry":{"type":"LineString","coordinates":[[30.244893972597,13.1676489143],[22.168999999999,12.725000000001]]},"properties":[]},{"type":"Feature","geometry":{"type":"LineString","coordinates":[[30.244893972597,13.1676489143],[22.499000000001,13.502999999999]]},"properties":[]},{"type":"Feature","geometry":{"type":"LineString","coordinates":[[30.244893972597,13.1676489143],[22.495000000003,13.468999999996]]},"properties":[]},{"type":"Feature","geometry":{"type":"LineString","coordinates":[[30.244893972597,13.1676489143],[22.166906199998,13.766854099997]]},"properties":[]},{"type":"Feature","geometry":{"type":"LineString","coordinates":[[30.244893972597,13.1676489143],[22.660000000004,14.130000000002]]},"properties":[]},{"type":"Feature","geometry":{"type":"LineString","coordinates":[[30.244893972597,13.1676489143],[22.466999999996,14.333]]},"properties":[]},{"type":"Feature","geometry":{"type":"LineString","coordinates":[[30.244893972597,13.1676489143],[22.669000000003,13.511999999999]]},"properties":[]},{"type":"Feature","geometry":{"type":"LineString","coordinates":[[30.244893972597,13.1676489143],[22.279211100001,13.614466700002]]},"properties":[]},{"type":"Feature","geometry":{"type":"LineString","coordinates":[[30.244893972597,13.1676489143],[22.595,14.381000000003]]},"properties":[]},{"type":"Feature","geometry":{"type":"LineString","coordinates":[[30.244893972597,13.1676489143],[21.885000000002,12.711999999999]]},"properties":[]},{"type":"Feature","geometry":{"type":"LineString","coordinates":[[30.244893972597,13.1676489143],[23.114000000002,11.941000000003]]},"properties":[]},{"type":"Feature","geometry":{"type":"LineString","coordinates":[[30.244893972597,13.1676489143],[22.466999999996,13.716999999998]]},"properties":[]},{"type":"Feature","geometry":{"type":"LineString","coordinates":[[30.244893972597,13.1676489143],[22.728999999997,13.778999999997]]},"properties":[]},{"type":"Feature","geometry":{"type":"LineString","coordinates":[[30.244893972597,13.1676489143],[22.738999999998,13.775999999999]]},"properties":[]},{"type":"Feature","geometry":{"type":"LineString","coordinates":[[30.244893972597,13.1676489143],[23.237999999999,12.357]]},"properties":[]},{"type":"Feature","geometry":{"type":"LineString","coordinates":[[30.244893972597,13.1676489143],[22.576000000001,13.526999999997]]},"properties":[]},{"type":"Feature","geometry":{"type":"LineString","coordinates":[[30.244893972597,13.1676489143],[22.486000000004,13.494999999998]]},"properties":[]},{"type":"Feature","geometry":{"type":"LineString","coordinates":[[30.244893972597,13.1676489143],[22.486000000004,13.494999999998]]},"properties":[]},{"type":"Feature","geometry":{"type":"LineString","coordinates":[[30.244893972597,13.1676489143],[22.486000000004,13.494999999998]]},"properties":[]},{"type":"Feature","geometry":{"type":"LineString","coordinates":[[30.244893972597,13.1676489143],[22.521999999999,14.270000000001]]},"properties":[]},{"type":"Feature","geometry":{"type":"LineString","coordinates":[[30.244893972597,13.1676489143],[22.427000000002,13.433000000001]]},"properties":[]},{"type":"Feature","geometry":{"type":"LineString","coordinates":[[30.244893972597,13.1676489143],[22.437000000003,13.464000000003]]},"properties":[]},{"type":"Feature","geometry":{"type":"LineString","coordinates":[[30.244893972597,13.1676489143],[22.59,12.124999999996]]},"properties":[]},{"type":"Feature","geometry":{"type":"LineString","coordinates":[[30.244893972597,13.1676489143],[22.59,12.124999999996]]},"properties":[]},{"type":"Feature","geometry":{"type":"LineString","coordinates":[[30.244893972597,13.1676489143],[22.897000000004,13.344000000002]]},"properties":[]},{"type":"Feature","geometry":{"type":"LineString","coordinates":[[30.244893972597,13.1676489143],[23.139999999997,12.379999999996]]},"properties":[]},{"type":"Feature","geometry":{"type":"LineString","coordinates":[[30.244893972597,13.1676489143],[13.018583300002,21.938983299997]]},"properties":[]},{"type":"Feature","geometry":{"type":"LineString","coordinates":[[30.244893972597,13.1676489143],[22.935000000002,13.123000000003]]},"properties":[]},{"type":"Feature","geometry":{"type":"LineString","coordinates":[[30.244893972597,13.1676489143],[22.451000000002,12.438]]},"properties":[]},{"type":"Feature","geometry":{"type":"LineString","coordinates":[[30.244893972597,13.1676489143],[22.463999999999,13.226]]},"properties":[]},{"type":"Feature","geometry":{"type":"LineString","coordinates":[[30.244893972597,13.1676489143],[22.432000000003,14.547999999996]]},"properties":[]},{"type":"Feature","geometry":{"type":"LineString","coordinates":[[30.244893972597,13.1676489143],[22.688000000002,13.875000000002]]},"properties":[]},{"type":"Feature","geometry":{"type":"LineString","coordinates":[[30.244893972597,13.1676489143],[22.510999999997,12.055000000002]]},"properties":[]},{"type":"Feature","geometry":{"type":"LineString","coordinates":[[30.244893972597,13.1676489143],[22.767999999998,12.150000000002]]},"properties":[]},{"type":"Feature","geometry":{"type":"LineString","coordinates":[[30.244893972597,13.1676489143],[22.678000000001,13.515000000002]]},"properties":[]},{"type":"Feature","geometry":{"type":"LineString","coordinates":[[30.244893972597,13.1676489143],[22.562000000001,12.680000000004]]},"properties":[]},{"type":"Feature","geometry":{"type":"LineString","coordinates":[[30.244893972597,13.1676489143],[22.7832105,13.783172400004]]},"properties":[]},{"type":"Feature","geometry":{"type":"LineString","coordinates":[[30.244893972597,13.1676489143],[14.398025000002,22.5537556]]},"properties":[]},{"type":"Feature","geometry":{"type":"LineString","coordinates":[[30.244893972597,13.1676489143],[22.980999999998,13.152999999998]]},"properties":[]},{"type":"Feature","geometry":{"type":"LineString","coordinates":[[30.244893972597,13.1676489143],[22.587000000003,14.095000000003]]},"properties":[]},{"type":"Feature","geometry":{"type":"LineString","coordinates":[[30.244893972597,13.1676489143],[22.702000000001,14.302999999996]]},"properties":[]},{"type":"Feature","geometry":{"type":"LineString","coordinates":[[30.244893972597,13.1676489143],[22.702000000001,14.302999999996]]},"properties":[]},{"type":"Feature","geometry":{"type":"LineString","coordinates":[[30.244893972597,13.1676489143],[23.479999999999,12.909999999997]]},"properties":[]},{"type":"Feature","geometry":{"type":"LineString","coordinates":[[30.244893972597,13.1676489143],[22.703999999996,13.988000000001]]},"properties":[]},{"type":"Feature","geometry":{"type":"LineString","coordinates":[[30.244893972597,13.1676489143],[22.428999999997,13.431999999996]]},"properties":[]},{"type":"Feature","geometry":{"type":"LineString","coordinates":[[30.244893972597,13.1676489143],[22.771999999996,11.759999999997]]},"properties":[]},{"type":"Feature","geometry":{"type":"LineString","coordinates":[[30.244893972597,13.1676489143],[22.495999999996,13.653000000001]]},"properties":[]},{"type":"Feature","geometry":{"type":"LineString","coordinates":[[30.244893972597,13.1676489143],[22.504000000002,13.661000000003]]},"properties":[]},{"type":"Feature","geometry":{"type":"LineString","coordinates":[[30.244893972597,13.1676489143],[22.669000000003,13.521000000002]]},"properties":[]},{"type":"Feature","geometry":{"type":"LineString","coordinates":[[30.244893972597,13.1676489143],[22.669000000003,13.521000000002]]},"properties":[]},{"type":"Feature","geometry":{"type":"LineString","coordinates":[[30.244893972597,13.1676489143],[22.907000000004,10.902000000003]]},"properties":[]},{"type":"Feature","geometry":{"type":"LineString","coordinates":[[30.244893972597,13.1676489143],[22.897000000004,13.344000000002]]},"properties":[]},{"type":"Feature","geometry":{"type":"LineString","coordinates":[[30.244893972597,13.1676489143],[23.973749999998,12.971720000002]]},"properties":[]},{"type":"Feature","geometry":{"type":"LineString","coordinates":[[30.244893972597,13.1676489143],[22.468999999999,13.428]]},"properties":[]},{"type":"Feature","geometry":{"type":"LineString","coordinates":[[30.244893972597,13.1676489143],[22.476000000003,13.424000000001]]},"properties":[]},{"type":"Feature","geometry":{"type":"LineString","coordinates":[[30.244893972597,13.1676489143],[22.721,13.623]]},"properties":[]},{"type":"Feature","geometry":{"type":"LineString","coordinates":[[30.244893972597,13.1676489143],[21.901999999998,12.926999999999]]},"properties":[]},{"type":"Feature","geometry":{"type":"LineString","coordinates":[[30.244893972597,13.1676489143],[22.379999999996,13.494999999998]]},"properties":[]},{"type":"Feature","geometry":{"type":"LineString","coordinates":[[30.244893972597,13.1676489143],[22.460000000001,14.363999999996]]},"properties":[]},{"type":"Feature","geometry":{"type":"LineString","coordinates":[[30.244893972597,13.1676489143],[22.674999999996,13.689000000004]]},"properties":[]},{"type":"Feature","geometry":{"type":"LineString","coordinates":[[30.244893972597,13.1676489143],[22.640000000003,12.268999999997]]},"properties":[]},{"type":"Feature","geometry":{"type":"LineString","coordinates":[[30.244893972597,13.1676489143],[22.520000000004,13.997999999999]]},"properties":[]},{"type":"Feature","geometry":{"type":"LineString","coordinates":[[30.244893972597,13.1676489143],[22.190000000002,13.129999999998]]},"properties":[]},{"type":"Feature","geometry":{"type":"LineString","coordinates":[[30.244893972597,13.1676489143],[22.476999999996,14.551000000001]]},"properties":[]},{"type":"Feature","geometry":{"type":"LineString","coordinates":[[30.244893972597,13.1676489143],[22.867000000002,12.954000000003]]},"properties":[]},{"type":"Feature","geometry":{"type":"LineString","coordinates":[[30.244893972597,13.1676489143],[23.110305600001,13.238255599996]]},"properties":[]},{"type":"Feature","geometry":{"type":"LineString","coordinates":[[30.244893972597,13.1676489143],[23.328999999997,11.989]]},"properties":[]},{"type":"Feature","geometry":{"type":"LineString","coordinates":[[30.244893972597,13.1676489143],[22.273999999997,13.609000000001]]},"properties":[]},{"type":"Feature","geometry":{"type":"LineString","coordinates":[[30.244893972597,13.1676489143],[24.033579999996,12.966800000004]]},"properties":[]},{"type":"Feature","geometry":{"type":"LineString","coordinates":[[30.244893972597,13.1676489143],[24.034999999997,12.958000000002]]},"properties":[]},{"type":"Feature","geometry":{"type":"LineString","coordinates":[[30.244893972597,13.1676489143],[22.542,12.689000000001]]},"properties":[]},{"type":"Feature","geometry":{"type":"LineString","coordinates":[[30.244893972597,13.1676489143],[22.737999999996,12.027]]},"properties":[]},{"type":"Feature","geometry":{"type":"LineString","coordinates":[[30.244893972597,13.1676489143],[22.954000000002,13.054999999997]]},"properties":[]},{"type":"Feature","geometry":{"type":"LineString","coordinates":[[30.244893972597,13.1676489143],[22.855999999999,13.428999999997]]},"properties":[]},{"type":"Feature","geometry":{"type":"LineString","coordinates":[[30.244893972597,13.1676489143],[22.666999999999,12.522999999997]]},"properties":[]},{"type":"Feature","geometry":{"type":"LineString","coordinates":[[30.244893972597,13.1676489143],[22.666999999999,12.522999999997]]},"properties":[]},{"type":"Feature","geometry":{"type":"LineString","coordinates":[[30.244893972597,13.1676489143],[23.086999999997,13.738999999999]]},"properties":[]},{"type":"Feature","geometry":{"type":"LineString","coordinates":[[30.244893972597,13.1676489143],[22.250911099996,13.709655599998]]},"properties":[]},{"type":"Feature","geometry":{"type":"LineString","coordinates":[[30.244893972597,13.1676489143],[22.620000000001,13.999999999996]]},"properties":[]},{"type":"Feature","geometry":{"type":"LineString","coordinates":[[30.244893972597,13.1676489143],[22.500000000003,13.809999999998]]},"properties":[]},{"type":"Feature","geometry":{"type":"LineString","coordinates":[[30.244893972597,13.1676489143],[22.738999999998,13.191999999997]]},"properties":[]},{"type":"Feature","geometry":{"type":"LineString","coordinates":[[30.244893972597,13.1676489143],[22.466999999996,13.483000000003]]},"properties":[]},{"type":"Feature","geometry":{"type":"LineString","coordinates":[[30.244893972597,13.1676489143],[22.471000000003,13.445999999998]]},"properties":[]},{"type":"Feature","geometry":{"type":"LineString","coordinates":[[30.244893972597,13.1676489143],[22.616999999996,13.616999999999]]},"properties":[]},{"type":"Feature","geometry":{"type":"LineString","coordinates":[[30.244893972597,13.1676489143],[22.411,12.808000000001]]},"properties":[]},{"type":"Feature","geometry":{"type":"LineString","coordinates":[[30.244893972597,13.1676489143],[21.982966699996,13.076933299996]]},"properties":[]},{"type":"Feature","geometry":{"type":"LineString","coordinates":[[30.244893972597,13.1676489143],[23.479999999999,12.909999999997]]},"properties":[]},{"type":"Feature","geometry":{"type":"LineString","coordinates":[[30.244893972597,13.1676489143],[22.518000000001,13.52]]},"properties":[]},{"type":"Feature","geometry":{"type":"LineString","coordinates":[[30.244893972597,13.1676489143],[22.462000000004,12.306999999997]]},"properties":[]},{"type":"Feature","geometry":{"type":"LineString","coordinates":[[30.244893972597,13.1676489143],[22.964000000002,11.138999999996]]},"properties":[]},{"type":"Feature","geometry":{"type":"LineString","coordinates":[[30.244893972597,13.1676489143],[23.012000000002,13.997999999999]]},"properties":[]},{"type":"Feature","geometry":{"type":"LineString","coordinates":[[30.244893972597,13.1676489143],[22.637999999999,12.104000000003]]},"properties":[]},{"type":"Feature","geometry":{"type":"LineString","coordinates":[[30.244893972597,13.1676489143],[22.74,12.306000000003]]},"properties":[]},{"type":"Feature","geometry":{"type":"LineString","coordinates":[[30.244893972597,13.1676489143],[22.505999999996,12.450999999997]]},"properties":[]},{"type":"Feature","geometry":{"type":"LineString","coordinates":[[30.244893972597,13.1676489143],[22.974999999996,13.119000000004]]},"properties":[]},{"type":"Feature","geometry":{"type":"LineString","coordinates":[[30.244893972597,13.1676489143],[22.526999999999,13.567000000003]]},"properties":[]},{"type":"Feature","geometry":{"type":"LineString","coordinates":[[30.244893972597,13.1676489143],[22.689999999997,13.897999999996]]},"properties":[]},{"type":"Feature","geometry":{"type":"LineString","coordinates":[[30.244893972597,13.1676489143],[22.689999999997,13.897999999996]]},"properties":[]},{"type":"Feature","geometry":{"type":"LineString","coordinates":[[30.244893972597,13.1676489143],[23.144000000004,13.418]]},"properties":[]},{"type":"Feature","geometry":{"type":"LineString","coordinates":[[30.244893972597,13.1676489143],[22.487999999999,14.417000000002]]},"properties":[]},{"type":"Feature","geometry":{"type":"LineString","coordinates":[[30.244893972597,13.1676489143],[23.220000000002,13.809999999998]]},"properties":[]}],"properties":{"title":"Sorghum Complex","description":"","tags":""}}