{"type":"FeatureCollection","features":[{"type":"Feature","geometry":{"type":"Point","coordinates":[78.962879989009,20.593683997257]},"properties":{"description":"","address":"India","title":"Black Pepper"}},{"type":"Feature","geometry":{"type":"Point","coordinates":[133.77513598138,-25.27439799671]},"properties":{"supplychain_instance_id":"supplychain-1","stop_instance_id":"stop-44","description":"","address":"Australia","title":"Rice"}},{"type":"Feature","geometry":{"type":"Point","coordinates":[-81.515753488653,27.664827396449]},"properties":{"supplychain_instance_id":"supplychain-1","stop_instance_id":"stop-35","description":"","address":"Florida, USA","title":"Lemons"}},{"type":"Feature","geometry":{"type":"Point","coordinates":[-122.45803558295,38.291858995465]},"properties":{"supplychain_instance_id":"supplychain-1","stop_instance_id":"stop-22","description":"","address":"Sonoma, CA 95476, USA","title":"Olive Oil"}},{"type":"Feature","geometry":{"type":"Point","coordinates":[69.345115990347,30.375320996168]},"properties":{"supplychain_instance_id":"supplychain-1","stop_instance_id":"stop-4","description":"","address":"Pakistan","title":"Salt"}},{"type":"Feature","geometry":{"type":"Point","coordinates":[21.824311996962,39.074207995406]},"properties":{"supplychain_instance_id":"supplychain-1","stop_instance_id":"stop-1","description":"","address":"Greece","title":"Grape Leaves"}}],"properties":{"title":"Stuffed Grape Leaves","description":"Ingredients","tags":""}}