{"type":"FeatureCollection","features":[{"type":"Feature","geometry":{"type":"Point","coordinates":[11.577085098388,48.136606894885]},"properties":{"title":"match 1","address":"Munich, Germany","description":"","stop_instance_id":"stop-1","supplychain_instance_id":"supplychain-1"}},{"type":"Feature","geometry":{"type":"Point","coordinates":[14.268124398014,40.85177459528]},"properties":{"title":"match 1 ","address":"Naples, Italy","description":"","stop_instance_id":"stop-4","supplychain_instance_id":"supplychain-1"}},{"type":"Feature","geometry":{"type":"Point","coordinates":[11.577085098388,48.136606894885]},"properties":{"title":"match 2 ","address":"Munich, Germany","description":"","stop_instance_id":"stop-13","supplychain_instance_id":"supplychain-1"}},{"type":"Feature","geometry":{"type":"Point","coordinates":[-2.2479259996871,53.479250994737]},"properties":{"title":"match 2 ","address":"Manchester, UK","description":"","stop_instance_id":"stop-20","supplychain_instance_id":"supplychain-1"}},{"type":"Feature","geometry":{"type":"Point","coordinates":[11.577085098388,48.136606894885]},"properties":{"title":"match 3 ","address":"Munich, Germany","description":"","stop_instance_id":"stop-45","supplychain_instance_id":"supplychain-1"}},{"type":"Feature","geometry":{"type":"Point","coordinates":[-0.100593199986,39.939770595343]},"properties":{"title":"match 3 ","address":"12540 Villarreal, Castell\u00f3n, Spain","description":"","stop_instance_id":"stop-56","supplychain_instance_id":"supplychain-1"}},{"type":"Feature","geometry":{"type":"Point","coordinates":[14.268124398014,40.85177459528]},"properties":{"title":"match 4","address":"Naples, Italy","description":"","stop_instance_id":"stop-105","supplychain_instance_id":"supplychain-1"}},{"type":"Feature","geometry":{"type":"Point","coordinates":[11.577085098388,48.136606894885]},"properties":{"title":"match 4 ","address":"Munich, Germany","description":"","stop_instance_id":"stop-120","supplychain_instance_id":"supplychain-1"}},{"type":"Feature","geometry":{"type":"Point","coordinates":[14.268124398014,40.85177459528]},"properties":{"title":"match 5","address":"Naples, Italy","description":"","stop_instance_id":"stop-161","supplychain_instance_id":"supplychain-1"}},{"type":"Feature","geometry":{"type":"Point","coordinates":[-2.2479259996871,53.479250994737]},"properties":{"title":"match 5 ","address":"Manchester, UK","description":"","stop_instance_id":"stop-180","supplychain_instance_id":"supplychain-1"}},{"type":"Feature","geometry":{"type":"Point","coordinates":[14.268124398014,40.85177459528]},"properties":{"title":"match 6","address":"Naples, Italy","description":"","stop_instance_id":"stop-231","supplychain_instance_id":"supplychain-1"}},{"type":"Feature","geometry":{"type":"Point","coordinates":[-0.100593199986,39.939770595343]},"properties":{"title":"match 6","address":"12540 Villarreal, Castell\u00f3n, Spain","description":"","stop_instance_id":"stop-254","supplychain_instance_id":"supplychain-1"}},{"type":"Feature","geometry":{"type":"Point","coordinates":[-2.2479259996871,53.479250994737]},"properties":{"title":"match 7","address":"Manchester, UK","description":"","stop_instance_id":"stop-315","supplychain_instance_id":"supplychain-1"}},{"type":"Feature","geometry":{"type":"Point","coordinates":[11.577085098388,48.136606894885]},"properties":{"title":"match 7 ","address":"Munich, Germany","description":"","stop_instance_id":"stop-342","supplychain_instance_id":"supplychain-1"}},{"type":"Feature","geometry":{"type":"Point","coordinates":[-2.2479259996871,53.479250994737]},"properties":{"title":"match 8","address":"Manchester, UK","description":"","stop_instance_id":"stop-413","supplychain_instance_id":"supplychain-1"}},{"type":"Feature","geometry":{"type":"Point","coordinates":[14.268124398014,40.85177459528]},"properties":{"title":"match 8","address":"Naples, Italy","description":"","stop_instance_id":"stop-444","supplychain_instance_id":"supplychain-1"}},{"type":"Feature","geometry":{"type":"Point","coordinates":[-2.2479259996871,53.479250994737]},"properties":{"title":"match 9","address":"Manchester, UK","description":"","stop_instance_id":"stop-541","supplychain_instance_id":"supplychain-1"}},{"type":"Feature","geometry":{"type":"Point","coordinates":[-0.100593199986,39.939770595343]},"properties":{"title":"match 9","address":"12540 Villarreal, Castell\u00f3n, Spain","description":"","stop_instance_id":"stop-576","supplychain_instance_id":"supplychain-1"}},{"type":"Feature","geometry":{"type":"Point","coordinates":[-0.100593199986,39.939770595343]},"properties":{"title":"match 10","address":"12540 Villarreal, Castell\u00f3n, Spain","description":"","stop_instance_id":"stop-667","supplychain_instance_id":"supplychain-1"}},{"type":"Feature","geometry":{"type":"Point","coordinates":[11.577085098388,48.136606894885]},"properties":{"title":"match 10","address":"Munich, Germany","description":"","stop_instance_id":"stop-706","supplychain_instance_id":"supplychain-1"}},{"type":"Feature","geometry":{"type":"Point","coordinates":[-0.100593199986,39.939770595343]},"properties":{"title":"match 11","address":"12540 Villarreal, Castell\u00f3n, Spain","description":"","stop_instance_id":"stop-807","supplychain_instance_id":"supplychain-1"}},{"type":"Feature","geometry":{"type":"Point","coordinates":[14.268124398014,40.85177459528]},"properties":{"title":"match 11","address":"Naples, Italy","description":"","stop_instance_id":"stop-850","supplychain_instance_id":"supplychain-1"}},{"type":"Feature","geometry":{"type":"Point","coordinates":[-0.100593199986,39.939770595343]},"properties":{"title":"match 12","address":"12540 Villarreal, Castell\u00f3n, Spain","description":"","stop_instance_id":"stop-961","supplychain_instance_id":"supplychain-1"}},{"type":"Feature","geometry":{"type":"Point","coordinates":[-2.2479259996871,53.479250994737]},"properties":{"title":"match 12","address":"Manchester, UK","description":"","stop_instance_id":"stop-1008","supplychain_instance_id":"supplychain-1"}},{"type":"Feature","geometry":{"type":"Point","coordinates":[9.1865159987212,45.465454195005]},"properties":{"title":"match 13","address":"Milan, Italy","description":"","stop_instance_id":"stop-1129","supplychain_instance_id":"supplychain-1"}},{"type":"Feature","geometry":{"type":"Point","coordinates":[37.623679994763,55.749645994715]},"properties":{"title":"match 13","address":"Moscow, Russia","description":"","stop_instance_id":"stop-1180","supplychain_instance_id":"supplychain-1"}},{"type":"Feature","geometry":{"type":"Point","coordinates":[9.1865159987212,45.465454195005]},"properties":{"title":"match 14","address":"Milan, Italy","description":"","stop_instance_id":"stop-1285","supplychain_instance_id":"supplychain-1"}},{"type":"Feature","geometry":{"type":"Point","coordinates":[39.717799894471,41.001449995269]},"properties":{"title":"match 14","address":"Trabzon, Turkey","description":"","stop_instance_id":"stop-1340","supplychain_instance_id":"supplychain-1"}},{"type":"Feature","geometry":{"type":"Point","coordinates":[9.1865159987212,45.465454195005]},"properties":{"title":"match 15","address":"Milan, Italy","description":"","stop_instance_id":"stop-1453","supplychain_instance_id":"supplychain-1"}},{"type":"Feature","geometry":{"type":"Point","coordinates":[3.0572559995745,50.6292499948]},"properties":{"title":"match 15","address":"Lille, France","description":"","stop_instance_id":"stop-1570","supplychain_instance_id":"supplychain-1"}},{"type":"Feature","geometry":{"type":"Point","coordinates":[37.623679994763,55.749645994715]},"properties":{"title":"match 16","address":"Moscow, Russia","description":"","stop_instance_id":"stop-1721","supplychain_instance_id":"supplychain-1"}},{"type":"Feature","geometry":{"type":"Point","coordinates":[9.1865159987212,45.465454195005]},"properties":{"title":"match 16","address":"Milan, Italy","description":"","stop_instance_id":"stop-1784","supplychain_instance_id":"supplychain-1"}},{"type":"Feature","geometry":{"type":"Point","coordinates":[37.623679994763,55.749645994715]},"properties":{"title":"match 17","address":"Moscow, Russia","description":"","stop_instance_id":"stop-1945","supplychain_instance_id":"supplychain-1"}},{"type":"Feature","geometry":{"type":"Point","coordinates":[39.717799894471,41.001449995269]},"properties":{"title":"match 17","address":"Trabzon, Turkey","description":"","stop_instance_id":"stop-2012","supplychain_instance_id":"supplychain-1"}},{"type":"Feature","geometry":{"type":"Point","coordinates":[37.623679994763,55.749645994715]},"properties":{"title":"match 18","address":"Moscow, Russia","description":"","stop_instance_id":"stop-2183","supplychain_instance_id":"supplychain-1"}},{"type":"Feature","geometry":{"type":"Point","coordinates":[3.0572559995745,50.6292499948]},"properties":{"title":"match 18","address":"Lille, France","description":"","stop_instance_id":"stop-2254","supplychain_instance_id":"supplychain-1"}},{"type":"Feature","geometry":{"type":"Point","coordinates":[39.717799894471,41.001449995269]},"properties":{"title":"match 19","address":"Trabzon, Turkey","description":"","stop_instance_id":"stop-2435","supplychain_instance_id":"supplychain-1"}},{"type":"Feature","geometry":{"type":"Point","coordinates":[9.1865159987212,45.465454195005]},"properties":{"title":"match 19","address":"Milan, Italy","description":"","stop_instance_id":"stop-2510","supplychain_instance_id":"supplychain-1"}},{"type":"Feature","geometry":{"type":"Point","coordinates":[39.717799894471,41.001449995269]},"properties":{"title":"match 20","address":"Trabzon, Turkey","description":"","stop_instance_id":"stop-2701","supplychain_instance_id":"supplychain-1"}},{"type":"Feature","geometry":{"type":"Point","coordinates":[37.623679994763,55.749645994715]},"properties":{"title":"match 20","address":"Moscow, Russia","description":"","stop_instance_id":"stop-2780","supplychain_instance_id":"supplychain-1"}},{"type":"Feature","geometry":{"type":"Point","coordinates":[39.717799894471,41.001449995269]},"properties":{"title":"match 21","address":"Trabzon, Turkey","description":"","stop_instance_id":"stop-2981","supplychain_instance_id":"supplychain-1"}},{"type":"Feature","geometry":{"type":"Point","coordinates":[3.0572559995745,50.6292499948]},"properties":{"title":"match 21","address":"Lille, France","description":"","stop_instance_id":"stop-3064","supplychain_instance_id":"supplychain-1"}},{"type":"Feature","geometry":{"type":"Point","coordinates":[3.0572559995745,50.6292499948]},"properties":{"title":"match 22","address":"Lille, France","description":"","stop_instance_id":"stop-3275","supplychain_instance_id":"supplychain-1"}},{"type":"Feature","geometry":{"type":"Point","coordinates":[9.1865159987212,45.465454195005]},"properties":{"title":"match 22","address":"Milan, Italy","description":"","stop_instance_id":"stop-3362","supplychain_instance_id":"supplychain-1"}},{"type":"Feature","geometry":{"type":"Point","coordinates":[3.0572559995745,50.6292499948]},"properties":{"title":"match 23","address":"Lille, France","description":"","stop_instance_id":"stop-3583","supplychain_instance_id":"supplychain-1"}},{"type":"Feature","geometry":{"type":"Point","coordinates":[37.623679994763,55.749645994715]},"properties":{"title":"match 23","address":"Moscow, Russia","description":"","stop_instance_id":"stop-3674","supplychain_instance_id":"supplychain-1"}},{"type":"Feature","geometry":{"type":"Point","coordinates":[3.0572559995745,50.6292499948]},"properties":{"title":"match 24","address":"Lille, France","description":"","stop_instance_id":"stop-3905","supplychain_instance_id":"supplychain-1"}},{"type":"Feature","geometry":{"type":"Point","coordinates":[39.717799894471,41.001449995269]},"properties":{"title":"match 24","address":"Trabzon, Turkey","description":"","stop_instance_id":"stop-4000","supplychain_instance_id":"supplychain-1"}},{"type":"Feature","geometry":{"type":"Point","coordinates":[-9.150036398726,38.725299295432]},"properties":{"title":"match 25","address":"2715-311 Lisbon, Portugal","description":"","stop_instance_id":"stop-4241","supplychain_instance_id":"supplychain-1"}},{"type":"Feature","geometry":{"type":"Point","coordinates":[7.5925726989431,47.557420994908]},"properties":{"title":"match 25","address":"Basel, Switzerland","description":"","stop_instance_id":"stop-4340","supplychain_instance_id":"supplychain-1"}},{"type":"Feature","geometry":{"type":"Point","coordinates":[-9.150036398726,38.725299295432]},"properties":{"title":"match 26","address":"2715-311 Lisbon, Portugal","description":"","stop_instance_id":"stop-4591","supplychain_instance_id":"supplychain-1"}},{"type":"Feature","geometry":{"type":"Point","coordinates":[-2.2479259996871,53.479250994737]},"properties":{"title":"match 26","address":"Manchester, UK","description":"","stop_instance_id":"stop-4694","supplychain_instance_id":"supplychain-1"}},{"type":"Feature","geometry":{"type":"Point","coordinates":[-9.150036398726,38.725299295432]},"properties":{"title":"match 27","address":"2715-311 Lisbon, Portugal","description":"","stop_instance_id":"stop-4955","supplychain_instance_id":"supplychain-1"}},{"type":"Feature","geometry":{"type":"Point","coordinates":[28.031043996098,45.425719995007]},"properties":{"title":"match 27","address":"Gala\u021bi, Romania","description":"","stop_instance_id":"stop-5062","supplychain_instance_id":"supplychain-1"}},{"type":"Feature","geometry":{"type":"Point","coordinates":[7.5925726989431,47.557420994908]},"properties":{"title":"match 28","address":"Basel, Switzerland","description":"","stop_instance_id":"stop-5387","supplychain_instance_id":"supplychain-1"}},{"type":"Feature","geometry":{"type":"Point","coordinates":[-9.150036398726,38.725299295432]},"properties":{"title":"match 28","address":"2715-311 Lisbon, Portugal","description":"","stop_instance_id":"stop-5608","supplychain_instance_id":"supplychain-1"}},{"type":"Feature","geometry":{"type":"Point","coordinates":[7.5925726989431,47.557420994908]},"properties":{"title":"match 29","address":"Basel, Switzerland","description":"","stop_instance_id":"stop-5833","supplychain_instance_id":"supplychain-1"}},{"type":"Feature","geometry":{"type":"Point","coordinates":[-2.2479259996871,53.479250994737]},"properties":{"title":"match 29","address":"Manchester, UK","description":"","stop_instance_id":"stop-5948","supplychain_instance_id":"supplychain-1"}},{"type":"Feature","geometry":{"type":"Point","coordinates":[7.5925726989431,47.557420994908]},"properties":{"title":"match 30","address":"Basel, Switzerland","description":"","stop_instance_id":"stop-6239","supplychain_instance_id":"supplychain-1"}},{"type":"Feature","geometry":{"type":"Point","coordinates":[28.031043996098,45.425719995007]},"properties":{"title":"match 30","address":"Gala\u021bi, Romania","description":"","stop_instance_id":"stop-6358","supplychain_instance_id":"supplychain-1"}},{"type":"Feature","geometry":{"type":"Point","coordinates":[-2.2479259996871,53.479250994737]},"properties":{"title":"match 31","address":"Manchester, UK","description":"","stop_instance_id":"stop-6659","supplychain_instance_id":"supplychain-1"}},{"type":"Feature","geometry":{"type":"Point","coordinates":[-9.150036398726,38.725299295432]},"properties":{"title":"match 31","address":"2715-311 Lisbon, Portugal","description":"","stop_instance_id":"stop-6782","supplychain_instance_id":"supplychain-1"}},{"type":"Feature","geometry":{"type":"Point","coordinates":[-2.2479259996871,53.479250994737]},"properties":{"title":"match 32","address":"Manchester, UK","description":"","stop_instance_id":"stop-7093","supplychain_instance_id":"supplychain-1"}},{"type":"Feature","geometry":{"type":"Point","coordinates":[7.5925726989431,47.557420994908]},"properties":{"title":"match 32","address":"Basel, Switzerland","description":"","stop_instance_id":"stop-7220","supplychain_instance_id":"supplychain-1"}},{"type":"Feature","geometry":{"type":"Point","coordinates":[-2.2479259996871,53.479250994737]},"properties":{"title":"match 33","address":"Manchester, UK","description":"","stop_instance_id":"stop-7541","supplychain_instance_id":"supplychain-1"}},{"type":"Feature","geometry":{"type":"Point","coordinates":[28.031043996098,45.425719995007]},"properties":{"title":"match 33","address":"Gala\u021bi, Romania","description":"","stop_instance_id":"stop-7672","supplychain_instance_id":"supplychain-1"}},{"type":"Feature","geometry":{"type":"Point","coordinates":[28.031043996098,45.425719995007]},"properties":{"title":"match 34","address":"Gala\u021bi, Romania","description":"","stop_instance_id":"stop-7937","supplychain_instance_id":"supplychain-1"}},{"type":"Feature","geometry":{"type":"Point","coordinates":[-9.150036398726,38.725299295432]},"properties":{"title":"match 34","address":"2715-311 Lisbon, Portugal","description":"","stop_instance_id":"stop-8072","supplychain_instance_id":"supplychain-1"}},{"type":"Feature","geometry":{"type":"Point","coordinates":[28.031043996098,45.425719995007]},"properties":{"title":"match 35","address":"Gala\u021bi, Romania","description":"","stop_instance_id":"stop-8413","supplychain_instance_id":"supplychain-1"}},{"type":"Feature","geometry":{"type":"Point","coordinates":[7.5925726989431,47.557420994908]},"properties":{"title":"match 35","address":"Basel, Switzerland","description":"","stop_instance_id":"stop-8552","supplychain_instance_id":"supplychain-1"}},{"type":"Feature","geometry":{"type":"Point","coordinates":[28.031043996098,45.425719995007]},"properties":{"title":"match 36","address":"Gala\u021bi, Romania","description":"","stop_instance_id":"stop-8903","supplychain_instance_id":"supplychain-1"}},{"type":"Feature","geometry":{"type":"Point","coordinates":[-2.2479259996871,53.479250994737]},"properties":{"title":"match 26","address":"Manchester, UK","description":"","stop_instance_id":"stop-9046","supplychain_instance_id":"supplychain-1"}},{"type":"Feature","geometry":{"type":"Point","coordinates":[-3.7037901994844,40.416775395309]},"properties":{"title":"match 37","address":"Madrid, Spain","description":"","stop_instance_id":"stop-9479","supplychain_instance_id":"supplychain-1"}},{"type":"Feature","geometry":{"type":"Point","coordinates":[4.8356589993269,45.76404299499]},"properties":{"title":"match 37","address":"Lyon, France","description":"","stop_instance_id":"stop-9626","supplychain_instance_id":"supplychain-1"}},{"type":"Feature","geometry":{"type":"Point","coordinates":[-3.7037901994844,40.416775395309]},"properties":{"title":"match 38","address":"Madrid, Spain","description":"","stop_instance_id":"stop-9923","supplychain_instance_id":"supplychain-1"}},{"type":"Feature","geometry":{"type":"Point","coordinates":[4.8951678993186,52.370215694757]},"properties":{"title":"match 38","address":"Amsterdam, The Netherlands","description":"","stop_instance_id":"stop-10074","supplychain_instance_id":"supplychain-1"}},{"type":"Feature","geometry":{"type":"Point","coordinates":[-3.7037901994844,40.416775395309]},"properties":{"title":"match 39","address":"Madrid, Spain","description":"","stop_instance_id":"stop-10379","supplychain_instance_id":"supplychain-1"}},{"type":"Feature","geometry":{"type":"Point","coordinates":[15.977894897776,45.813029294988]},"properties":{"title":"match 39","address":"Zagreb, Croatia","description":"","stop_instance_id":"stop-10534","supplychain_instance_id":"supplychain-1"}},{"type":"Feature","geometry":{"type":"Point","coordinates":[4.8356589993269,45.76404299499]},"properties":{"title":"match 40","address":"Lyon, France","description":"","stop_instance_id":"stop-10847","supplychain_instance_id":"supplychain-1"}},{"type":"Feature","geometry":{"type":"Point","coordinates":[-3.7037901994844,40.416775395309]},"properties":{"title":"match 40","address":"Madrid, Spain","description":"","stop_instance_id":"stop-11006","supplychain_instance_id":"supplychain-1"}},{"type":"Feature","geometry":{"type":"Point","coordinates":[4.8356589993269,45.76404299499]},"properties":{"title":"match 41","address":"Lyon, France","description":"","stop_instance_id":"stop-11407","supplychain_instance_id":"supplychain-1"}},{"type":"Feature","geometry":{"type":"Point","coordinates":[4.8951678993186,52.370215694757]},"properties":{"title":"match 41","address":"Amsterdam, The Netherlands","description":"","stop_instance_id":"stop-11570","supplychain_instance_id":"supplychain-1"}},{"type":"Feature","geometry":{"type":"Point","coordinates":[4.8356589993269,45.76404299499]},"properties":{"title":"match 42","address":"Lyon, France","description":"","stop_instance_id":"stop-11981","supplychain_instance_id":"supplychain-1"}},{"type":"Feature","geometry":{"type":"Point","coordinates":[15.977894897776,45.813029294988]},"properties":{"title":"match 42","address":"Zagreb, Croatia","description":"","stop_instance_id":"stop-12148","supplychain_instance_id":"supplychain-1"}},{"type":"Feature","geometry":{"type":"Point","coordinates":[4.8951678993186,52.370215694757]},"properties":{"title":"match 43","address":"Amsterdam, The Netherlands","description":"","stop_instance_id":"stop-12653","supplychain_instance_id":"supplychain-1"}},{"type":"Feature","geometry":{"type":"Point","coordinates":[-3.7037901994844,40.416775395309]},"properties":{"title":"match 43","address":"Madrid, Spain","description":"","stop_instance_id":"stop-12824","supplychain_instance_id":"supplychain-1"}},{"type":"Feature","geometry":{"type":"Point","coordinates":[4.8951678993186,52.370215694757]},"properties":{"title":"match 44","address":"Amsterdam, The Netherlands","description":"","stop_instance_id":"stop-13169","supplychain_instance_id":"supplychain-1"}},{"type":"Feature","geometry":{"type":"Point","coordinates":[4.8356589993269,45.76404299499]},"properties":{"title":"match 44","address":"Lyon, France","description":"","stop_instance_id":"stop-13344","supplychain_instance_id":"supplychain-1"}},{"type":"Feature","geometry":{"type":"Point","coordinates":[4.8951678993186,52.370215694757]},"properties":{"title":"match 45","address":"Amsterdam, The Netherlands","description":"","stop_instance_id":"stop-13785","supplychain_instance_id":"supplychain-1"}},{"type":"Feature","geometry":{"type":"Point","coordinates":[15.977894897776,45.813029294988]},"properties":{"title":"match 45","address":"Zagreb, Croatia","description":"","stop_instance_id":"stop-13964","supplychain_instance_id":"supplychain-1"}},{"type":"Feature","geometry":{"type":"Point","coordinates":[15.977894897776,45.813029294988]},"properties":{"title":"match 46","address":"Zagreb, Croatia","description":"","stop_instance_id":"stop-14415","supplychain_instance_id":"supplychain-1"}},{"type":"Feature","geometry":{"type":"Point","coordinates":[-3.7037901994844,40.416775395309]},"properties":{"title":"match 46","address":"Madrid, Spain","description":"","stop_instance_id":"stop-14598","supplychain_instance_id":"supplychain-1"}},{"type":"Feature","geometry":{"type":"Point","coordinates":[15.977894897776,45.813029294988]},"properties":{"title":"match 47","address":"Zagreb, Croatia","description":"","stop_instance_id":"stop-15059","supplychain_instance_id":"supplychain-1"}},{"type":"Feature","geometry":{"type":"Point","coordinates":[4.8356589993269,45.76404299499]},"properties":{"title":"match 47","address":"Lyon, France","description":"","stop_instance_id":"stop-15246","supplychain_instance_id":"supplychain-1"}},{"type":"Feature","geometry":{"type":"Point","coordinates":[15.977894897776,45.813029294988]},"properties":{"title":"match 48","address":"Zagreb, Croatia","description":"","stop_instance_id":"stop-15717","supplychain_instance_id":"supplychain-1"}},{"type":"Feature","geometry":{"type":"Point","coordinates":[4.8951678993186,52.370215694757]},"properties":{"title":"match 48","address":"Amsterdam, The Netherlands","description":"","stop_instance_id":"stop-15908","supplychain_instance_id":"supplychain-1"}},{"type":"Feature","geometry":{"type":"Point","coordinates":[-0.11982439998332,51.511213894776]},"properties":{"title":"match 49","address":"London, UK","description":"","stop_instance_id":"stop-16389","supplychain_instance_id":"supplychain-1"}},{"type":"Feature","geometry":{"type":"Point","coordinates":[7.0192195990229,51.045924794788]},"properties":{"title":"match 49","address":"Leverkusen, Germany","description":"","stop_instance_id":"stop-16584","supplychain_instance_id":"supplychain-1"}},{"type":"Feature","geometry":{"type":"Point","coordinates":[-0.11982439998332,51.511213894776]},"properties":{"title":"match 50","address":"London, UK","description":"","stop_instance_id":"stop-16977","supplychain_instance_id":"supplychain-1"}},{"type":"Feature","geometry":{"type":"Point","coordinates":[-0.37628809994762,39.469907495377]},"properties":{"title":"match 50","address":"Valencia, Spain","description":"","stop_instance_id":"stop-17176","supplychain_instance_id":"supplychain-1"}},{"type":"Feature","geometry":{"type":"Point","coordinates":[-0.11982439998332,51.511213894776]},"properties":{"title":"match 51","address":"London, UK","description":"","stop_instance_id":"stop-17677","supplychain_instance_id":"supplychain-1"}},{"type":"Feature","geometry":{"type":"Point","coordinates":[5.5017359992342,50.96208499479]},"properties":{"title":"match 51","address":"Genk, Belgium","description":"","stop_instance_id":"stop-17880","supplychain_instance_id":"supplychain-1"}},{"type":"Feature","geometry":{"type":"Point","coordinates":[7.0192195990229,51.045924794788]},"properties":{"title":"match 52","address":"Leverkusen, Germany","description":"","stop_instance_id":"stop-18391","supplychain_instance_id":"supplychain-1"}},{"type":"Feature","geometry":{"type":"Point","coordinates":[-0.11982439998332,51.511213894776]},"properties":{"title":"match 52","address":"London, UK","description":"","stop_instance_id":"stop-18598","supplychain_instance_id":"supplychain-1"}},{"type":"Feature","geometry":{"type":"Point","coordinates":[7.0192195990229,51.045924794788]},"properties":{"title":"match 53","address":"Leverkusen, Germany","description":"","stop_instance_id":"stop-19119","supplychain_instance_id":"supplychain-1"}},{"type":"Feature","geometry":{"type":"Point","coordinates":[-0.37628809994762,39.469907495377]},"properties":{"title":"match 53","address":"Valencia, Spain","description":"","stop_instance_id":"stop-19330","supplychain_instance_id":"supplychain-1"}},{"type":"Feature","geometry":{"type":"Point","coordinates":[7.0192195990229,51.045924794788]},"properties":{"title":"match 54","address":"Leverkusen, Germany","description":"","stop_instance_id":"stop-19861","supplychain_instance_id":"supplychain-1"}},{"type":"Feature","geometry":{"type":"Point","coordinates":[5.5017359992342,50.96208499479]},"properties":{"title":"match 54 to match 54","address":"Genk, Belgium","description":"","stop_instance_id":"stop-20076","supplychain_instance_id":"supplychain-1","weight":"0","co2e":"0","energy":"0","water":"0","youtube:link":""}},{"type":"Feature","geometry":{"type":"Point","coordinates":[-0.37628809994762,39.469907495377]},"properties":{"title":"match 55","address":"Valencia, Spain","description":"","stop_instance_id":"stop-20941","supplychain_instance_id":"supplychain-1"}},{"type":"Feature","geometry":{"type":"Point","coordinates":[-0.11982439998332,51.511213894776]},"properties":{"title":"match 55","address":"London, UK","description":"","stop_instance_id":"stop-21378","supplychain_instance_id":"supplychain-1"}},{"type":"Feature","geometry":{"type":"Point","coordinates":[-0.37628809994762,39.469907495377]},"properties":{"title":"match 56","address":"Valencia, Spain","description":"","stop_instance_id":"stop-21929","supplychain_instance_id":"supplychain-1"}},{"type":"Feature","geometry":{"type":"Point","coordinates":[7.0192195990229,51.045924794788]},"properties":{"title":"match 56","address":"Leverkusen, Germany","description":"","stop_instance_id":"stop-22152","supplychain_instance_id":"supplychain-1"}},{"type":"Feature","geometry":{"type":"Point","coordinates":[-0.37628809994762,39.469907495377]},"properties":{"title":"match 57","address":"Valencia, Spain","description":"","stop_instance_id":"stop-22713","supplychain_instance_id":"supplychain-1"}},{"type":"Feature","geometry":{"type":"Point","coordinates":[5.5017359992342,50.96208499479]},"properties":{"title":"match 57","address":"Genk, Belgium","description":"","stop_instance_id":"stop-22940","supplychain_instance_id":"supplychain-1"}},{"type":"Feature","geometry":{"type":"Point","coordinates":[5.5017359992342,50.96208499479]},"properties":{"title":"match 58","address":"Genk, Belgium","description":"","stop_instance_id":"stop-23511","supplychain_instance_id":"supplychain-1"}},{"type":"Feature","geometry":{"type":"Point","coordinates":[-0.11982439998332,51.511213894776]},"properties":{"title":"match 58","address":"London, UK","description":"","stop_instance_id":"stop-23742","supplychain_instance_id":"supplychain-1"}},{"type":"Feature","geometry":{"type":"Point","coordinates":[5.5017359992342,50.96208499479]},"properties":{"title":"match 59","address":"Genk, Belgium","description":"","stop_instance_id":"stop-24323","supplychain_instance_id":"supplychain-1"}},{"type":"Feature","geometry":{"type":"Point","coordinates":[7.0192195990229,51.045924794788]},"properties":{"title":"match 59 to match 59","address":"Leverkusen, Germany","description":"","stop_instance_id":"stop-24558","supplychain_instance_id":"supplychain-1","weight":"0","co2e":"0","energy":"0","water":"0","youtube:link":""}},{"type":"Feature","geometry":{"type":"Point","coordinates":[5.5017359992342,50.96208499479]},"properties":{"title":"match 60","address":"Genk, Belgium","description":"","stop_instance_id":"stop-25267","supplychain_instance_id":"supplychain-1"}},{"type":"Feature","geometry":{"type":"Point","coordinates":[-0.37628809994762,39.469907495377]},"properties":{"title":"match 60","address":"Valencia, Spain","description":"","stop_instance_id":"stop-25506","supplychain_instance_id":"supplychain-1"}},{"type":"Feature","geometry":{"type":"Point","coordinates":[-0.11982439998332,51.511213894776]},"properties":{"title":"match 61","address":"London, UK","description":"","stop_instance_id":"stop-26470","supplychain_instance_id":"supplychain-1"}},{"type":"Feature","geometry":{"type":"Point","coordinates":[5.3697799992526,43.296481995125]},"properties":{"title":"match 61","address":"Marseille, France","description":"","stop_instance_id":"stop-26713","supplychain_instance_id":"supplychain-1"}},{"type":"Feature","geometry":{"type":"Point","coordinates":[-0.11982439998332,51.511213894776]},"properties":{"title":"match 62","address":"London, UK","description":"","stop_instance_id":"stop-27202","supplychain_instance_id":"supplychain-1"}},{"type":"Feature","geometry":{"type":"Point","coordinates":[23.729309696697,37.983715495489]},"properties":{"title":"match 62","address":"Athens, Greece","description":"","stop_instance_id":"stop-27449","supplychain_instance_id":"supplychain-1"}},{"type":"Feature","geometry":{"type":"Point","coordinates":[-0.11982439998332,51.511213894776]},"properties":{"title":"match 63","address":"London, UK","description":"","stop_instance_id":"stop-28566","supplychain_instance_id":"supplychain-1"}},{"type":"Feature","geometry":{"type":"Point","coordinates":[7.4652980989608,51.513587194776]},"properties":{"title":"match 63","address":"Dortmund, Germany","description":"","stop_instance_id":"stop-28817","supplychain_instance_id":"supplychain-1"}},{"type":"Feature","geometry":{"type":"Point","coordinates":[5.3697799992526,43.296481995125]},"properties":{"title":"match 64","address":"Marseille, France","description":"","stop_instance_id":"stop-29448","supplychain_instance_id":"supplychain-1"}},{"type":"Feature","geometry":{"type":"Point","coordinates":[-0.11982439998332,51.511213894776]},"properties":{"title":"match 64","address":"London, UK","description":"","stop_instance_id":"stop-29957","supplychain_instance_id":"supplychain-1"}},{"type":"Feature","geometry":{"type":"Point","coordinates":[5.3697799992526,43.296481995125]},"properties":{"title":"match 65","address":"Marseille, France","description":"","stop_instance_id":"stop-30854","supplychain_instance_id":"supplychain-1"}},{"type":"Feature","geometry":{"type":"Point","coordinates":[23.729309696697,37.983715495489]},"properties":{"title":"match 65","address":"Athens, Greece","description":"","stop_instance_id":"stop-31113","supplychain_instance_id":"supplychain-1"}},{"type":"Feature","geometry":{"type":"Point","coordinates":[5.3697799992526,43.296481995125]},"properties":{"title":"match 66","address":"Marseille, France","description":"","stop_instance_id":"stop-31764","supplychain_instance_id":"supplychain-1"}},{"type":"Feature","geometry":{"type":"Point","coordinates":[7.4652980989608,51.513587194776]},"properties":{"title":"match 66","address":"Dortmund, Germany","description":"","stop_instance_id":"stop-32027","supplychain_instance_id":"supplychain-1"}},{"type":"Feature","geometry":{"type":"Point","coordinates":[23.729309696697,37.983715495489]},"properties":{"title":"match 67","address":"Athens, Greece","description":"","stop_instance_id":"stop-32688","supplychain_instance_id":"supplychain-1"}},{"type":"Feature","geometry":{"type":"Point","coordinates":[-0.11982439998332,51.511213894776]},"properties":{"title":"match 67","address":"London, UK","description":"","stop_instance_id":"stop-32955","supplychain_instance_id":"supplychain-1"}},{"type":"Feature","geometry":{"type":"Point","coordinates":[23.729309696697,37.983715495489]},"properties":{"title":"match 68","address":"Athens, Greece","description":"","stop_instance_id":"stop-33626","supplychain_instance_id":"supplychain-1"}},{"type":"Feature","geometry":{"type":"Point","coordinates":[5.3697799992526,43.296481995125]},"properties":{"title":"match 68","address":"Marseille, France","description":"","stop_instance_id":"stop-33897","supplychain_instance_id":"supplychain-1"}},{"type":"Feature","geometry":{"type":"Point","coordinates":[23.729309696697,37.983715495489]},"properties":{"title":"match 69","address":"Athens, Greece","description":"","stop_instance_id":"stop-34578","supplychain_instance_id":"supplychain-1"}},{"type":"Feature","geometry":{"type":"Point","coordinates":[7.4652980989608,51.513587194776]},"properties":{"title":"match 69","address":"Dortmund, Germany","description":"","stop_instance_id":"stop-34853","supplychain_instance_id":"supplychain-1"}},{"type":"Feature","geometry":{"type":"Point","coordinates":[7.4652980989608,51.513587194776]},"properties":{"title":"match 70","address":"Dortmund, Germany","description":"","stop_instance_id":"stop-35544","supplychain_instance_id":"supplychain-1"}},{"type":"Feature","geometry":{"type":"Point","coordinates":[-0.11982439998332,51.511213894776]},"properties":{"title":"match 70","address":"London, UK","description":"","stop_instance_id":"stop-35823","supplychain_instance_id":"supplychain-1"}},{"type":"Feature","geometry":{"type":"Point","coordinates":[7.4652980989608,51.513587194776]},"properties":{"title":"match 71","address":"Dortmund, Germany","description":"","stop_instance_id":"stop-36384","supplychain_instance_id":"supplychain-1"}},{"type":"Feature","geometry":{"type":"Point","coordinates":[5.3697799992526,43.296481995125]},"properties":{"title":"match 71","address":"Marseille, France","description":"","stop_instance_id":"stop-36667","supplychain_instance_id":"supplychain-1"}},{"type":"Feature","geometry":{"type":"Point","coordinates":[7.4652980989608,51.513587194776]},"properties":{"title":"match 72","address":"Dortmund, Germany","description":"","stop_instance_id":"stop-37236","supplychain_instance_id":"supplychain-1"}},{"type":"Feature","geometry":{"type":"Point","coordinates":[23.729309696697,37.983715495489]},"properties":{"title":"match 72","address":"Athens, Greece","description":"","stop_instance_id":"stop-37523","supplychain_instance_id":"supplychain-1"}},{"type":"Feature","geometry":{"type":"Point","coordinates":[33.429858995346,35.126412995724]},"properties":{"title":"match 73","address":"Cyprus","description":"","stop_instance_id":"stop-38100","supplychain_instance_id":"supplychain-1"}},{"type":"Feature","geometry":{"type":"Point","coordinates":[30.409997995767,59.908019994746]},"properties":{"title":"match 73","address":"Saint Petersburg, Russia","description":"","stop_instance_id":"stop-38391","supplychain_instance_id":"supplychain-1"}},{"type":"Feature","geometry":{"type":"Point","coordinates":[33.429858995346,35.126412995724]},"properties":{"title":"match 74","address":"Cyprus","description":"","stop_instance_id":"stop-39122","supplychain_instance_id":"supplychain-1"}},{"type":"Feature","geometry":{"type":"Point","coordinates":[-8.6239253987995,41.156689195259]},"properties":{"title":"match 74","address":"4440-452 Oporto, Portugal","description":"","stop_instance_id":"stop-39417","supplychain_instance_id":"supplychain-1"}},{"type":"Feature","geometry":{"type":"Point","coordinates":[33.429858995346,35.126412995724]},"properties":{"title":"match 75","address":"Cyprus","description":"","stop_instance_id":"stop-40010","supplychain_instance_id":"supplychain-1"}},{"type":"Feature","geometry":{"type":"Point","coordinates":[37.802849994738,48.01588299489]},"properties":{"title":"match 75","address":"Donetsk, Donetsk Oblast, Ukraine","description":"","stop_instance_id":"stop-40309","supplychain_instance_id":"supplychain-1"}},{"type":"Feature","geometry":{"type":"Point","coordinates":[30.409997995767,59.908019994746]},"properties":{"title":"match 76","address":"Saint Petersburg, Russia","description":"","stop_instance_id":"stop-40910","supplychain_instance_id":"supplychain-1"}},{"type":"Feature","geometry":{"type":"Point","coordinates":[33.429858995346,35.126412995724]},"properties":{"title":"match 76","address":"Cyprus","description":"","stop_instance_id":"stop-41213","supplychain_instance_id":"supplychain-1"}},{"type":"Feature","geometry":{"type":"Point","coordinates":[30.409997995767,59.908019994746]},"properties":{"title":"match 77","address":"Saint Petersburg, Russia","description":"","stop_instance_id":"stop-41974","supplychain_instance_id":"supplychain-1"}},{"type":"Feature","geometry":{"type":"Point","coordinates":[-8.6239253987995,41.156689195259]},"properties":{"title":"match 77","address":"4440-452 Oporto, Portugal","description":"","stop_instance_id":"stop-42281","supplychain_instance_id":"supplychain-1"}},{"type":"Feature","geometry":{"type":"Point","coordinates":[30.409997995767,59.908019994746]},"properties":{"title":"match 78","address":"Saint Petersburg, Russia","description":"","stop_instance_id":"stop-42898","supplychain_instance_id":"supplychain-1"}},{"type":"Feature","geometry":{"type":"Point","coordinates":[37.802849994738,48.01588299489]},"properties":{"title":"match 78","address":"Donetsk, Donetsk Oblast, Ukraine","description":"","stop_instance_id":"stop-43209","supplychain_instance_id":"supplychain-1"}},{"type":"Feature","geometry":{"type":"Point","coordinates":[-8.6239253987995,41.156689195259]},"properties":{"title":"match 79","address":"4440-452 Oporto, Portugal","description":"","stop_instance_id":"stop-43834","supplychain_instance_id":"supplychain-1"}},{"type":"Feature","geometry":{"type":"Point","coordinates":[33.429858995346,35.126412995724]},"properties":{"title":"match 79","address":"Cyprus","description":"","stop_instance_id":"stop-44149","supplychain_instance_id":"supplychain-1"}},{"type":"Feature","geometry":{"type":"Point","coordinates":[-8.6239253987995,41.156689195259]},"properties":{"title":"match 80","address":"4440-452 Oporto, Portugal","description":"","stop_instance_id":"stop-44782","supplychain_instance_id":"supplychain-1"}},{"type":"Feature","geometry":{"type":"Point","coordinates":[30.409997995767,59.908019994746]},"properties":{"title":"match 80","address":"Saint Petersburg, Russia","description":"","stop_instance_id":"stop-45101","supplychain_instance_id":"supplychain-1"}},{"type":"Feature","geometry":{"type":"Point","coordinates":[-8.6239253987995,41.156689195259]},"properties":{"title":"match 81","address":"4440-452 Oporto, Portugal","description":"","stop_instance_id":"stop-45742","supplychain_instance_id":"supplychain-1"}},{"type":"Feature","geometry":{"type":"Point","coordinates":[37.802849994738,48.01588299489]},"properties":{"title":"match 81","address":"Donetsk, Donetsk Oblast, Ukraine","description":"","stop_instance_id":"stop-46065","supplychain_instance_id":"supplychain-1"}},{"type":"Feature","geometry":{"type":"Point","coordinates":[37.802849994738,48.01588299489]},"properties":{"title":"match 82","address":"Donetsk, Donetsk Oblast, Ukraine","description":"","stop_instance_id":"stop-46714","supplychain_instance_id":"supplychain-1"}},{"type":"Feature","geometry":{"type":"Point","coordinates":[33.429858995346,35.126412995724]},"properties":{"title":"match 82","address":"Cyprus","description":"","stop_instance_id":"stop-47041","supplychain_instance_id":"supplychain-1"}},{"type":"Feature","geometry":{"type":"Point","coordinates":[37.802849994738,48.01588299489]},"properties":{"title":"match 83","address":"Donetsk, Donetsk Oblast, Ukraine","description":"","stop_instance_id":"stop-47698","supplychain_instance_id":"supplychain-1"}},{"type":"Feature","geometry":{"type":"Point","coordinates":[30.409997995767,59.908019994746]},"properties":{"title":"match 83","address":"Saint Petersburg, Russia","description":"","stop_instance_id":"stop-48029","supplychain_instance_id":"supplychain-1"}},{"type":"Feature","geometry":{"type":"Point","coordinates":[37.802849994738,48.01588299489]},"properties":{"title":"match 84","address":"Donetsk, Donetsk Oblast, Ukraine","description":"","stop_instance_id":"stop-48694","supplychain_instance_id":"supplychain-1"}},{"type":"Feature","geometry":{"type":"Point","coordinates":[-8.6239253987995,41.156689195259]},"properties":{"title":"match 84","address":"4440-452 Oporto, Portugal","description":"","stop_instance_id":"stop-49029","supplychain_instance_id":"supplychain-1"}},{"type":"Feature","geometry":{"type":"Point","coordinates":[2.1734034996975,41.385063895244]},"properties":{"title":"match 85","address":"Barcelona, Spain","description":"","stop_instance_id":"stop-49870","supplychain_instance_id":"supplychain-1"}},{"type":"Feature","geometry":{"type":"Point","coordinates":[9.1865159987212,45.465454195005]},"properties":{"title":"match 85","address":"Milan, Italy","description":"","stop_instance_id":"stop-50209","supplychain_instance_id":"supplychain-1"}},{"type":"Feature","geometry":{"type":"Point","coordinates":[2.1734034996975,41.385063895244]},"properties":{"title":"match 86","address":"Barcelona, Spain","description":"","stop_instance_id":"stop-50890","supplychain_instance_id":"supplychain-1"}},{"type":"Feature","geometry":{"type":"Point","coordinates":[13.315724598146,49.413481194838]},"properties":{"title":"match 86","address":"Plze\u0148 Region Czech Republic","description":"","stop_instance_id":"stop-51233","supplychain_instance_id":"supplychain-1"}},{"type":"Feature","geometry":{"type":"Point","coordinates":[2.1734034996975,41.385063895244]},"properties":{"title":"match 87","address":"Barcelona, Spain","description":"","stop_instance_id":"stop-51922","supplychain_instance_id":"supplychain-1"}},{"type":"Feature","geometry":{"type":"Point","coordinates":[28.499999996033,54.233333294727]},"properties":{"title":"match 87","address":"Barysaw, Belarus","description":"","stop_instance_id":"stop-52269","supplychain_instance_id":"supplychain-1"}},{"type":"Feature","geometry":{"type":"Point","coordinates":[9.1865159987212,45.465454195005]},"properties":{"title":"match 88","address":"Milan, Italy","description":"","stop_instance_id":"stop-52966","supplychain_instance_id":"supplychain-1"}},{"type":"Feature","geometry":{"type":"Point","coordinates":[2.1734034996975,41.385063895244]},"properties":{"title":"match 88","address":"Barcelona, Spain","description":"","stop_instance_id":"stop-53317","supplychain_instance_id":"supplychain-1"}},{"type":"Feature","geometry":{"type":"Point","coordinates":[9.1865159987212,45.465454195005]},"properties":{"title":"match 89","address":"Milan, Italy","description":"","stop_instance_id":"stop-54022","supplychain_instance_id":"supplychain-1"}},{"type":"Feature","geometry":{"type":"Point","coordinates":[13.373619998138,49.738425194827]},"properties":{"title":"match 89","address":"Plze\u0148, Czech Republic","description":"","stop_instance_id":"stop-54377","supplychain_instance_id":"supplychain-1"}},{"type":"Feature","geometry":{"type":"Point","coordinates":[9.1865159987212,45.465454195005]},"properties":{"title":"match 90","address":"Milan, Italy","description":"","stop_instance_id":"stop-55090","supplychain_instance_id":"supplychain-1"}},{"type":"Feature","geometry":{"type":"Point","coordinates":[28.499999996033,54.233333294727]},"properties":{"title":"match 89","address":"Barysaw, Belarus","description":"","stop_instance_id":"stop-55449","supplychain_instance_id":"supplychain-1"}},{"type":"Feature","geometry":{"type":"Point","coordinates":[13.373619998138,49.738425194827]},"properties":{"title":"match 91","address":"Plze\u0148, Czech Republic","description":"","stop_instance_id":"stop-56170","supplychain_instance_id":"supplychain-1"}},{"type":"Feature","geometry":{"type":"Point","coordinates":[2.1734034996975,41.385063895244]},"properties":{"title":"match 91","address":"Barcelona, Spain","description":"","stop_instance_id":"stop-56533","supplychain_instance_id":"supplychain-1"}},{"type":"Feature","geometry":{"type":"Point","coordinates":[13.373619998138,49.738425194827]},"properties":{"title":"match 92","address":"Plze\u0148, Czech Republic","description":"","stop_instance_id":"stop-57262","supplychain_instance_id":"supplychain-1"}},{"type":"Feature","geometry":{"type":"Point","coordinates":[9.1865159987212,45.465454195005]},"properties":{"title":"match 92","address":"Milan, Italy","description":"","stop_instance_id":"stop-57629","supplychain_instance_id":"supplychain-1"}},{"type":"Feature","geometry":{"type":"Point","coordinates":[13.373619998138,49.738425194827]},"properties":{"title":"match 93","address":"Plze\u0148, Czech Republic","description":"","stop_instance_id":"stop-58366","supplychain_instance_id":"supplychain-1"}},{"type":"Feature","geometry":{"type":"Point","coordinates":[28.499999996033,54.233333294727]},"properties":{"title":"match 93","address":"Barysaw, Belarus","description":"","stop_instance_id":"stop-58737","supplychain_instance_id":"supplychain-1"}},{"type":"Feature","geometry":{"type":"Point","coordinates":[28.499999996033,54.233333294727]},"properties":{"title":"match 94","address":"Barysaw, Belarus","description":"","stop_instance_id":"stop-59482","supplychain_instance_id":"supplychain-1"}},{"type":"Feature","geometry":{"type":"Point","coordinates":[2.1734034996975,41.385063895244]},"properties":{"title":"match 94","address":"Barcelona, Spain","description":"","stop_instance_id":"stop-59857","supplychain_instance_id":"supplychain-1"}},{"type":"Feature","geometry":{"type":"Point","coordinates":[28.499999996033,54.233333294727]},"properties":{"title":"match 95","address":"Barysaw, Belarus","description":"","stop_instance_id":"stop-60610","supplychain_instance_id":"supplychain-1"}},{"type":"Feature","geometry":{"type":"Point","coordinates":[9.1865159987212,45.465454195005]},"properties":{"title":"match 95","address":"Milan, Italy","description":"","stop_instance_id":"stop-60989","supplychain_instance_id":"supplychain-1"}},{"type":"Feature","geometry":{"type":"Point","coordinates":[28.499999996033,54.233333294727]},"properties":{"title":"match 96","address":"Barysaw, Belarus","description":"","stop_instance_id":"stop-61940","supplychain_instance_id":"supplychain-1"}},{"type":"Feature","geometry":{"type":"Point","coordinates":[13.373619998138,49.738425194827]},"properties":{"title":"match 96","address":"Plze\u0148, Czech Republic","description":"","stop_instance_id":"stop-62323","supplychain_instance_id":"supplychain-1"}},{"type":"Feature","geometry":{"type":"Point","coordinates":[7.0192195990229,51.045924794788]},"properties":{"title":"match 87","address":"Leverkusen, Germany","description":"","stop_instance_id":"stop-63092","supplychain_instance_id":"supplychain-1"}},{"type":"Feature","geometry":{"type":"Point","coordinates":[2.1734034996975,41.385063895244]},"properties":{"title":"match 97","address":"Barcelona, Spain","description":"","stop_instance_id":"stop-63479","supplychain_instance_id":"supplychain-1"}},{"type":"Feature","geometry":{"type":"Point","coordinates":[7.0192195990229,51.045924794788]},"properties":{"title":"match 97","address":"Leverkusen, Germany","description":"","stop_instance_id":"stop-64450","supplychain_instance_id":"supplychain-1"}},{"type":"Feature","geometry":{"type":"Point","coordinates":[4.8356589993269,45.76404299499]},"properties":{"title":"match 98","address":"Lyon, France","description":"","stop_instance_id":"stop-65231","supplychain_instance_id":"supplychain-1"}},{"type":"Feature","geometry":{"type":"Point","coordinates":[33.429858995346,35.126412995724]},"properties":{"title":"match 98","address":"Cyprus","description":"","stop_instance_id":"stop-65624","supplychain_instance_id":"supplychain-1"}},{"type":"Feature","geometry":{"type":"Point","coordinates":[30.409997995767,59.908019994746]},"properties":{"title":"match 99","address":"Saint Petersburg, Russia","description":"","stop_instance_id":"stop-66413","supplychain_instance_id":"supplychain-1"}},{"type":"Feature","geometry":{"type":"Point","coordinates":[-9.150036398726,38.725299295432]},"properties":{"title":"match 99","address":"2715-311 Lisbon, Portugal","description":"","stop_instance_id":"stop-66810","supplychain_instance_id":"supplychain-1"}},{"type":"Feature","geometry":{"type":"Point","coordinates":[9.1865159987212,45.465454195005]},"properties":{"title":"match 100","address":"Milan, Italy","description":"","stop_instance_id":"stop-67806","supplychain_instance_id":"supplychain-1"}},{"type":"Feature","geometry":{"type":"Point","coordinates":[-0.11982439998332,51.511213894776]},"properties":{"title":"match 100","address":"London, UK","description":"","stop_instance_id":"stop-68207","supplychain_instance_id":"supplychain-1"}},{"type":"Feature","geometry":{"type":"Point","coordinates":[37.623679994763,55.749645994715]},"properties":{"title":"match 101","address":"Moscow, Russia","description":"","stop_instance_id":"stop-69012","supplychain_instance_id":"supplychain-1"}},{"type":"Feature","geometry":{"type":"Point","coordinates":[-3.7037901994844,40.416775395309]},"properties":{"title":"match 101","address":"Madrid, Spain","description":"","stop_instance_id":"stop-69417","supplychain_instance_id":"supplychain-1"}},{"type":"Feature","geometry":{"type":"Point","coordinates":[14.268124398014,40.85177459528]},"properties":{"title":"match 102","address":"Naples, Italy","description":"","stop_instance_id":"stop-70842","supplychain_instance_id":"supplychain-1"}},{"type":"Feature","geometry":{"type":"Point","coordinates":[-0.11982439998332,51.511213894776]},"properties":{"title":"match 102","address":"London, UK","description":"","stop_instance_id":"stop-71251","supplychain_instance_id":"supplychain-1"}},{"type":"Feature","geometry":{"type":"Point","coordinates":[7.5925726989431,47.557420994908]},"properties":{"title":"match 103","address":"Basel, Switzerland","description":"","stop_instance_id":"stop-72072","supplychain_instance_id":"supplychain-1"}},{"type":"Feature","geometry":{"type":"Point","coordinates":[11.577085098388,48.136606894885]},"properties":{"title":"match 103","address":"Munich, Germany","description":"","stop_instance_id":"stop-72485","supplychain_instance_id":"supplychain-1"}},{"type":"Feature","geometry":{"type":"Point","coordinates":[5.3697799992526,43.296481995125]},"properties":{"title":"match 104","address":"Marseille, France","description":"","stop_instance_id":"stop-73935","supplychain_instance_id":"supplychain-1"}},{"type":"Feature","geometry":{"type":"Point","coordinates":[9.1865159987212,45.465454195005]},"properties":{"title":"match 104","address":"Milan, Italy","description":"","stop_instance_id":"stop-74352","supplychain_instance_id":"supplychain-1"}},{"type":"Feature","geometry":{"type":"Point","coordinates":[-9.150036398726,38.725299295432]},"properties":{"title":"match 105","address":"2715-311 Lisbon, Portugal","description":"","stop_instance_id":"stop-75189","supplychain_instance_id":"supplychain-1"}},{"type":"Feature","geometry":{"type":"Point","coordinates":[-0.11982439998332,51.511213894776]},"properties":{"title":"match 105","address":"London, UK","description":"","stop_instance_id":"stop-75610","supplychain_instance_id":"supplychain-1"}},{"type":"Feature","geometry":{"type":"Point","coordinates":[33.429858995346,35.126412995724]},"properties":{"title":"match 106","address":"Cyprus","description":"","stop_instance_id":"stop-76455","supplychain_instance_id":"supplychain-1"}},{"type":"Feature","geometry":{"type":"Point","coordinates":[-3.7037901994844,40.416775395309]},"properties":{"title":"match 106","address":"Madrid, Spain","description":"","stop_instance_id":"stop-76880","supplychain_instance_id":"supplychain-1"}},{"type":"Feature","geometry":{"type":"Point","coordinates":[9.1865159987212,45.465454195005]},"properties":{"title":"match 107","address":"Milan, Italy","description":"","stop_instance_id":"stop-77733","supplychain_instance_id":"supplychain-1"}},{"type":"Feature","geometry":{"type":"Point","coordinates":[2.1734034996975,41.385063895244]},"properties":{"title":"match 107","address":"Barcelona, Spain","description":"","stop_instance_id":"stop-78162","supplychain_instance_id":"supplychain-1"}},{"type":"Feature","geometry":{"type":"Point","coordinates":[5.3697799992526,43.296481995125]},"properties":{"title":"match 108","address":"Marseille, France","description":"","stop_instance_id":"stop-79023","supplychain_instance_id":"supplychain-1"}},{"type":"Feature","geometry":{"type":"Point","coordinates":[11.577085098388,48.136606894885]},"properties":{"title":"match 108","address":"Munich, Germany","description":"","stop_instance_id":"stop-79456","supplychain_instance_id":"supplychain-1"}},{"type":"Feature","geometry":{"type":"Point","coordinates":[2.1734034996975,41.385063895244]},"properties":{"title":"match 109","address":"Barcelona, Spain","description":"","stop_instance_id":"stop-80325","supplychain_instance_id":"supplychain-1"}},{"type":"Feature","geometry":{"type":"Point","coordinates":[-0.11982439998332,51.511213894776]},"properties":{"title":"match 109","address":"London, UK","description":"","stop_instance_id":"stop-80762","supplychain_instance_id":"supplychain-1"}},{"type":"Feature","geometry":{"type":"Point","coordinates":[-3.7037901994844,40.416775395309]},"properties":{"title":"match 110","address":"Madrid, Spain","description":"","stop_instance_id":"stop-81639","supplychain_instance_id":"supplychain-1"}},{"type":"Feature","geometry":{"type":"Point","coordinates":[11.577085098388,48.136606894885]},"properties":{"title":"match 110","address":"Munich, Germany","description":"","stop_instance_id":"stop-82080","supplychain_instance_id":"supplychain-1"}},{"type":"Feature","geometry":{"type":"Point","coordinates":[-0.11982439998332,51.511213894776]},"properties":{"title":"match 111","address":"London, UK","description":"","stop_instance_id":"stop-82965","supplychain_instance_id":"supplychain-1"}},{"type":"Feature","geometry":{"type":"Point","coordinates":[11.577085098388,48.136606894885]},"properties":{"title":"match 111","address":"Munich, Germany","description":"","stop_instance_id":"stop-83410","supplychain_instance_id":"supplychain-1"}},{"type":"Feature","geometry":{"type":"LineString","coordinates":[[11.577085098388,48.136606894885],[14.268124398014,40.85177459528]]},"properties":{"distance":"837.541139","co2e":"0","title":"match 1 to match 1 "}},{"type":"Feature","geometry":{"type":"LineString","coordinates":[[11.577085098388,48.136606894885],[-2.2479259996871,53.479250994737]]},"properties":{"transport":"Air Freight (Regional)","unit":"kg","footprintmethodology":"\nCO2e factor referenced from: \n(2010) Okala Design Guide 2010","title":"match 2  to match 2 ","weight":"0","youtube:link":"","description":"","distance":"1135.821977","co2e":"0.000789178","co2e_reference":"http:\/\/footprinted.org\/air-freight-regional-3996338"}},{"type":"Feature","geometry":{"type":"LineString","coordinates":[[11.577085098388,48.136606894885],[-0.100593199986,39.939770595343]]},"properties":{"co2e":"0","distance":"1301.907184","title":"match 3  to match 3 "}},{"type":"Feature","geometry":{"type":"LineString","coordinates":[[11.577085098388,48.136606894885],[14.268124398014,40.85177459528]]},"properties":{"co2e":"0","title":"match 4  to match 4","distance":"837.541139"}},{"type":"Feature","geometry":{"type":"LineString","coordinates":[[14.268124398014,40.85177459528],[-2.2479259996871,53.479250994737]]},"properties":{"title":"match 5 to match 5 ","distance":"1869.847275","co2e":"0"}},{"type":"Feature","geometry":{"type":"LineString","coordinates":[[14.268124398014,40.85177459528],[-0.100593199986,39.939770595343]]},"properties":{"distance":"1219.646731","title":"match 6 to match 6","co2e":"0"}},{"type":"Feature","geometry":{"type":"LineString","coordinates":[[-2.2479259996871,53.479250994737],[11.577085098388,48.136606894885]]},"properties":{"co2e":"0","distance":"1135.821977","title":"match 7 to match 7 "}},{"type":"Feature","geometry":{"type":"LineString","coordinates":[[-2.2479259996871,53.479250994737],[14.268124398014,40.85177459528]]},"properties":{"co2e":"0","title":"match 8 to match 8","distance":"1869.847275"}},{"type":"Feature","geometry":{"type":"LineString","coordinates":[[-2.2479259996871,53.479250994737],[-0.100593199986,39.939770595343]]},"properties":{"distance":"1514.216304","title":"match 9 to match 9","co2e":"0"}},{"type":"Feature","geometry":{"type":"LineString","coordinates":[[-0.100593199986,39.939770595343],[11.577085098388,48.136606894885]]},"properties":{"title":"match 10 to match 10","co2e":"0","distance":"1301.907184"}},{"type":"Feature","geometry":{"type":"LineString","coordinates":[[-0.100593199986,39.939770595343],[14.268124398014,40.85177459528]]},"properties":{"title":"match 11 to match 11","distance":"1219.646731","co2e":"0"}},{"type":"Feature","geometry":{"type":"LineString","coordinates":[[-0.100593199986,39.939770595343],[-2.2479259996871,53.479250994737]]},"properties":{"title":"match 12 to match 12","co2e":"0","distance":"1514.216304"}},{"type":"Feature","geometry":{"type":"LineString","coordinates":[[9.1865159987212,45.465454195005],[37.623679994763,55.749645994715]]},"properties":{"co2e":"0","title":"match 13 to match 13","distance":"2286.125176"}},{"type":"Feature","geometry":{"type":"LineString","coordinates":[[9.1865159987212,45.465454195005],[39.717799894471,41.001449995269]]},"properties":{"distance":"2506.858123","title":"match 14 to match 14","co2e":"0"}},{"type":"Feature","geometry":{"type":"LineString","coordinates":[[9.1865159987212,45.465454195005],[9.1865159987212,45.465454195005]]},"properties":{"co2e":"0","title":"match 14 to match 15","distance":"0"}},{"type":"Feature","geometry":{"type":"LineString","coordinates":[[9.1865159987212,45.465454195005],[3.0572559995745,50.6292499948]]},"properties":{"distance":"732.469397","co2e":"0","title":"match 15 to match 15"}},{"type":"Feature","geometry":{"type":"LineString","coordinates":[[37.623679994763,55.749645994715],[9.1865159987212,45.465454195005]]},"properties":{"distance":"2286.125176","title":"match 16 to match 16","co2e":"0"}},{"type":"Feature","geometry":{"type":"LineString","coordinates":[[37.623679994763,55.749645994715],[39.717799894471,41.001449995269]]},"properties":{"distance":"1647.008812","title":"match 17 to match 17","co2e":"0"}},{"type":"Feature","geometry":{"type":"LineString","coordinates":[[37.623679994763,55.749645994715],[3.0572559995745,50.6292499948]]},"properties":{"distance":"2345.639926","title":"match 18 to match 18","co2e":"0"}},{"type":"Feature","geometry":{"type":"LineString","coordinates":[[39.717799894471,41.001449995269],[9.1865159987212,45.465454195005]]},"properties":{"title":"match 19 to match 19","co2e":"0","distance":"2506.858123"}},{"type":"Feature","geometry":{"type":"LineString","coordinates":[[39.717799894471,41.001449995269],[37.623679994763,55.749645994715]]},"properties":{"title":"match 20 to match 20","distance":"1647.008812","co2e":"0"}},{"type":"Feature","geometry":{"type":"LineString","coordinates":[[39.717799894471,41.001449995269],[3.0572559995745,50.6292499948]]},"properties":{"co2e":"0","title":"match 21 to match 21","distance":"2999.319103"}},{"type":"Feature","geometry":{"type":"LineString","coordinates":[[3.0572559995745,50.6292499948],[9.1865159987212,45.465454195005]]},"properties":{"title":"match 22 to match 22","co2e":"0","distance":"732.469397"}},{"type":"Feature","geometry":{"type":"LineString","coordinates":[[3.0572559995745,50.6292499948],[37.623679994763,55.749645994715]]},"properties":{"distance":"2345.639926","co2e":"0","title":"match 23 to match 23"}},{"type":"Feature","geometry":{"type":"LineString","coordinates":[[3.0572559995745,50.6292499948],[39.717799894471,41.001449995269]]},"properties":{"title":"match 24 to match 24","co2e":"0","distance":"2999.319103"}},{"type":"Feature","geometry":{"type":"LineString","coordinates":[[-9.150036398726,38.725299295432],[7.5925726989431,47.557420994908]]},"properties":{"title":"match 25 to match 25","distance":"1670.431955","co2e":"0"}},{"type":"Feature","geometry":{"type":"LineString","coordinates":[[-9.150036398726,38.725299295432],[-2.2479259996871,53.479250994737]]},"properties":{"distance":"1722.728667","co2e":"0","title":"match 26 to match 26"}},{"type":"Feature","geometry":{"type":"LineString","coordinates":[[-9.150036398726,38.725299295432],[28.031043996098,45.425719995007]]},"properties":{"co2e":"0","distance":"3128.030844","title":"match 27 to match 27"}},{"type":"Feature","geometry":{"type":"LineString","coordinates":[[-9.150036398726,38.725299295432],[7.5925726989431,47.557420994908]]},"properties":{"co2e":"0","title":"match 27 to match 28","distance":"1670.431955"}},{"type":"Feature","geometry":{"type":"LineString","coordinates":[[7.5925726989431,47.557420994908],[-9.150036398726,38.725299295432]]},"properties":{"distance":"1670.431955","title":"match 28 to match 28","co2e":"0"}},{"type":"Feature","geometry":{"type":"LineString","coordinates":[[7.5925726989431,47.557420994908],[-2.2479259996871,53.479250994737]]},"properties":{"distance":"956.344440","title":"match 29 to match 29","co2e":"0"}},{"type":"Feature","geometry":{"type":"LineString","coordinates":[[7.5925726989431,47.557420994908],[28.031043996098,45.425719995007]]},"properties":{"distance":"1577.763777","title":"match 30 to match 30","co2e":"0"}},{"type":"Feature","geometry":{"type":"LineString","coordinates":[[-2.2479259996871,53.479250994737],[-9.150036398726,38.725299295432]]},"properties":{"distance":"1722.728667","title":"match 31 to match 31","co2e":"0"}},{"type":"Feature","geometry":{"type":"LineString","coordinates":[[-2.2479259996871,53.479250994737],[7.5925726989431,47.557420994908]]},"properties":{"co2e":"0","title":"match 32 to match 32","distance":"956.344440"}},{"type":"Feature","geometry":{"type":"LineString","coordinates":[[-2.2479259996871,53.479250994737],[28.031043996098,45.425719995007]]},"properties":{"title":"match 33 to match 33","distance":"2342.569700","co2e":"0"}},{"type":"Feature","geometry":{"type":"LineString","coordinates":[[28.031043996098,45.425719995007],[-9.150036398726,38.725299295432]]},"properties":{"title":"match 34 to match 34","co2e":"0","distance":"3128.030844"}},{"type":"Feature","geometry":{"type":"LineString","coordinates":[[28.031043996098,45.425719995007],[7.5925726989431,47.557420994908]]},"properties":{"title":"match 35 to match 35","co2e":"0","distance":"1577.763777"}},{"type":"Feature","geometry":{"type":"LineString","coordinates":[[28.031043996098,45.425719995007],[-2.2479259996871,53.479250994737]]},"properties":{"transportcat":"Method of Transportation","title":"match 36 to match 36","distance":"2342.569700","weight":"0","co2e":"0","description":"","youtube:link":""}},{"type":"Feature","geometry":{"type":"LineString","coordinates":[[-3.7037901994844,40.416775395309],[4.8356589993269,45.76404299499]]},"properties":{"co2e":"0","distance":"912.523312","title":"match 37 to match 37"}},{"type":"Feature","geometry":{"type":"LineString","coordinates":[[-3.7037901994844,40.416775395309],[4.8951678993186,52.370215694757]]},"properties":{"distance":"1481.325863","title":"match 38 to match 38","co2e":"0"}},{"type":"Feature","geometry":{"type":"LineString","coordinates":[[-3.7037901994844,40.416775395309],[15.977894897776,45.813029294988]]},"properties":{"co2e":"0","distance":"1701.076532","title":"match 39 to match 39"}},{"type":"Feature","geometry":{"type":"LineString","coordinates":[[4.8356589993269,45.76404299499],[-3.7037901994844,40.416775395309]]},"properties":{"title":"match 40 to match 40","distance":"912.523312","co2e":"0"}},{"type":"Feature","geometry":{"type":"LineString","coordinates":[[4.8356589993269,45.76404299499],[4.8951678993186,52.370215694757]]},"properties":{"co2e":"0","title":"match 41 to match 41","distance":"734.585611"}},{"type":"Feature","geometry":{"type":"LineString","coordinates":[[4.8356589993269,45.76404299499],[15.977894897776,45.813029294988]]},"properties":{"distance":"863.253997","title":"match 42 to match 42","co2e":"0"}},{"type":"Feature","geometry":{"type":"LineString","coordinates":[[4.8951678993186,52.370215694757],[-3.7037901994844,40.416775395309]]},"properties":{"distance":"1481.325863","co2e":"0","title":"match 43 to match 43"}},{"type":"Feature","geometry":{"type":"LineString","coordinates":[[4.8951678993186,52.370215694757],[4.8356589993269,45.76404299499]]},"properties":{"distance":"734.585611","title":"match 44 to match 44","co2e":"0"}},{"type":"Feature","geometry":{"type":"LineString","coordinates":[[4.8951678993186,52.370215694757],[15.977894897776,45.813029294988]]},"properties":{"distance":"1085.432207","co2e":"0","title":"match 45 to match 45"}},{"type":"Feature","geometry":{"type":"LineString","coordinates":[[15.977894897776,45.813029294988],[-3.7037901994844,40.416775395309]]},"properties":{"distance":"1701.076532","title":"match 46 to match 46","co2e":"0"}},{"type":"Feature","geometry":{"type":"LineString","coordinates":[[15.977894897776,45.813029294988],[4.8356589993269,45.76404299499]]},"properties":{"distance":"863.253997","co2e":"0","title":"match 47 to match 47"}},{"type":"Feature","geometry":{"type":"LineString","coordinates":[[15.977894897776,45.813029294988],[4.8951678993186,52.370215694757]]},"properties":{"title":"match 48 to match 48","distance":"1085.432207","co2e":"0"}},{"type":"Feature","geometry":{"type":"LineString","coordinates":[[-0.11982439998332,51.511213894776],[7.0192195990229,51.045924794788]]},"properties":{"title":"match 49 to match 49","co2e":"0","distance":"499.051016"}},{"type":"Feature","geometry":{"type":"LineString","coordinates":[[-0.11982439998332,51.511213894776],[-0.37628809994762,39.469907495377]]},"properties":{"co2e":"0","title":"match 50 to match 50","distance":"1339.079158"}},{"type":"Feature","geometry":{"type":"LineString","coordinates":[[-0.11982439998332,51.511213894776],[5.5017359992342,50.96208499479]]},"properties":{"distance":"396.003328","title":"match 51 to match 51","co2e":"0"}},{"type":"Feature","geometry":{"type":"LineString","coordinates":[[7.0192195990229,51.045924794788],[-0.11982439998332,51.511213894776]]},"properties":{"distance":"499.051016","co2e":"0","title":"match 52 to match 52"}},{"type":"Feature","geometry":{"type":"LineString","coordinates":[[7.0192195990229,51.045924794788],[-0.37628809994762,39.469907495377]]},"properties":{"distance":"1409.638624","co2e":"0","title":"match 53 to match 53"}},{"type":"Feature","geometry":{"type":"LineString","coordinates":[[5.5017359992342,50.96208499479],[-0.37628809994762,39.469907495377]]},"properties":{"co2e":"0","distance":"1357.192038","title":"match 54 to match 54 to match 55"}},{"type":"Feature","geometry":{"type":"LineString","coordinates":[[-0.37628809994762,39.469907495377],[-0.11982439998332,51.511213894776]]},"properties":{"title":"match 55 to match 55","distance":"1339.079158","co2e":"0"}},{"type":"Feature","geometry":{"type":"LineString","coordinates":[[-0.37628809994762,39.469907495377],[7.0192195990229,51.045924794788]]},"properties":{"co2e":"0","distance":"1409.638624","title":"match 56 to match 56"}},{"type":"Feature","geometry":{"type":"LineString","coordinates":[[5.5017359992342,50.96208499479],[-0.37628809994762,39.469907495377]]},"properties":{"distance":"1357.192038","title":"match 57 to match 57","co2e":"0"}},{"type":"Feature","geometry":{"type":"LineString","coordinates":[[5.5017359992342,50.96208499479],[-0.11982439998332,51.511213894776]]},"properties":{"distance":"396.003328","title":"match 58 to match 58","co2e":"0"}},{"type":"Feature","geometry":{"type":"LineString","coordinates":[[5.5017359992342,50.96208499479],[-0.37628809994762,39.469907495377]]},"properties":{"distance":"1357.192038","title":"match 60 to match 60","co2e":"0"}},{"type":"Feature","geometry":{"type":"LineString","coordinates":[[5.3697799992526,43.296481995125],[-0.11982439998332,51.511213894776]]},"properties":{"distance":"1001.824938","co2e":"0","title":"match 61 to match 61"}},{"type":"Feature","geometry":{"type":"LineString","coordinates":[[5.3697799992526,43.296481995125],[23.729309696697,37.983715495489]]},"properties":{"youtube:link":"","transportcat":"Method of Transportation","weight":"0","description":"","co2e":"0","distance":"1653.621714","title":"match 61 to match 61"}},{"type":"Feature","geometry":{"type":"LineString","coordinates":[[23.729309696697,37.983715495489],[-0.11982439998332,51.511213894776]]},"properties":{"distance":"2391.474747","co2e":"0","title":"match 62 to match 62"}},{"type":"Feature","geometry":{"type":"LineString","coordinates":[[-0.11982439998332,51.511213894776],[7.4652980989608,51.513587194776]]},"properties":{"co2e":"0","distance":"524.667958","title":"match 63 to match 63"}},{"type":"Feature","geometry":{"type":"LineString","coordinates":[[5.3697799992526,43.296481995125],[5.3697799992526,43.296481995125]]},"properties":{"title":"match 61 to match 64","co2e":"0","distance":"0"}},{"type":"Feature","geometry":{"type":"LineString","coordinates":[[5.3697799992526,43.296481995125],[-0.11982439998332,51.511213894776]]},"properties":{"title":"match 64 to match 64","distance":"1001.824938","co2e":"0"}},{"type":"Feature","geometry":{"type":"LineString","coordinates":[[5.3697799992526,43.296481995125],[23.729309696697,37.983715495489]]},"properties":{"co2e":"0","title":"match 65 to match 65","distance":"1653.621714"}},{"type":"Feature","geometry":{"type":"LineString","coordinates":[[5.3697799992526,43.296481995125],[7.4652980989608,51.513587194776]]},"properties":{"co2e":"0","title":"match 66 to match 66","distance":"927.104870"}},{"type":"Feature","geometry":{"type":"LineString","coordinates":[[23.729309696697,37.983715495489],[-0.11982439998332,51.511213894776]]},"properties":{"distance":"2391.474747","title":"match 67 to match 67","co2e":"0"}},{"type":"Feature","geometry":{"type":"LineString","coordinates":[[23.729309696697,37.983715495489],[5.3697799992526,43.296481995125]]},"properties":{"co2e":"0","distance":"1653.621714","title":"match 68 to match 68"}},{"type":"Feature","geometry":{"type":"LineString","coordinates":[[7.4652980989608,51.513587194776],[23.729309696697,37.983715495489]]},"properties":{"co2e":"0","distance":"1969.050275","title":"match 69 to match 69"}},{"type":"Feature","geometry":{"type":"LineString","coordinates":[[-0.11982439998332,51.511213894776],[7.4652980989608,51.513587194776]]},"properties":{"distance":"524.667958","co2e":"0","title":"match 70 to match 70"}},{"type":"Feature","geometry":{"type":"LineString","coordinates":[[5.3697799992526,43.296481995125],[7.4652980989608,51.513587194776]]},"properties":{"co2e":"0","title":"match 71 to match 71","distance":"927.104870"}},{"type":"Feature","geometry":{"type":"LineString","coordinates":[[23.729309696697,37.983715495489],[7.4652980989608,51.513587194776]]},"properties":{"title":"match 72 to match 72","distance":"1969.050275","co2e":"0"}},{"type":"Feature","geometry":{"type":"LineString","coordinates":[[33.429858995346,35.126412995724],[30.409997995767,59.908019994746]]},"properties":{"title":"match 73 to match 73","co2e":"0","distance":"2764.231785"}},{"type":"Feature","geometry":{"type":"LineString","coordinates":[[-8.6239253987995,41.156689195259],[33.429858995346,35.126412995724]]},"properties":{"title":"match 74 to match 74","co2e":"0","distance":"3701.608666"}},{"type":"Feature","geometry":{"type":"LineString","coordinates":[[37.802849994738,48.01588299489],[33.429858995346,35.126412995724]]},"properties":{"distance":"1478.044527","title":"match 75 to match 75","co2e":"0"}},{"type":"Feature","geometry":{"type":"LineString","coordinates":[[33.429858995346,35.126412995724],[30.409997995767,59.908019994746]]},"properties":{"title":"match 76 to match 76","distance":"2764.231785","co2e":"0"}},{"type":"Feature","geometry":{"type":"LineString","coordinates":[[-8.6239253987995,41.156689195259],[30.409997995767,59.908019994746]]},"properties":{"title":"match 77 to match 77","distance":"3378.558843","co2e":"0"}},{"type":"Feature","geometry":{"type":"LineString","coordinates":[[37.802849994738,48.01588299489],[30.409997995767,59.908019994746]]},"properties":{"title":"match 78 to match 78","co2e":"0","distance":"1405.940374"}},{"type":"Feature","geometry":{"type":"LineString","coordinates":[[33.429858995346,35.126412995724],[-8.6239253987995,41.156689195259]]},"properties":{"title":"match 79 to match 79","distance":"3701.608666","co2e":"0"}},{"type":"Feature","geometry":{"type":"LineString","coordinates":[[30.409997995767,59.908019994746],[-8.6239253987995,41.156689195259]]},"properties":{"distance":"3378.558843","title":"match 80 to match 80","co2e":"0"}},{"type":"Feature","geometry":{"type":"LineString","coordinates":[[37.802849994738,48.01588299489],[-8.6239253987995,41.156689195259]]},"properties":{"title":"match 81 to match 81","co2e":"0","distance":"3696.470598"}},{"type":"Feature","geometry":{"type":"LineString","coordinates":[[33.429858995346,35.126412995724],[37.802849994738,48.01588299489]]},"properties":{"co2e":"0","title":"match 82 to match 82","distance":"1478.044527"}},{"type":"Feature","geometry":{"type":"LineString","coordinates":[[30.409997995767,59.908019994746],[37.802849994738,48.01588299489]]},"properties":{"title":"match 83 to match 83","distance":"1405.940374","co2e":"0"}},{"type":"Feature","geometry":{"type":"LineString","coordinates":[[37.802849994738,48.01588299489],[-8.6239253987995,41.156689195259]]},"properties":{"co2e":"0","title":"match 84 to match 84","distance":"3696.470598"}},{"type":"Feature","geometry":{"type":"LineString","coordinates":[[9.1865159987212,45.465454195005],[2.1734034996975,41.385063895244]]},"properties":{"distance":"725.216070","title":"match 85 to match 85","co2e":"0"}},{"type":"Feature","geometry":{"type":"LineString","coordinates":[[13.315724598146,49.413481194838],[2.1734034996975,41.385063895244]]},"properties":{"distance":"1243.985493","co2e":"0","title":"match 86 to match 86"}},{"type":"Feature","geometry":{"type":"LineString","coordinates":[[28.499999996033,54.233333294727],[2.1734034996975,41.385063895244]]},"properties":{"co2e":"0","distance":"2406.965298","title":"match 87 to match 87"}},{"type":"Feature","geometry":{"type":"LineString","coordinates":[[2.1734034996975,41.385063895244],[9.1865159987212,45.465454195005]]},"properties":{"title":"match 88 to match 88","co2e":"0","distance":"725.216070"}},{"type":"Feature","geometry":{"type":"LineString","coordinates":[[13.373619998138,49.738425194827],[9.1865159987212,45.465454195005]]},"properties":{"title":"match 89 to match 89","distance":"569.272455","co2e":"0"}},{"type":"Feature","geometry":{"type":"LineString","coordinates":[[28.499999996033,54.233333294727],[9.1865159987212,45.465454195005]]},"properties":{"title":"match 89 to match 90","co2e":"0","distance":"1684.605611"}},{"type":"Feature","geometry":{"type":"LineString","coordinates":[[2.1734034996975,41.385063895244],[13.373619998138,49.738425194827]]},"properties":{"title":"match 91 to match 91","co2e":"0","distance":"1271.333306"}},{"type":"Feature","geometry":{"type":"LineString","coordinates":[[9.1865159987212,45.465454195005],[13.373619998138,49.738425194827]]},"properties":{"title":"match 92 to match 92","co2e":"0","distance":"569.272455"}},{"type":"Feature","geometry":{"type":"LineString","coordinates":[[28.499999996033,54.233333294727],[13.373619998138,49.738425194827]]},"properties":{"distance":"1147.033205","title":"match 93 to match 93","co2e":"0"}},{"type":"Feature","geometry":{"type":"LineString","coordinates":[[2.1734034996975,41.385063895244],[28.499999996033,54.233333294727]]},"properties":{"distance":"2406.965298","title":"match 94 to match 94","co2e":"0"}},{"type":"Feature","geometry":{"type":"LineString","coordinates":[[28.499999996033,54.233333294727],[9.1865159987212,45.465454195005]]},"properties":{"title":"match 95 to match 95","co2e":"0","distance":"1684.605611"}},{"type":"Feature","geometry":{"type":"LineString","coordinates":[[13.373619998138,49.738425194827],[28.499999996033,54.233333294727]]},"properties":{"title":"match 96 to match 96","distance":"1147.033205","co2e":"0"}},{"type":"Feature","geometry":{"type":"LineString","coordinates":[[2.1734034996975,41.385063895244],[7.0192195990229,51.045924794788]]},"properties":{"co2e":"0","title":"match 97 to match 97","distance":"1136.463632"}},{"type":"Feature","geometry":{"type":"LineString","coordinates":[[33.429858995346,35.126412995724],[4.8356589993269,45.76404299499]]},"properties":{"distance":"2673.726082","title":"match 98 to match 98","co2e":"0"}},{"type":"Feature","geometry":{"type":"LineString","coordinates":[[30.409997995767,59.908019994746],[-9.150036398726,38.725299295432]]},"properties":{"co2e":"0","title":"match 99 to match 99","distance":"3620.364616"}},{"type":"Feature","geometry":{"type":"LineString","coordinates":[[-0.11982439998332,51.511213894776],[9.1865159987212,45.465454195005]]},"properties":{"distance":"958.973587","title":"match 100 to match 100","co2e":"0"}},{"type":"Feature","geometry":{"type":"LineString","coordinates":[[-3.7037901994844,40.416775395309],[37.623679994763,55.749645994715]]},"properties":{"distance":"3440.592842","title":"match 101 to match 101","co2e":"0"}},{"type":"Feature","geometry":{"type":"LineString","coordinates":[[-0.11982439998332,51.511213894776],[14.268124398014,40.85177459528]]},"properties":{"distance":"1616.614300","title":"match 102 to match 102","co2e":"0"}},{"type":"Feature","geometry":{"type":"LineString","coordinates":[[11.577085098388,48.136606894885],[7.5925726989431,47.557420994908]]},"properties":{"distance":"304.198193","title":"match 103 to match 103","co2e":"0"}},{"type":"Feature","geometry":{"type":"LineString","coordinates":[[9.1865159987212,45.465454195005],[5.3697799992526,43.296481995125]]},"properties":{"co2e":"0","distance":"387.443174","title":"match 104 to match 104"}},{"type":"Feature","geometry":{"type":"LineString","coordinates":[[-0.11982439998332,51.511213894776],[-9.150036398726,38.725299295432]]},"properties":{"distance":"1585.692385","title":"match 105 to match 105","co2e":"0"}},{"type":"Feature","geometry":{"type":"LineString","coordinates":[[-3.7037901994844,40.416775395309],[33.429858995346,35.126412995724]]},"properties":{"title":"match 106 to match 106","co2e":"0","distance":"3291.613630"}},{"type":"Feature","geometry":{"type":"LineString","coordinates":[[2.1734034996975,41.385063895244],[9.1865159987212,45.465454195005]]},"properties":{"distance":"725.216070","title":"match 107 to match 107","co2e":"0"}},{"type":"Feature","geometry":{"type":"LineString","coordinates":[[11.577085098388,48.136606894885],[5.3697799992526,43.296481995125]]},"properties":{"distance":"721.949491","title":"match 108 to match 108","co2e":"0"}},{"type":"Feature","geometry":{"type":"LineString","coordinates":[[-0.11982439998332,51.511213894776],[2.1734034996975,41.385063895244]]},"properties":{"distance":"1139.447988","title":"match 109 to match 109","co2e":"0"}},{"type":"Feature","geometry":{"type":"LineString","coordinates":[[11.577085098388,48.136606894885],[-3.7037901994844,40.416775395309]]},"properties":{"distance":"1484.571456","title":"match 110 to match 110","co2e":"0"}},{"type":"Feature","geometry":{"type":"LineString","coordinates":[[11.577085098388,48.136606894885],[-0.11982439998332,51.511213894776]]},"properties":{"title":"match 111 to match 111","distance":"917.818448","co2e":"0"}}],"properties":{"tags":"","description":"Flight patterns for every match of the Champions League Tournament.","title":"Champions League 2011-2012","sm:ui:tileset":"terrain","sm:ui:co2e":"1"}}