{"supplychain":{"category":10,"created":1365430470,"enable_comments":true,"flags":0,"id":5653,"modified":1365440523,"other_perms":1,"passcode":null,"user_featured":false,"usergroup_id":null,"usergroup_perms":0,"user_id":5219,"owner":{"id":5219,"name":"gabrielarub","avatar":"http:\/\/free.sourcemap.com\/assets\/images\/default-user.png","banner_url":null,"display_name":null},"taxonomy":[{"description":"Travel","id":10,"left":15,"name":"travel","right":16,"title":"Travel"}],"attributes":{"tags":"","description":"Flight patterns for every match of the Champions League Tournament.","title":"Champions League 2011-2012","sm:ui:tileset":"terrain","sm:ui:co2e":"1"},"stops":[{"local_stop_id":223,"id":223,"geometry":"POINT(1288755.218023 6129611.5190524)","attributes":{"title":"match 1","address":"Munich, Germany","description":"","stop_instance_id":"stop-1","supplychain_instance_id":"supplychain-1"}},{"local_stop_id":222,"id":222,"geometry":"POINT(1588320.342562 4990502.9730649)","attributes":{"title":"match 1 ","address":"Naples, Italy","description":"","stop_instance_id":"stop-4","supplychain_instance_id":"supplychain-1"}},{"local_stop_id":221,"id":221,"geometry":"POINT(1288755.218023 6129611.5190524)","attributes":{"title":"match 2 ","address":"Munich, Germany","description":"","stop_instance_id":"stop-13","supplychain_instance_id":"supplychain-1"}},{"local_stop_id":220,"id":220,"geometry":"POINT(-250237.97762613 7072143.1052487)","attributes":{"title":"match 2 ","address":"Manchester, UK","description":"","stop_instance_id":"stop-20","supplychain_instance_id":"supplychain-1"}},{"local_stop_id":219,"id":219,"geometry":"POINT(1288755.218023 6129611.5190524)","attributes":{"title":"match 3 ","address":"Munich, Germany","description":"","stop_instance_id":"stop-45","supplychain_instance_id":"supplychain-1"}},{"local_stop_id":218,"id":218,"geometry":"POINT(-11197.983799707 4857193.7627525)","attributes":{"title":"match 3 ","address":"12540 Villarreal, Castell\u00f3n, Spain","description":"","stop_instance_id":"stop-56","supplychain_instance_id":"supplychain-1"}},{"local_stop_id":217,"id":217,"geometry":"POINT(1588320.342562 4990502.9730649)","attributes":{"title":"match 4","address":"Naples, Italy","description":"","stop_instance_id":"stop-105","supplychain_instance_id":"supplychain-1"}},{"local_stop_id":216,"id":216,"geometry":"POINT(1288755.218023 6129611.5190524)","attributes":{"title":"match 4 ","address":"Munich, Germany","description":"","stop_instance_id":"stop-120","supplychain_instance_id":"supplychain-1"}},{"local_stop_id":215,"id":215,"geometry":"POINT(1588320.342562 4990502.9730649)","attributes":{"title":"match 5","address":"Naples, Italy","description":"","stop_instance_id":"stop-161","supplychain_instance_id":"supplychain-1"}},{"local_stop_id":214,"id":214,"geometry":"POINT(-250237.97762613 7072143.1052487)","attributes":{"title":"match 5 ","address":"Manchester, UK","description":"","stop_instance_id":"stop-180","supplychain_instance_id":"supplychain-1"}},{"local_stop_id":213,"id":213,"geometry":"POINT(1588320.342562 4990502.9730649)","attributes":{"title":"match 6","address":"Naples, Italy","description":"","stop_instance_id":"stop-231","supplychain_instance_id":"supplychain-1"}},{"local_stop_id":212,"id":212,"geometry":"POINT(-11197.983799707 4857193.7627525)","attributes":{"title":"match 6","address":"12540 Villarreal, Castell\u00f3n, Spain","description":"","stop_instance_id":"stop-254","supplychain_instance_id":"supplychain-1"}},{"local_stop_id":211,"id":211,"geometry":"POINT(-250237.97762613 7072143.1052487)","attributes":{"title":"match 7","address":"Manchester, UK","description":"","stop_instance_id":"stop-315","supplychain_instance_id":"supplychain-1"}},{"local_stop_id":210,"id":210,"geometry":"POINT(1288755.218023 6129611.5190524)","attributes":{"title":"match 7 ","address":"Munich, Germany","description":"","stop_instance_id":"stop-342","supplychain_instance_id":"supplychain-1"}},{"local_stop_id":209,"id":209,"geometry":"POINT(-250237.97762613 7072143.1052487)","attributes":{"title":"match 8","address":"Manchester, UK","description":"","stop_instance_id":"stop-413","supplychain_instance_id":"supplychain-1"}},{"local_stop_id":208,"id":208,"geometry":"POINT(1588320.342562 4990502.9730649)","attributes":{"title":"match 8","address":"Naples, Italy","description":"","stop_instance_id":"stop-444","supplychain_instance_id":"supplychain-1"}},{"local_stop_id":207,"id":207,"geometry":"POINT(-250237.97762613 7072143.1052487)","attributes":{"title":"match 9","address":"Manchester, UK","description":"","stop_instance_id":"stop-541","supplychain_instance_id":"supplychain-1"}},{"local_stop_id":206,"id":206,"geometry":"POINT(-11197.983799707 4857193.7627525)","attributes":{"title":"match 9","address":"12540 Villarreal, Castell\u00f3n, Spain","description":"","stop_instance_id":"stop-576","supplychain_instance_id":"supplychain-1"}},{"local_stop_id":205,"id":205,"geometry":"POINT(-11197.983799707 4857193.7627525)","attributes":{"title":"match 10","address":"12540 Villarreal, Castell\u00f3n, Spain","description":"","stop_instance_id":"stop-667","supplychain_instance_id":"supplychain-1"}},{"local_stop_id":204,"id":204,"geometry":"POINT(1288755.218023 6129611.5190524)","attributes":{"title":"match 10","address":"Munich, Germany","description":"","stop_instance_id":"stop-706","supplychain_instance_id":"supplychain-1"}},{"local_stop_id":203,"id":203,"geometry":"POINT(-11197.983799707 4857193.7627525)","attributes":{"title":"match 11","address":"12540 Villarreal, Castell\u00f3n, Spain","description":"","stop_instance_id":"stop-807","supplychain_instance_id":"supplychain-1"}},{"local_stop_id":202,"id":202,"geometry":"POINT(1588320.342562 4990502.9730649)","attributes":{"title":"match 11","address":"Naples, Italy","description":"","stop_instance_id":"stop-850","supplychain_instance_id":"supplychain-1"}},{"local_stop_id":201,"id":201,"geometry":"POINT(-11197.983799707 4857193.7627525)","attributes":{"title":"match 12","address":"12540 Villarreal, Castell\u00f3n, Spain","description":"","stop_instance_id":"stop-961","supplychain_instance_id":"supplychain-1"}},{"local_stop_id":200,"id":200,"geometry":"POINT(-250237.97762613 7072143.1052487)","attributes":{"title":"match 12","address":"Manchester, UK","description":"","stop_instance_id":"stop-1008","supplychain_instance_id":"supplychain-1"}},{"local_stop_id":199,"id":199,"geometry":"POINT(1022638.2831419 5695097.7965024)","attributes":{"title":"match 13","address":"Milan, Italy","description":"","stop_instance_id":"stop-1129","supplychain_instance_id":"supplychain-1"}},{"local_stop_id":198,"id":198,"geometry":"POINT(4188248.8987861 7508737.8314651)","attributes":{"title":"match 13","address":"Moscow, Russia","description":"","stop_instance_id":"stop-1180","supplychain_instance_id":"supplychain-1"}},{"local_stop_id":197,"id":197,"geometry":"POINT(1022638.2831419 5695097.7965024)","attributes":{"title":"match 14","address":"Milan, Italy","description":"","stop_instance_id":"stop-1285","supplychain_instance_id":"supplychain-1"}},{"local_stop_id":196,"id":196,"geometry":"POINT(4421365.2596817 5012555.5401713)","attributes":{"title":"match 14","address":"Trabzon, Turkey","description":"","stop_instance_id":"stop-1340","supplychain_instance_id":"supplychain-1"}},{"local_stop_id":195,"id":195,"geometry":"POINT(1022638.2831419 5695097.7965024)","attributes":{"title":"match 15","address":"Milan, Italy","description":"","stop_instance_id":"stop-1453","supplychain_instance_id":"supplychain-1"}},{"local_stop_id":194,"id":194,"geometry":"POINT(340332.18109731 6555972.5220507)","attributes":{"title":"match 15","address":"Lille, France","description":"","stop_instance_id":"stop-1570","supplychain_instance_id":"supplychain-1"}},{"local_stop_id":193,"id":193,"geometry":"POINT(4188248.8987861 7508737.8314651)","attributes":{"title":"match 16","address":"Moscow, Russia","description":"","stop_instance_id":"stop-1721","supplychain_instance_id":"supplychain-1"}},{"local_stop_id":192,"id":192,"geometry":"POINT(1022638.2831419 5695097.7965024)","attributes":{"title":"match 16","address":"Milan, Italy","description":"","stop_instance_id":"stop-1784","supplychain_instance_id":"supplychain-1"}},{"local_stop_id":191,"id":191,"geometry":"POINT(4188248.8987861 7508737.8314651)","attributes":{"title":"match 17","address":"Moscow, Russia","description":"","stop_instance_id":"stop-1945","supplychain_instance_id":"supplychain-1"}},{"local_stop_id":190,"id":190,"geometry":"POINT(4421365.2596817 5012555.5401713)","attributes":{"title":"match 17","address":"Trabzon, Turkey","description":"","stop_instance_id":"stop-2012","supplychain_instance_id":"supplychain-1"}},{"local_stop_id":189,"id":189,"geometry":"POINT(4188248.8987861 7508737.8314651)","attributes":{"title":"match 18","address":"Moscow, Russia","description":"","stop_instance_id":"stop-2183","supplychain_instance_id":"supplychain-1"}},{"local_stop_id":188,"id":188,"geometry":"POINT(340332.18109731 6555972.5220507)","attributes":{"title":"match 18","address":"Lille, France","description":"","stop_instance_id":"stop-2254","supplychain_instance_id":"supplychain-1"}},{"local_stop_id":187,"id":187,"geometry":"POINT(4421365.2596817 5012555.5401713)","attributes":{"title":"match 19","address":"Trabzon, Turkey","description":"","stop_instance_id":"stop-2435","supplychain_instance_id":"supplychain-1"}},{"local_stop_id":186,"id":186,"geometry":"POINT(1022638.2831419 5695097.7965024)","attributes":{"title":"match 19","address":"Milan, Italy","description":"","stop_instance_id":"stop-2510","supplychain_instance_id":"supplychain-1"}},{"local_stop_id":185,"id":185,"geometry":"POINT(4421365.2596817 5012555.5401713)","attributes":{"title":"match 20","address":"Trabzon, Turkey","description":"","stop_instance_id":"stop-2701","supplychain_instance_id":"supplychain-1"}},{"local_stop_id":184,"id":184,"geometry":"POINT(4188248.8987861 7508737.8314651)","attributes":{"title":"match 20","address":"Moscow, Russia","description":"","stop_instance_id":"stop-2780","supplychain_instance_id":"supplychain-1"}},{"local_stop_id":183,"id":183,"geometry":"POINT(4421365.2596817 5012555.5401713)","attributes":{"title":"match 21","address":"Trabzon, Turkey","description":"","stop_instance_id":"stop-2981","supplychain_instance_id":"supplychain-1"}},{"local_stop_id":182,"id":182,"geometry":"POINT(340332.18109731 6555972.5220507)","attributes":{"title":"match 21","address":"Lille, France","description":"","stop_instance_id":"stop-3064","supplychain_instance_id":"supplychain-1"}},{"local_stop_id":181,"id":181,"geometry":"POINT(340332.18109731 6555972.5220507)","attributes":{"title":"match 22","address":"Lille, France","description":"","stop_instance_id":"stop-3275","supplychain_instance_id":"supplychain-1"}},{"local_stop_id":180,"id":180,"geometry":"POINT(1022638.2831419 5695097.7965024)","attributes":{"title":"match 22","address":"Milan, Italy","description":"","stop_instance_id":"stop-3362","supplychain_instance_id":"supplychain-1"}},{"local_stop_id":179,"id":179,"geometry":"POINT(340332.18109731 6555972.5220507)","attributes":{"title":"match 23","address":"Lille, France","description":"","stop_instance_id":"stop-3583","supplychain_instance_id":"supplychain-1"}},{"local_stop_id":178,"id":178,"geometry":"POINT(4188248.8987861 7508737.8314651)","attributes":{"title":"match 23","address":"Moscow, Russia","description":"","stop_instance_id":"stop-3674","supplychain_instance_id":"supplychain-1"}},{"local_stop_id":177,"id":177,"geometry":"POINT(340332.18109731 6555972.5220507)","attributes":{"title":"match 24","address":"Lille, France","description":"","stop_instance_id":"stop-3905","supplychain_instance_id":"supplychain-1"}},{"local_stop_id":176,"id":176,"geometry":"POINT(4421365.2596817 5012555.5401713)","attributes":{"title":"match 24","address":"Trabzon, Turkey","description":"","stop_instance_id":"stop-4000","supplychain_instance_id":"supplychain-1"}},{"local_stop_id":175,"id":175,"geometry":"POINT(-1018577.3926461 4682399.0909397)","attributes":{"title":"match 25","address":"2715-311 Lisbon, Portugal","description":"","stop_instance_id":"stop-4241","supplychain_instance_id":"supplychain-1"}},{"local_stop_id":174,"id":174,"geometry":"POINT(845201.32665726 6033538.7678687)","attributes":{"title":"match 25","address":"Basel, Switzerland","description":"","stop_instance_id":"stop-4340","supplychain_instance_id":"supplychain-1"}},{"local_stop_id":173,"id":173,"geometry":"POINT(-1018577.3926461 4682399.0909397)","attributes":{"title":"match 26","address":"2715-311 Lisbon, Portugal","description":"","stop_instance_id":"stop-4591","supplychain_instance_id":"supplychain-1"}},{"local_stop_id":172,"id":172,"geometry":"POINT(-250237.97762613 7072143.1052487)","attributes":{"title":"match 26","address":"Manchester, UK","description":"","stop_instance_id":"stop-4694","supplychain_instance_id":"supplychain-1"}},{"local_stop_id":171,"id":171,"geometry":"POINT(-1018577.3926461 4682399.0909397)","attributes":{"title":"match 27","address":"2715-311 Lisbon, Portugal","description":"","stop_instance_id":"stop-4955","supplychain_instance_id":"supplychain-1"}},{"local_stop_id":170,"id":170,"geometry":"POINT(3120401.5440495 5688793.2390822)","attributes":{"title":"match 27","address":"Gala\u021bi, Romania","description":"","stop_instance_id":"stop-5062","supplychain_instance_id":"supplychain-1"}},{"local_stop_id":169,"id":169,"geometry":"POINT(845201.32665726 6033538.7678687)","attributes":{"title":"match 28","address":"Basel, Switzerland","description":"","stop_instance_id":"stop-5387","supplychain_instance_id":"supplychain-1"}},{"local_stop_id":168,"id":168,"geometry":"POINT(-1018577.3926461 4682399.0909397)","attributes":{"title":"match 28","address":"2715-311 Lisbon, Portugal","description":"","stop_instance_id":"stop-5608","supplychain_instance_id":"supplychain-1"}},{"local_stop_id":167,"id":167,"geometry":"POINT(845201.32665726 6033538.7678687)","attributes":{"title":"match 29","address":"Basel, Switzerland","description":"","stop_instance_id":"stop-5833","supplychain_instance_id":"supplychain-1"}},{"local_stop_id":166,"id":166,"geometry":"POINT(-250237.97762613 7072143.1052487)","attributes":{"title":"match 29","address":"Manchester, UK","description":"","stop_instance_id":"stop-5948","supplychain_instance_id":"supplychain-1"}},{"local_stop_id":165,"id":165,"geometry":"POINT(845201.32665726 6033538.7678687)","attributes":{"title":"match 30","address":"Basel, Switzerland","description":"","stop_instance_id":"stop-6239","supplychain_instance_id":"supplychain-1"}},{"local_stop_id":164,"id":164,"geometry":"POINT(3120401.5440495 5688793.2390822)","attributes":{"title":"match 30","address":"Gala\u021bi, Romania","description":"","stop_instance_id":"stop-6358","supplychain_instance_id":"supplychain-1"}},{"local_stop_id":163,"id":163,"geometry":"POINT(-250237.97762613 7072143.1052487)","attributes":{"title":"match 31","address":"Manchester, UK","description":"","stop_instance_id":"stop-6659","supplychain_instance_id":"supplychain-1"}},{"local_stop_id":162,"id":162,"geometry":"POINT(-1018577.3926461 4682399.0909397)","attributes":{"title":"match 31","address":"2715-311 Lisbon, Portugal","description":"","stop_instance_id":"stop-6782","supplychain_instance_id":"supplychain-1"}},{"local_stop_id":161,"id":161,"geometry":"POINT(-250237.97762613 7072143.1052487)","attributes":{"title":"match 32","address":"Manchester, UK","description":"","stop_instance_id":"stop-7093","supplychain_instance_id":"supplychain-1"}},{"local_stop_id":160,"id":160,"geometry":"POINT(845201.32665726 6033538.7678687)","attributes":{"title":"match 32","address":"Basel, Switzerland","description":"","stop_instance_id":"stop-7220","supplychain_instance_id":"supplychain-1"}},{"local_stop_id":159,"id":159,"geometry":"POINT(-250237.97762613 7072143.1052487)","attributes":{"title":"match 33","address":"Manchester, UK","description":"","stop_instance_id":"stop-7541","supplychain_instance_id":"supplychain-1"}},{"local_stop_id":158,"id":158,"geometry":"POINT(3120401.5440495 5688793.2390822)","attributes":{"title":"match 33","address":"Gala\u021bi, Romania","description":"","stop_instance_id":"stop-7672","supplychain_instance_id":"supplychain-1"}},{"local_stop_id":157,"id":157,"geometry":"POINT(3120401.5440495 5688793.2390822)","attributes":{"title":"match 34","address":"Gala\u021bi, Romania","description":"","stop_instance_id":"stop-7937","supplychain_instance_id":"supplychain-1"}},{"local_stop_id":156,"id":156,"geometry":"POINT(-1018577.3926461 4682399.0909397)","attributes":{"title":"match 34","address":"2715-311 Lisbon, Portugal","description":"","stop_instance_id":"stop-8072","supplychain_instance_id":"supplychain-1"}},{"local_stop_id":155,"id":155,"geometry":"POINT(3120401.5440495 5688793.2390822)","attributes":{"title":"match 35","address":"Gala\u021bi, Romania","description":"","stop_instance_id":"stop-8413","supplychain_instance_id":"supplychain-1"}},{"local_stop_id":154,"id":154,"geometry":"POINT(845201.32665726 6033538.7678687)","attributes":{"title":"match 35","address":"Basel, Switzerland","description":"","stop_instance_id":"stop-8552","supplychain_instance_id":"supplychain-1"}},{"local_stop_id":153,"id":153,"geometry":"POINT(3120401.5440495 5688793.2390822)","attributes":{"title":"match 36","address":"Gala\u021bi, Romania","description":"","stop_instance_id":"stop-8903","supplychain_instance_id":"supplychain-1"}},{"local_stop_id":152,"id":152,"geometry":"POINT(-250237.97762613 7072143.1052487)","attributes":{"title":"match 26","address":"Manchester, UK","description":"","stop_instance_id":"stop-9046","supplychain_instance_id":"supplychain-1"}},{"local_stop_id":151,"id":151,"geometry":"POINT(-412304.03901172 4926693.072095)","attributes":{"title":"match 37","address":"Madrid, Spain","description":"","stop_instance_id":"stop-9479","supplychain_instance_id":"supplychain-1"}},{"local_stop_id":150,"id":150,"geometry":"POINT(538303.09745498 5742617.236142)","attributes":{"title":"match 37","address":"Lyon, France","description":"","stop_instance_id":"stop-9626","supplychain_instance_id":"supplychain-1"}},{"local_stop_id":149,"id":149,"geometry":"POINT(-412304.03901172 4926693.072095)","attributes":{"title":"match 38","address":"Madrid, Spain","description":"","stop_instance_id":"stop-9923","supplychain_instance_id":"supplychain-1"}},{"local_stop_id":148,"id":148,"geometry":"POINT(544927.59789972 6867344.01311)","attributes":{"title":"match 38","address":"Amsterdam, The Netherlands","description":"","stop_instance_id":"stop-10074","supplychain_instance_id":"supplychain-1"}},{"local_stop_id":147,"id":147,"geometry":"POINT(-412304.03901172 4926693.072095)","attributes":{"title":"match 39","address":"Madrid, Spain","description":"","stop_instance_id":"stop-10379","supplychain_instance_id":"supplychain-1"}},{"local_stop_id":146,"id":146,"geometry":"POINT(1778651.1239689 5750437.4911016)","attributes":{"title":"match 39","address":"Zagreb, Croatia","description":"","stop_instance_id":"stop-10534","supplychain_instance_id":"supplychain-1"}},{"local_stop_id":145,"id":145,"geometry":"POINT(538303.09745498 5742617.236142)","attributes":{"title":"match 40","address":"Lyon, France","description":"","stop_instance_id":"stop-10847","supplychain_instance_id":"supplychain-1"}},{"local_stop_id":144,"id":144,"geometry":"POINT(-412304.03901172 4926693.072095)","attributes":{"title":"match 40","address":"Madrid, Spain","description":"","stop_instance_id":"stop-11006","supplychain_instance_id":"supplychain-1"}},{"local_stop_id":143,"id":143,"geometry":"POINT(538303.09745498 5742617.236142)","attributes":{"title":"match 41","address":"Lyon, France","description":"","stop_instance_id":"stop-11407","supplychain_instance_id":"supplychain-1"}},{"local_stop_id":142,"id":142,"geometry":"POINT(544927.59789972 6867344.01311)","attributes":{"title":"match 41","address":"Amsterdam, The Netherlands","description":"","stop_instance_id":"stop-11570","supplychain_instance_id":"supplychain-1"}},{"local_stop_id":141,"id":141,"geometry":"POINT(538303.09745498 5742617.236142)","attributes":{"title":"match 42","address":"Lyon, France","description":"","stop_instance_id":"stop-11981","supplychain_instance_id":"supplychain-1"}},{"local_stop_id":140,"id":140,"geometry":"POINT(1778651.1239689 5750437.4911016)","attributes":{"title":"match 42","address":"Zagreb, Croatia","description":"","stop_instance_id":"stop-12148","supplychain_instance_id":"supplychain-1"}},{"local_stop_id":139,"id":139,"geometry":"POINT(544927.59789972 6867344.01311)","attributes":{"title":"match 43","address":"Amsterdam, The Netherlands","description":"","stop_instance_id":"stop-12653","supplychain_instance_id":"supplychain-1"}},{"local_stop_id":138,"id":138,"geometry":"POINT(-412304.03901172 4926693.072095)","attributes":{"title":"match 43","address":"Madrid, Spain","description":"","stop_instance_id":"stop-12824","supplychain_instance_id":"supplychain-1"}},{"local_stop_id":137,"id":137,"geometry":"POINT(544927.59789972 6867344.01311)","attributes":{"title":"match 44","address":"Amsterdam, The Netherlands","description":"","stop_instance_id":"stop-13169","supplychain_instance_id":"supplychain-1"}},{"local_stop_id":136,"id":136,"geometry":"POINT(538303.09745498 5742617.236142)","attributes":{"title":"match 44","address":"Lyon, France","description":"","stop_instance_id":"stop-13344","supplychain_instance_id":"supplychain-1"}},{"local_stop_id":135,"id":135,"geometry":"POINT(544927.59789972 6867344.01311)","attributes":{"title":"match 45","address":"Amsterdam, The Netherlands","description":"","stop_instance_id":"stop-13785","supplychain_instance_id":"supplychain-1"}},{"local_stop_id":134,"id":134,"geometry":"POINT(1778651.1239689 5750437.4911016)","attributes":{"title":"match 45","address":"Zagreb, Croatia","description":"","stop_instance_id":"stop-13964","supplychain_instance_id":"supplychain-1"}},{"local_stop_id":133,"id":133,"geometry":"POINT(1778651.1239689 5750437.4911016)","attributes":{"title":"match 46","address":"Zagreb, Croatia","description":"","stop_instance_id":"stop-14415","supplychain_instance_id":"supplychain-1"}},{"local_stop_id":132,"id":132,"geometry":"POINT(-412304.03901172 4926693.072095)","attributes":{"title":"match 46","address":"Madrid, Spain","description":"","stop_instance_id":"stop-14598","supplychain_instance_id":"supplychain-1"}},{"local_stop_id":131,"id":131,"geometry":"POINT(1778651.1239689 5750437.4911016)","attributes":{"title":"match 47","address":"Zagreb, Croatia","description":"","stop_instance_id":"stop-15059","supplychain_instance_id":"supplychain-1"}},{"local_stop_id":130,"id":130,"geometry":"POINT(538303.09745498 5742617.236142)","attributes":{"title":"match 47","address":"Lyon, France","description":"","stop_instance_id":"stop-15246","supplychain_instance_id":"supplychain-1"}},{"local_stop_id":129,"id":129,"geometry":"POINT(1778651.1239689 5750437.4911016)","attributes":{"title":"match 48","address":"Zagreb, Croatia","description":"","stop_instance_id":"stop-15717","supplychain_instance_id":"supplychain-1"}},{"local_stop_id":128,"id":128,"geometry":"POINT(544927.59789972 6867344.01311)","attributes":{"title":"match 48","address":"Amsterdam, The Netherlands","description":"","stop_instance_id":"stop-15908","supplychain_instance_id":"supplychain-1"}},{"local_stop_id":127,"id":127,"geometry":"POINT(-13338.791190753 6712224.6242844)","attributes":{"title":"match 49","address":"London, UK","description":"","stop_instance_id":"stop-16389","supplychain_instance_id":"supplychain-1"}},{"local_stop_id":126,"id":126,"geometry":"POINT(781375.9515294 6629421.3111641)","attributes":{"title":"match 49","address":"Leverkusen, Germany","description":"","stop_instance_id":"stop-16584","supplychain_instance_id":"supplychain-1"}},{"local_stop_id":125,"id":125,"geometry":"POINT(-13338.791190753 6712224.6242844)","attributes":{"title":"match 50","address":"London, UK","description":"","stop_instance_id":"stop-16977","supplychain_instance_id":"supplychain-1"}},{"local_stop_id":124,"id":124,"geometry":"POINT(-41888.199677738 4789207.0615115)","attributes":{"title":"match 50","address":"Valencia, Spain","description":"","stop_instance_id":"stop-17176","supplychain_instance_id":"supplychain-1"}},{"local_stop_id":123,"id":123,"geometry":"POINT(-13338.791190753 6712224.6242844)","attributes":{"title":"match 51","address":"London, UK","description":"","stop_instance_id":"stop-17677","supplychain_instance_id":"supplychain-1"}},{"local_stop_id":122,"id":122,"geometry":"POINT(612450.44991377 6614589.735635)","attributes":{"title":"match 51","address":"Genk, Belgium","description":"","stop_instance_id":"stop-17880","supplychain_instance_id":"supplychain-1"}},{"local_stop_id":121,"id":121,"geometry":"POINT(781375.9515294 6629421.3111641)","attributes":{"title":"match 52","address":"Leverkusen, Germany","description":"","stop_instance_id":"stop-18391","supplychain_instance_id":"supplychain-1"}},{"local_stop_id":120,"id":120,"geometry":"POINT(-13338.791190753 6712224.6242844)","attributes":{"title":"match 52","address":"London, UK","description":"","stop_instance_id":"stop-18598","supplychain_instance_id":"supplychain-1"}},{"local_stop_id":119,"id":119,"geometry":"POINT(781375.9515294 6629421.3111641)","attributes":{"title":"match 53","address":"Leverkusen, Germany","description":"","stop_instance_id":"stop-19119","supplychain_instance_id":"supplychain-1"}},{"local_stop_id":118,"id":118,"geometry":"POINT(-41888.199677738 4789207.0615115)","attributes":{"title":"match 53","address":"Valencia, Spain","description":"","stop_instance_id":"stop-19330","supplychain_instance_id":"supplychain-1"}},{"local_stop_id":117,"id":117,"geometry":"POINT(781375.9515294 6629421.3111641)","attributes":{"title":"match 54","address":"Leverkusen, Germany","description":"","stop_instance_id":"stop-19861","supplychain_instance_id":"supplychain-1"}},{"local_stop_id":116,"id":116,"geometry":"POINT(612450.44991377 6614589.735635)","attributes":{"title":"match 54 to match 54","address":"Genk, Belgium","description":"","stop_instance_id":"stop-20076","supplychain_instance_id":"supplychain-1","weight":"0","co2e":"0","energy":"0","water":"0","youtube:link":""}},{"local_stop_id":115,"id":115,"geometry":"POINT(-41888.199677738 4789207.0615115)","attributes":{"title":"match 55","address":"Valencia, Spain","description":"","stop_instance_id":"stop-20941","supplychain_instance_id":"supplychain-1"}},{"local_stop_id":114,"id":114,"geometry":"POINT(-13338.791190753 6712224.6242844)","attributes":{"title":"match 55","address":"London, UK","description":"","stop_instance_id":"stop-21378","supplychain_instance_id":"supplychain-1"}},{"local_stop_id":113,"id":113,"geometry":"POINT(-41888.199677738 4789207.0615115)","attributes":{"title":"match 56","address":"Valencia, Spain","description":"","stop_instance_id":"stop-21929","supplychain_instance_id":"supplychain-1"}},{"local_stop_id":112,"id":112,"geometry":"POINT(781375.9515294 6629421.3111641)","attributes":{"title":"match 56","address":"Leverkusen, Germany","description":"","stop_instance_id":"stop-22152","supplychain_instance_id":"supplychain-1"}},{"local_stop_id":111,"id":111,"geometry":"POINT(-41888.199677738 4789207.0615115)","attributes":{"title":"match 57","address":"Valencia, Spain","description":"","stop_instance_id":"stop-22713","supplychain_instance_id":"supplychain-1"}},{"local_stop_id":110,"id":110,"geometry":"POINT(612450.44991377 6614589.735635)","attributes":{"title":"match 57","address":"Genk, Belgium","description":"","stop_instance_id":"stop-22940","supplychain_instance_id":"supplychain-1"}},{"local_stop_id":109,"id":109,"geometry":"POINT(612450.44991377 6614589.735635)","attributes":{"title":"match 58","address":"Genk, Belgium","description":"","stop_instance_id":"stop-23511","supplychain_instance_id":"supplychain-1"}},{"local_stop_id":108,"id":108,"geometry":"POINT(-13338.791190753 6712224.6242844)","attributes":{"title":"match 58","address":"London, UK","description":"","stop_instance_id":"stop-23742","supplychain_instance_id":"supplychain-1"}},{"local_stop_id":107,"id":107,"geometry":"POINT(612450.44991377 6614589.735635)","attributes":{"title":"match 59","address":"Genk, Belgium","description":"","stop_instance_id":"stop-24323","supplychain_instance_id":"supplychain-1"}},{"local_stop_id":106,"id":106,"geometry":"POINT(781375.9515294 6629421.3111641)","attributes":{"title":"match 59 to match 59","address":"Leverkusen, Germany","description":"","stop_instance_id":"stop-24558","supplychain_instance_id":"supplychain-1","weight":"0","co2e":"0","energy":"0","water":"0","youtube:link":""}},{"local_stop_id":105,"id":105,"geometry":"POINT(612450.44991377 6614589.735635)","attributes":{"title":"match 60","address":"Genk, Belgium","description":"","stop_instance_id":"stop-25267","supplychain_instance_id":"supplychain-1"}},{"local_stop_id":104,"id":104,"geometry":"POINT(-41888.199677738 4789207.0615115)","attributes":{"title":"match 60","address":"Valencia, Spain","description":"","stop_instance_id":"stop-25506","supplychain_instance_id":"supplychain-1"}},{"local_stop_id":103,"id":103,"geometry":"POINT(-13338.791190753 6712224.6242844)","attributes":{"title":"match 61","address":"London, UK","description":"","stop_instance_id":"stop-26470","supplychain_instance_id":"supplychain-1"}},{"local_stop_id":102,"id":102,"geometry":"POINT(597761.1751887 5357208.8627658)","attributes":{"title":"match 61","address":"Marseille, France","description":"","stop_instance_id":"stop-26713","supplychain_instance_id":"supplychain-1"}},{"local_stop_id":101,"id":101,"geometry":"POINT(-13338.791190753 6712224.6242844)","attributes":{"title":"match 62","address":"London, UK","description":"","stop_instance_id":"stop-27202","supplychain_instance_id":"supplychain-1"}},{"local_stop_id":100,"id":100,"geometry":"POINT(2641534.6723122 4577125.613886)","attributes":{"title":"match 62","address":"Athens, Greece","description":"","stop_instance_id":"stop-27449","supplychain_instance_id":"supplychain-1"}},{"local_stop_id":99,"id":99,"geometry":"POINT(-13338.791190753 6712224.6242844)","attributes":{"title":"match 63","address":"London, UK","description":"","stop_instance_id":"stop-28566","supplychain_instance_id":"supplychain-1"}},{"local_stop_id":98,"id":98,"geometry":"POINT(831033.18299631 6712649.1387336)","attributes":{"title":"match 63","address":"Dortmund, Germany","description":"","stop_instance_id":"stop-28817","supplychain_instance_id":"supplychain-1"}},{"local_stop_id":97,"id":97,"geometry":"POINT(597761.1751887 5357208.8627658)","attributes":{"title":"match 64","address":"Marseille, France","description":"","stop_instance_id":"stop-29448","supplychain_instance_id":"supplychain-1"}},{"local_stop_id":96,"id":96,"geometry":"POINT(-13338.791190753 6712224.6242844)","attributes":{"title":"match 64","address":"London, UK","description":"","stop_instance_id":"stop-29957","supplychain_instance_id":"supplychain-1"}},{"local_stop_id":95,"id":95,"geometry":"POINT(597761.1751887 5357208.8627658)","attributes":{"title":"match 65","address":"Marseille, France","description":"","stop_instance_id":"stop-30854","supplychain_instance_id":"supplychain-1"}},{"local_stop_id":94,"id":94,"geometry":"POINT(2641534.6723122 4577125.613886)","attributes":{"title":"match 65","address":"Athens, Greece","description":"","stop_instance_id":"stop-31113","supplychain_instance_id":"supplychain-1"}},{"local_stop_id":93,"id":93,"geometry":"POINT(597761.1751887 5357208.8627658)","attributes":{"title":"match 66","address":"Marseille, France","description":"","stop_instance_id":"stop-31764","supplychain_instance_id":"supplychain-1"}},{"local_stop_id":92,"id":92,"geometry":"POINT(831033.18299631 6712649.1387336)","attributes":{"title":"match 66","address":"Dortmund, Germany","description":"","stop_instance_id":"stop-32027","supplychain_instance_id":"supplychain-1"}},{"local_stop_id":91,"id":91,"geometry":"POINT(2641534.6723122 4577125.613886)","attributes":{"title":"match 67","address":"Athens, Greece","description":"","stop_instance_id":"stop-32688","supplychain_instance_id":"supplychain-1"}},{"local_stop_id":90,"id":90,"geometry":"POINT(-13338.791190753 6712224.6242844)","attributes":{"title":"match 67","address":"London, UK","description":"","stop_instance_id":"stop-32955","supplychain_instance_id":"supplychain-1"}},{"local_stop_id":89,"id":89,"geometry":"POINT(2641534.6723122 4577125.613886)","attributes":{"title":"match 68","address":"Athens, Greece","description":"","stop_instance_id":"stop-33626","supplychain_instance_id":"supplychain-1"}},{"local_stop_id":88,"id":88,"geometry":"POINT(597761.1751887 5357208.8627658)","attributes":{"title":"match 68","address":"Marseille, France","description":"","stop_instance_id":"stop-33897","supplychain_instance_id":"supplychain-1"}},{"local_stop_id":87,"id":87,"geometry":"POINT(2641534.6723122 4577125.613886)","attributes":{"title":"match 69","address":"Athens, Greece","description":"","stop_instance_id":"stop-34578","supplychain_instance_id":"supplychain-1"}},{"local_stop_id":86,"id":86,"geometry":"POINT(831033.18299631 6712649.1387336)","attributes":{"title":"match 69","address":"Dortmund, Germany","description":"","stop_instance_id":"stop-34853","supplychain_instance_id":"supplychain-1"}},{"local_stop_id":85,"id":85,"geometry":"POINT(831033.18299631 6712649.1387336)","attributes":{"title":"match 70","address":"Dortmund, Germany","description":"","stop_instance_id":"stop-35544","supplychain_instance_id":"supplychain-1"}},{"local_stop_id":84,"id":84,"geometry":"POINT(-13338.791190753 6712224.6242844)","attributes":{"title":"match 70","address":"London, UK","description":"","stop_instance_id":"stop-35823","supplychain_instance_id":"supplychain-1"}},{"local_stop_id":83,"id":83,"geometry":"POINT(831033.18299631 6712649.1387336)","attributes":{"title":"match 71","address":"Dortmund, Germany","description":"","stop_instance_id":"stop-36384","supplychain_instance_id":"supplychain-1"}},{"local_stop_id":82,"id":82,"geometry":"POINT(597761.1751887 5357208.8627658)","attributes":{"title":"match 71","address":"Marseille, France","description":"","stop_instance_id":"stop-36667","supplychain_instance_id":"supplychain-1"}},{"local_stop_id":81,"id":81,"geometry":"POINT(831033.18299631 6712649.1387336)","attributes":{"title":"match 72","address":"Dortmund, Germany","description":"","stop_instance_id":"stop-37236","supplychain_instance_id":"supplychain-1"}},{"local_stop_id":80,"id":80,"geometry":"POINT(2641534.6723122 4577125.613886)","attributes":{"title":"match 72","address":"Athens, Greece","description":"","stop_instance_id":"stop-37523","supplychain_instance_id":"supplychain-1"}},{"local_stop_id":79,"id":79,"geometry":"POINT(3721394.8806529 4181073.462683)","attributes":{"title":"match 73","address":"Cyprus","description":"","stop_instance_id":"stop-38100","supplychain_instance_id":"supplychain-1"}},{"local_stop_id":78,"id":78,"geometry":"POINT(3385225.4919132 8379287.9642544)","attributes":{"title":"match 73","address":"Saint Petersburg, Russia","description":"","stop_instance_id":"stop-38391","supplychain_instance_id":"supplychain-1"}},{"local_stop_id":77,"id":77,"geometry":"POINT(3721394.8806529 4181073.462683)","attributes":{"title":"match 74","address":"Cyprus","description":"","stop_instance_id":"stop-39122","supplychain_instance_id":"supplychain-1"}},{"local_stop_id":76,"id":76,"geometry":"POINT(-960010.98403354 5035480.8282298)","attributes":{"title":"match 74","address":"4440-452 Oporto, Portugal","description":"","stop_instance_id":"stop-39417","supplychain_instance_id":"supplychain-1"}},{"local_stop_id":75,"id":75,"geometry":"POINT(3721394.8806529 4181073.462683)","attributes":{"title":"match 75","address":"Cyprus","description":"","stop_instance_id":"stop-40010","supplychain_instance_id":"supplychain-1"}},{"local_stop_id":74,"id":74,"geometry":"POINT(4208194.0119487 6109497.6061747)","attributes":{"title":"match 75","address":"Donetsk, Donetsk Oblast, Ukraine","description":"","stop_instance_id":"stop-40309","supplychain_instance_id":"supplychain-1"}},{"local_stop_id":73,"id":73,"geometry":"POINT(3385225.4919132 8379287.9642544)","attributes":{"title":"match 76","address":"Saint Petersburg, Russia","description":"","stop_instance_id":"stop-40910","supplychain_instance_id":"supplychain-1"}},{"local_stop_id":72,"id":72,"geometry":"POINT(3721394.8806529 4181073.462683)","attributes":{"title":"match 76","address":"Cyprus","description":"","stop_instance_id":"stop-41213","supplychain_instance_id":"supplychain-1"}},{"local_stop_id":71,"id":71,"geometry":"POINT(3385225.4919132 8379287.9642544)","attributes":{"title":"match 77","address":"Saint Petersburg, Russia","description":"","stop_instance_id":"stop-41974","supplychain_instance_id":"supplychain-1"}},{"local_stop_id":70,"id":70,"geometry":"POINT(-960010.98403354 5035480.8282298)","attributes":{"title":"match 77","address":"4440-452 Oporto, Portugal","description":"","stop_instance_id":"stop-42281","supplychain_instance_id":"supplychain-1"}},{"local_stop_id":69,"id":69,"geometry":"POINT(3385225.4919132 8379287.9642544)","attributes":{"title":"match 78","address":"Saint Petersburg, Russia","description":"","stop_instance_id":"stop-42898","supplychain_instance_id":"supplychain-1"}},{"local_stop_id":68,"id":68,"geometry":"POINT(4208194.0119487 6109497.6061747)","attributes":{"title":"match 78","address":"Donetsk, Donetsk Oblast, Ukraine","description":"","stop_instance_id":"stop-43209","supplychain_instance_id":"supplychain-1"}},{"local_stop_id":67,"id":67,"geometry":"POINT(-960010.98403354 5035480.8282298)","attributes":{"title":"match 79","address":"4440-452 Oporto, Portugal","description":"","stop_instance_id":"stop-43834","supplychain_instance_id":"supplychain-1"}},{"local_stop_id":66,"id":66,"geometry":"POINT(3721394.8806529 4181073.462683)","attributes":{"title":"match 79","address":"Cyprus","description":"","stop_instance_id":"stop-44149","supplychain_instance_id":"supplychain-1"}},{"local_stop_id":65,"id":65,"geometry":"POINT(-960010.98403354 5035480.8282298)","attributes":{"title":"match 80","address":"4440-452 Oporto, Portugal","description":"","stop_instance_id":"stop-44782","supplychain_instance_id":"supplychain-1"}},{"local_stop_id":64,"id":64,"geometry":"POINT(3385225.4919132 8379287.9642544)","attributes":{"title":"match 80","address":"Saint Petersburg, Russia","description":"","stop_instance_id":"stop-45101","supplychain_instance_id":"supplychain-1"}},{"local_stop_id":63,"id":63,"geometry":"POINT(-960010.98403354 5035480.8282298)","attributes":{"title":"match 81","address":"4440-452 Oporto, Portugal","description":"","stop_instance_id":"stop-45742","supplychain_instance_id":"supplychain-1"}},{"local_stop_id":62,"id":62,"geometry":"POINT(4208194.0119487 6109497.6061747)","attributes":{"title":"match 81","address":"Donetsk, Donetsk Oblast, Ukraine","description":"","stop_instance_id":"stop-46065","supplychain_instance_id":"supplychain-1"}},{"local_stop_id":61,"id":61,"geometry":"POINT(4208194.0119487 6109497.6061747)","attributes":{"title":"match 82","address":"Donetsk, Donetsk Oblast, Ukraine","description":"","stop_instance_id":"stop-46714","supplychain_instance_id":"supplychain-1"}},{"local_stop_id":60,"id":60,"geometry":"POINT(3721394.8806529 4181073.462683)","attributes":{"title":"match 82","address":"Cyprus","description":"","stop_instance_id":"stop-47041","supplychain_instance_id":"supplychain-1"}},{"local_stop_id":59,"id":59,"geometry":"POINT(4208194.0119487 6109497.6061747)","attributes":{"title":"match 83","address":"Donetsk, Donetsk Oblast, Ukraine","description":"","stop_instance_id":"stop-47698","supplychain_instance_id":"supplychain-1"}},{"local_stop_id":58,"id":58,"geometry":"POINT(3385225.4919132 8379287.9642544)","attributes":{"title":"match 83","address":"Saint Petersburg, Russia","description":"","stop_instance_id":"stop-48029","supplychain_instance_id":"supplychain-1"}},{"local_stop_id":57,"id":57,"geometry":"POINT(4208194.0119487 6109497.6061747)","attributes":{"title":"match 84","address":"Donetsk, Donetsk Oblast, Ukraine","description":"","stop_instance_id":"stop-48694","supplychain_instance_id":"supplychain-1"}},{"local_stop_id":56,"id":56,"geometry":"POINT(-960010.98403354 5035480.8282298)","attributes":{"title":"match 84","address":"4440-452 Oporto, Portugal","description":"","stop_instance_id":"stop-49029","supplychain_instance_id":"supplychain-1"}},{"local_stop_id":55,"id":55,"geometry":"POINT(241942.17087464 5069305.4882311)","attributes":{"title":"match 85","address":"Barcelona, Spain","description":"","stop_instance_id":"stop-49870","supplychain_instance_id":"supplychain-1"}},{"local_stop_id":54,"id":54,"geometry":"POINT(1022638.2831419 5695097.7965024)","attributes":{"title":"match 85","address":"Milan, Italy","description":"","stop_instance_id":"stop-50209","supplychain_instance_id":"supplychain-1"}},{"local_stop_id":53,"id":53,"geometry":"POINT(241942.17087464 5069305.4882311)","attributes":{"title":"match 86","address":"Barcelona, Spain","description":"","stop_instance_id":"stop-50890","supplychain_instance_id":"supplychain-1"}},{"local_stop_id":52,"id":52,"geometry":"POINT(1482299.6818091 6345313.9608952)","attributes":{"title":"match 86","address":"Plze\u0148 Region Czech Republic","description":"","stop_instance_id":"stop-51233","supplychain_instance_id":"supplychain-1"}},{"local_stop_id":51,"id":51,"geometry":"POINT(241942.17087464 5069305.4882311)","attributes":{"title":"match 87","address":"Barcelona, Spain","description":"","stop_instance_id":"stop-51922","supplychain_instance_id":"supplychain-1"}},{"local_stop_id":50,"id":50,"geometry":"POINT(3172605.4871667 7214471.2636437)","attributes":{"title":"match 87","address":"Barysaw, Belarus","description":"","stop_instance_id":"stop-52269","supplychain_instance_id":"supplychain-1"}},{"local_stop_id":49,"id":49,"geometry":"POINT(1022638.2831419 5695097.7965024)","attributes":{"title":"match 88","address":"Milan, Italy","description":"","stop_instance_id":"stop-52966","supplychain_instance_id":"supplychain-1"}},{"local_stop_id":48,"id":48,"geometry":"POINT(241942.17087464 5069305.4882311)","attributes":{"title":"match 88","address":"Barcelona, Spain","description":"","stop_instance_id":"stop-53317","supplychain_instance_id":"supplychain-1"}},{"local_stop_id":47,"id":47,"geometry":"POINT(1022638.2831419 5695097.7965024)","attributes":{"title":"match 89","address":"Milan, Italy","description":"","stop_instance_id":"stop-54022","supplychain_instance_id":"supplychain-1"}},{"local_stop_id":46,"id":46,"geometry":"POINT(1488744.5682555 6401098.3248024)","attributes":{"title":"match 89","address":"Plze\u0148, Czech Republic","description":"","stop_instance_id":"stop-54377","supplychain_instance_id":"supplychain-1"}},{"local_stop_id":45,"id":45,"geometry":"POINT(1022638.2831419 5695097.7965024)","attributes":{"title":"match 90","address":"Milan, Italy","description":"","stop_instance_id":"stop-55090","supplychain_instance_id":"supplychain-1"}},{"local_stop_id":44,"id":44,"geometry":"POINT(3172605.4871667 7214471.2636437)","attributes":{"title":"match 89","address":"Barysaw, Belarus","description":"","stop_instance_id":"stop-55449","supplychain_instance_id":"supplychain-1"}},{"local_stop_id":43,"id":43,"geometry":"POINT(1488744.5682555 6401098.3248024)","attributes":{"title":"match 91","address":"Plze\u0148, Czech Republic","description":"","stop_instance_id":"stop-56170","supplychain_instance_id":"supplychain-1"}},{"local_stop_id":42,"id":42,"geometry":"POINT(241942.17087464 5069305.4882311)","attributes":{"title":"match 91","address":"Barcelona, Spain","description":"","stop_instance_id":"stop-56533","supplychain_instance_id":"supplychain-1"}},{"local_stop_id":41,"id":41,"geometry":"POINT(1488744.5682555 6401098.3248024)","attributes":{"title":"match 92","address":"Plze\u0148, Czech Republic","description":"","stop_instance_id":"stop-57262","supplychain_instance_id":"supplychain-1"}},{"local_stop_id":40,"id":40,"geometry":"POINT(1022638.2831419 5695097.7965024)","attributes":{"title":"match 92","address":"Milan, Italy","description":"","stop_instance_id":"stop-57629","supplychain_instance_id":"supplychain-1"}},{"local_stop_id":39,"id":39,"geometry":"POINT(1488744.5682555 6401098.3248024)","attributes":{"title":"match 93","address":"Plze\u0148, Czech Republic","description":"","stop_instance_id":"stop-58366","supplychain_instance_id":"supplychain-1"}},{"local_stop_id":38,"id":38,"geometry":"POINT(3172605.4871667 7214471.2636437)","attributes":{"title":"match 93","address":"Barysaw, Belarus","description":"","stop_instance_id":"stop-58737","supplychain_instance_id":"supplychain-1"}},{"local_stop_id":37,"id":37,"geometry":"POINT(3172605.4871667 7214471.2636437)","attributes":{"title":"match 94","address":"Barysaw, Belarus","description":"","stop_instance_id":"stop-59482","supplychain_instance_id":"supplychain-1"}},{"local_stop_id":36,"id":36,"geometry":"POINT(241942.17087464 5069305.4882311)","attributes":{"title":"match 94","address":"Barcelona, Spain","description":"","stop_instance_id":"stop-59857","supplychain_instance_id":"supplychain-1"}},{"local_stop_id":35,"id":35,"geometry":"POINT(3172605.4871667 7214471.2636437)","attributes":{"title":"match 95","address":"Barysaw, Belarus","description":"","stop_instance_id":"stop-60610","supplychain_instance_id":"supplychain-1"}},{"local_stop_id":34,"id":34,"geometry":"POINT(1022638.2831419 5695097.7965024)","attributes":{"title":"match 95","address":"Milan, Italy","description":"","stop_instance_id":"stop-60989","supplychain_instance_id":"supplychain-1"}},{"local_stop_id":33,"id":33,"geometry":"POINT(3172605.4871667 7214471.2636437)","attributes":{"title":"match 96","address":"Barysaw, Belarus","description":"","stop_instance_id":"stop-61940","supplychain_instance_id":"supplychain-1"}},{"local_stop_id":32,"id":32,"geometry":"POINT(1488744.5682555 6401098.3248024)","attributes":{"title":"match 96","address":"Plze\u0148, Czech Republic","description":"","stop_instance_id":"stop-62323","supplychain_instance_id":"supplychain-1"}},{"local_stop_id":31,"id":31,"geometry":"POINT(781375.9515294 6629421.3111641)","attributes":{"title":"match 87","address":"Leverkusen, Germany","description":"","stop_instance_id":"stop-63092","supplychain_instance_id":"supplychain-1"}},{"local_stop_id":30,"id":30,"geometry":"POINT(241942.17087464 5069305.4882311)","attributes":{"title":"match 97","address":"Barcelona, Spain","description":"","stop_instance_id":"stop-63479","supplychain_instance_id":"supplychain-1"}},{"local_stop_id":29,"id":29,"geometry":"POINT(781375.9515294 6629421.3111641)","attributes":{"title":"match 97","address":"Leverkusen, Germany","description":"","stop_instance_id":"stop-64450","supplychain_instance_id":"supplychain-1"}},{"local_stop_id":28,"id":28,"geometry":"POINT(538303.09745498 5742617.236142)","attributes":{"title":"match 98","address":"Lyon, France","description":"","stop_instance_id":"stop-65231","supplychain_instance_id":"supplychain-1"}},{"local_stop_id":27,"id":27,"geometry":"POINT(3721394.8806529 4181073.462683)","attributes":{"title":"match 98","address":"Cyprus","description":"","stop_instance_id":"stop-65624","supplychain_instance_id":"supplychain-1"}},{"local_stop_id":26,"id":26,"geometry":"POINT(3385225.4919132 8379287.9642544)","attributes":{"title":"match 99","address":"Saint Petersburg, Russia","description":"","stop_instance_id":"stop-66413","supplychain_instance_id":"supplychain-1"}},{"local_stop_id":25,"id":25,"geometry":"POINT(-1018577.3926461 4682399.0909397)","attributes":{"title":"match 99","address":"2715-311 Lisbon, Portugal","description":"","stop_instance_id":"stop-66810","supplychain_instance_id":"supplychain-1"}},{"local_stop_id":24,"id":24,"geometry":"POINT(1022638.2831419 5695097.7965024)","attributes":{"title":"match 100","address":"Milan, Italy","description":"","stop_instance_id":"stop-67806","supplychain_instance_id":"supplychain-1"}},{"local_stop_id":23,"id":23,"geometry":"POINT(-13338.791190753 6712224.6242844)","attributes":{"title":"match 100","address":"London, UK","description":"","stop_instance_id":"stop-68207","supplychain_instance_id":"supplychain-1"}},{"local_stop_id":22,"id":22,"geometry":"POINT(4188248.8987861 7508737.8314651)","attributes":{"title":"match 101","address":"Moscow, Russia","description":"","stop_instance_id":"stop-69012","supplychain_instance_id":"supplychain-1"}},{"local_stop_id":21,"id":21,"geometry":"POINT(-412304.03901172 4926693.072095)","attributes":{"title":"match 101","address":"Madrid, Spain","description":"","stop_instance_id":"stop-69417","supplychain_instance_id":"supplychain-1"}},{"local_stop_id":20,"id":20,"geometry":"POINT(1588320.342562 4990502.9730649)","attributes":{"title":"match 102","address":"Naples, Italy","description":"","stop_instance_id":"stop-70842","supplychain_instance_id":"supplychain-1"}},{"local_stop_id":19,"id":19,"geometry":"POINT(-13338.791190753 6712224.6242844)","attributes":{"title":"match 102","address":"London, UK","description":"","stop_instance_id":"stop-71251","supplychain_instance_id":"supplychain-1"}},{"local_stop_id":18,"id":18,"geometry":"POINT(845201.32665726 6033538.7678687)","attributes":{"title":"match 103","address":"Basel, Switzerland","description":"","stop_instance_id":"stop-72072","supplychain_instance_id":"supplychain-1"}},{"local_stop_id":17,"id":17,"geometry":"POINT(1288755.218023 6129611.5190524)","attributes":{"title":"match 103","address":"Munich, Germany","description":"","stop_instance_id":"stop-72485","supplychain_instance_id":"supplychain-1"}},{"local_stop_id":16,"id":16,"geometry":"POINT(597761.1751887 5357208.8627658)","attributes":{"title":"match 104","address":"Marseille, France","description":"","stop_instance_id":"stop-73935","supplychain_instance_id":"supplychain-1"}},{"local_stop_id":15,"id":15,"geometry":"POINT(1022638.2831419 5695097.7965024)","attributes":{"title":"match 104","address":"Milan, Italy","description":"","stop_instance_id":"stop-74352","supplychain_instance_id":"supplychain-1"}},{"local_stop_id":14,"id":14,"geometry":"POINT(-1018577.3926461 4682399.0909397)","attributes":{"title":"match 105","address":"2715-311 Lisbon, Portugal","description":"","stop_instance_id":"stop-75189","supplychain_instance_id":"supplychain-1"}},{"local_stop_id":13,"id":13,"geometry":"POINT(-13338.791190753 6712224.6242844)","attributes":{"title":"match 105","address":"London, UK","description":"","stop_instance_id":"stop-75610","supplychain_instance_id":"supplychain-1"}},{"local_stop_id":12,"id":12,"geometry":"POINT(3721394.8806529 4181073.462683)","attributes":{"title":"match 106","address":"Cyprus","description":"","stop_instance_id":"stop-76455","supplychain_instance_id":"supplychain-1"}},{"local_stop_id":11,"id":11,"geometry":"POINT(-412304.03901172 4926693.072095)","attributes":{"title":"match 106","address":"Madrid, Spain","description":"","stop_instance_id":"stop-76880","supplychain_instance_id":"supplychain-1"}},{"local_stop_id":10,"id":10,"geometry":"POINT(1022638.2831419 5695097.7965024)","attributes":{"title":"match 107","address":"Milan, Italy","description":"","stop_instance_id":"stop-77733","supplychain_instance_id":"supplychain-1"}},{"local_stop_id":9,"id":9,"geometry":"POINT(241942.17087464 5069305.4882311)","attributes":{"title":"match 107","address":"Barcelona, Spain","description":"","stop_instance_id":"stop-78162","supplychain_instance_id":"supplychain-1"}},{"local_stop_id":8,"id":8,"geometry":"POINT(597761.1751887 5357208.8627658)","attributes":{"title":"match 108","address":"Marseille, France","description":"","stop_instance_id":"stop-79023","supplychain_instance_id":"supplychain-1"}},{"local_stop_id":7,"id":7,"geometry":"POINT(1288755.218023 6129611.5190524)","attributes":{"title":"match 108","address":"Munich, Germany","description":"","stop_instance_id":"stop-79456","supplychain_instance_id":"supplychain-1"}},{"local_stop_id":6,"id":6,"geometry":"POINT(241942.17087464 5069305.4882311)","attributes":{"title":"match 109","address":"Barcelona, Spain","description":"","stop_instance_id":"stop-80325","supplychain_instance_id":"supplychain-1"}},{"local_stop_id":5,"id":5,"geometry":"POINT(-13338.791190753 6712224.6242844)","attributes":{"title":"match 109","address":"London, UK","description":"","stop_instance_id":"stop-80762","supplychain_instance_id":"supplychain-1"}},{"local_stop_id":4,"id":4,"geometry":"POINT(-412304.03901172 4926693.072095)","attributes":{"title":"match 110","address":"Madrid, Spain","description":"","stop_instance_id":"stop-81639","supplychain_instance_id":"supplychain-1"}},{"local_stop_id":3,"id":3,"geometry":"POINT(1288755.218023 6129611.5190524)","attributes":{"title":"match 110","address":"Munich, Germany","description":"","stop_instance_id":"stop-82080","supplychain_instance_id":"supplychain-1"}},{"local_stop_id":2,"id":2,"geometry":"POINT(-13338.791190753 6712224.6242844)","attributes":{"title":"match 111","address":"London, UK","description":"","stop_instance_id":"stop-82965","supplychain_instance_id":"supplychain-1"}},{"local_stop_id":1,"id":1,"geometry":"POINT(1288755.218023 6129611.5190524)","attributes":{"title":"match 111","address":"Munich, Germany","description":"","stop_instance_id":"stop-83410","supplychain_instance_id":"supplychain-1"}}],"hops":[{"from_stop_id":223,"to_stop_id":222,"geometry":"MULTILINESTRING((1288755.218023 6129611.5190524,1588320.342562 4990502.9730649))","attributes":{"distance":"837.541139","co2e":"0","title":"match 1 to match 1 "}},{"from_stop_id":221,"to_stop_id":220,"geometry":"MULTILINESTRING((1288755.218023 6129611.5190524,-250237.97762613 7072143.1052487))","attributes":{"transport":"Air Freight (Regional)","unit":"kg","footprintmethodology":"\nCO2e factor referenced from: \n(2010) Okala Design Guide 2010","title":"match 2  to match 2 ","weight":"0","youtube:link":"","description":"","distance":"1135.821977","co2e":"0.000789178","co2e_reference":"http:\/\/footprinted.org\/air-freight-regional-3996338"}},{"from_stop_id":219,"to_stop_id":218,"geometry":"MULTILINESTRING((1288755.218023 6129611.5190524,-11197.983799707 4857193.7627525))","attributes":{"co2e":"0","distance":"1301.907184","title":"match 3  to match 3 "}},{"from_stop_id":216,"to_stop_id":217,"geometry":"MULTILINESTRING((1288755.218023 6129611.5190524,1588320.342562 4990502.9730649))","attributes":{"co2e":"0","title":"match 4  to match 4","distance":"837.541139"}},{"from_stop_id":215,"to_stop_id":214,"geometry":"MULTILINESTRING((1588320.342562 4990502.9730649,-250237.97762613 7072143.1052487))","attributes":{"title":"match 5 to match 5 ","distance":"1869.847275","co2e":"0"}},{"from_stop_id":213,"to_stop_id":212,"geometry":"MULTILINESTRING((1588320.342562 4990502.9730649,-11197.983799707 4857193.7627525))","attributes":{"distance":"1219.646731","title":"match 6 to match 6","co2e":"0"}},{"from_stop_id":211,"to_stop_id":210,"geometry":"MULTILINESTRING((-250237.97762613 7072143.1052487,1288755.218023 6129611.5190524))","attributes":{"co2e":"0","distance":"1135.821977","title":"match 7 to match 7 "}},{"from_stop_id":209,"to_stop_id":208,"geometry":"MULTILINESTRING((-250237.97762613 7072143.1052487,1588320.342562 4990502.9730649))","attributes":{"co2e":"0","title":"match 8 to match 8","distance":"1869.847275"}},{"from_stop_id":207,"to_stop_id":206,"geometry":"MULTILINESTRING((-250237.97762613 7072143.1052487,-11197.983799707 4857193.7627525))","attributes":{"distance":"1514.216304","title":"match 9 to match 9","co2e":"0"}},{"from_stop_id":205,"to_stop_id":204,"geometry":"MULTILINESTRING((-11197.983799707 4857193.7627525,1288755.218023 6129611.5190524))","attributes":{"title":"match 10 to match 10","co2e":"0","distance":"1301.907184"}},{"from_stop_id":203,"to_stop_id":202,"geometry":"MULTILINESTRING((-11197.983799707 4857193.7627525,1588320.342562 4990502.9730649))","attributes":{"title":"match 11 to match 11","distance":"1219.646731","co2e":"0"}},{"from_stop_id":201,"to_stop_id":200,"geometry":"MULTILINESTRING((-11197.983799707 4857193.7627525,-250237.97762613 7072143.1052487))","attributes":{"title":"match 12 to match 12","co2e":"0","distance":"1514.216304"}},{"from_stop_id":199,"to_stop_id":198,"geometry":"MULTILINESTRING((1022638.2831419 5695097.7965024,4188248.8987861 7508737.8314651))","attributes":{"co2e":"0","title":"match 13 to match 13","distance":"2286.125176"}},{"from_stop_id":197,"to_stop_id":196,"geometry":"MULTILINESTRING((1022638.2831419 5695097.7965024,4421365.2596817 5012555.5401713))","attributes":{"distance":"2506.858123","title":"match 14 to match 14","co2e":"0"}},{"from_stop_id":197,"to_stop_id":195,"geometry":"MULTILINESTRING((1022638.2831419 5695097.7965024,1022638.2831419 5695097.7965024))","attributes":{"co2e":"0","title":"match 14 to match 15","distance":"0"}},{"from_stop_id":195,"to_stop_id":194,"geometry":"MULTILINESTRING((1022638.2831419 5695097.7965024,340332.18109731 6555972.5220507))","attributes":{"distance":"732.469397","co2e":"0","title":"match 15 to match 15"}},{"from_stop_id":193,"to_stop_id":192,"geometry":"MULTILINESTRING((4188248.8987861 7508737.8314651,1022638.2831419 5695097.7965024))","attributes":{"distance":"2286.125176","title":"match 16 to match 16","co2e":"0"}},{"from_stop_id":191,"to_stop_id":190,"geometry":"MULTILINESTRING((4188248.8987861 7508737.8314651,4421365.2596817 5012555.5401713))","attributes":{"distance":"1647.008812","title":"match 17 to match 17","co2e":"0"}},{"from_stop_id":189,"to_stop_id":188,"geometry":"MULTILINESTRING((4188248.8987861 7508737.8314651,340332.18109731 6555972.5220507))","attributes":{"distance":"2345.639926","title":"match 18 to match 18","co2e":"0"}},{"from_stop_id":187,"to_stop_id":186,"geometry":"MULTILINESTRING((4421365.2596817 5012555.5401713,1022638.2831419 5695097.7965024))","attributes":{"title":"match 19 to match 19","co2e":"0","distance":"2506.858123"}},{"from_stop_id":185,"to_stop_id":184,"geometry":"MULTILINESTRING((4421365.2596817 5012555.5401713,4188248.8987861 7508737.8314651))","attributes":{"title":"match 20 to match 20","distance":"1647.008812","co2e":"0"}},{"from_stop_id":183,"to_stop_id":182,"geometry":"MULTILINESTRING((4421365.2596817 5012555.5401713,340332.18109731 6555972.5220507))","attributes":{"co2e":"0","title":"match 21 to match 21","distance":"2999.319103"}},{"from_stop_id":181,"to_stop_id":180,"geometry":"MULTILINESTRING((340332.18109731 6555972.5220507,1022638.2831419 5695097.7965024))","attributes":{"title":"match 22 to match 22","co2e":"0","distance":"732.469397"}},{"from_stop_id":179,"to_stop_id":178,"geometry":"MULTILINESTRING((340332.18109731 6555972.5220507,4188248.8987861 7508737.8314651))","attributes":{"distance":"2345.639926","co2e":"0","title":"match 23 to match 23"}},{"from_stop_id":177,"to_stop_id":176,"geometry":"MULTILINESTRING((340332.18109731 6555972.5220507,4421365.2596817 5012555.5401713))","attributes":{"title":"match 24 to match 24","co2e":"0","distance":"2999.319103"}},{"from_stop_id":175,"to_stop_id":174,"geometry":"MULTILINESTRING((-1018577.3926461 4682399.0909397,845201.32665726 6033538.7678687))","attributes":{"title":"match 25 to match 25","distance":"1670.431955","co2e":"0"}},{"from_stop_id":173,"to_stop_id":172,"geometry":"MULTILINESTRING((-1018577.3926461 4682399.0909397,-250237.97762613 7072143.1052487))","attributes":{"distance":"1722.728667","co2e":"0","title":"match 26 to match 26"}},{"from_stop_id":171,"to_stop_id":170,"geometry":"MULTILINESTRING((-1018577.3926461 4682399.0909397,3120401.5440495 5688793.2390822))","attributes":{"co2e":"0","distance":"3128.030844","title":"match 27 to match 27"}},{"from_stop_id":171,"to_stop_id":169,"geometry":"MULTILINESTRING((-1018577.3926461 4682399.0909397,845201.32665726 6033538.7678687))","attributes":{"co2e":"0","title":"match 27 to match 28","distance":"1670.431955"}},{"from_stop_id":169,"to_stop_id":168,"geometry":"MULTILINESTRING((845201.32665726 6033538.7678687,-1018577.3926461 4682399.0909397))","attributes":{"distance":"1670.431955","title":"match 28 to match 28","co2e":"0"}},{"from_stop_id":167,"to_stop_id":166,"geometry":"MULTILINESTRING((845201.32665726 6033538.7678687,-250237.97762613 7072143.1052487))","attributes":{"distance":"956.344440","title":"match 29 to match 29","co2e":"0"}},{"from_stop_id":165,"to_stop_id":164,"geometry":"MULTILINESTRING((845201.32665726 6033538.7678687,3120401.5440495 5688793.2390822))","attributes":{"distance":"1577.763777","title":"match 30 to match 30","co2e":"0"}},{"from_stop_id":163,"to_stop_id":162,"geometry":"MULTILINESTRING((-250237.97762613 7072143.1052487,-1018577.3926461 4682399.0909397))","attributes":{"distance":"1722.728667","title":"match 31 to match 31","co2e":"0"}},{"from_stop_id":161,"to_stop_id":160,"geometry":"MULTILINESTRING((-250237.97762613 7072143.1052487,845201.32665726 6033538.7678687))","attributes":{"co2e":"0","title":"match 32 to match 32","distance":"956.344440"}},{"from_stop_id":159,"to_stop_id":158,"geometry":"MULTILINESTRING((-250237.97762613 7072143.1052487,3120401.5440495 5688793.2390822))","attributes":{"title":"match 33 to match 33","distance":"2342.569700","co2e":"0"}},{"from_stop_id":157,"to_stop_id":156,"geometry":"MULTILINESTRING((3120401.5440495 5688793.2390822,-1018577.3926461 4682399.0909397))","attributes":{"title":"match 34 to match 34","co2e":"0","distance":"3128.030844"}},{"from_stop_id":155,"to_stop_id":154,"geometry":"MULTILINESTRING((3120401.5440495 5688793.2390822,845201.32665726 6033538.7678687))","attributes":{"title":"match 35 to match 35","co2e":"0","distance":"1577.763777"}},{"from_stop_id":153,"to_stop_id":152,"geometry":"MULTILINESTRING((3120401.5440495 5688793.2390822,-250237.97762613 7072143.1052487))","attributes":{"transportcat":"Method of Transportation","title":"match 36 to match 36","distance":"2342.569700","weight":"0","co2e":"0","description":"","youtube:link":""}},{"from_stop_id":151,"to_stop_id":150,"geometry":"MULTILINESTRING((-412304.03901172 4926693.072095,538303.09745498 5742617.236142))","attributes":{"co2e":"0","distance":"912.523312","title":"match 37 to match 37"}},{"from_stop_id":149,"to_stop_id":148,"geometry":"MULTILINESTRING((-412304.03901172 4926693.072095,544927.59789972 6867344.01311))","attributes":{"distance":"1481.325863","title":"match 38 to match 38","co2e":"0"}},{"from_stop_id":147,"to_stop_id":146,"geometry":"MULTILINESTRING((-412304.03901172 4926693.072095,1778651.1239689 5750437.4911016))","attributes":{"co2e":"0","distance":"1701.076532","title":"match 39 to match 39"}},{"from_stop_id":145,"to_stop_id":144,"geometry":"MULTILINESTRING((538303.09745498 5742617.236142,-412304.03901172 4926693.072095))","attributes":{"title":"match 40 to match 40","distance":"912.523312","co2e":"0"}},{"from_stop_id":143,"to_stop_id":142,"geometry":"MULTILINESTRING((538303.09745498 5742617.236142,544927.59789972 6867344.01311))","attributes":{"co2e":"0","title":"match 41 to match 41","distance":"734.585611"}},{"from_stop_id":141,"to_stop_id":140,"geometry":"MULTILINESTRING((538303.09745498 5742617.236142,1778651.1239689 5750437.4911016))","attributes":{"distance":"863.253997","title":"match 42 to match 42","co2e":"0"}},{"from_stop_id":139,"to_stop_id":138,"geometry":"MULTILINESTRING((544927.59789972 6867344.01311,-412304.03901172 4926693.072095))","attributes":{"distance":"1481.325863","co2e":"0","title":"match 43 to match 43"}},{"from_stop_id":137,"to_stop_id":136,"geometry":"MULTILINESTRING((544927.59789972 6867344.01311,538303.09745498 5742617.236142))","attributes":{"distance":"734.585611","title":"match 44 to match 44","co2e":"0"}},{"from_stop_id":135,"to_stop_id":134,"geometry":"MULTILINESTRING((544927.59789972 6867344.01311,1778651.1239689 5750437.4911016))","attributes":{"distance":"1085.432207","co2e":"0","title":"match 45 to match 45"}},{"from_stop_id":133,"to_stop_id":132,"geometry":"MULTILINESTRING((1778651.1239689 5750437.4911016,-412304.03901172 4926693.072095))","attributes":{"distance":"1701.076532","title":"match 46 to match 46","co2e":"0"}},{"from_stop_id":131,"to_stop_id":130,"geometry":"MULTILINESTRING((1778651.1239689 5750437.4911016,538303.09745498 5742617.236142))","attributes":{"distance":"863.253997","co2e":"0","title":"match 47 to match 47"}},{"from_stop_id":129,"to_stop_id":128,"geometry":"MULTILINESTRING((1778651.1239689 5750437.4911016,544927.59789972 6867344.01311))","attributes":{"title":"match 48 to match 48","distance":"1085.432207","co2e":"0"}},{"from_stop_id":127,"to_stop_id":126,"geometry":"MULTILINESTRING((-13338.791190753 6712224.6242844,781375.9515294 6629421.3111641))","attributes":{"title":"match 49 to match 49","co2e":"0","distance":"499.051016"}},{"from_stop_id":125,"to_stop_id":124,"geometry":"MULTILINESTRING((-13338.791190753 6712224.6242844,-41888.199677738 4789207.0615115))","attributes":{"co2e":"0","title":"match 50 to match 50","distance":"1339.079158"}},{"from_stop_id":123,"to_stop_id":122,"geometry":"MULTILINESTRING((-13338.791190753 6712224.6242844,612450.44991377 6614589.735635))","attributes":{"distance":"396.003328","title":"match 51 to match 51","co2e":"0"}},{"from_stop_id":121,"to_stop_id":120,"geometry":"MULTILINESTRING((781375.9515294 6629421.3111641,-13338.791190753 6712224.6242844))","attributes":{"distance":"499.051016","co2e":"0","title":"match 52 to match 52"}},{"from_stop_id":119,"to_stop_id":118,"geometry":"MULTILINESTRING((781375.9515294 6629421.3111641,-41888.199677738 4789207.0615115))","attributes":{"distance":"1409.638624","co2e":"0","title":"match 53 to match 53"}},{"from_stop_id":116,"to_stop_id":115,"geometry":"MULTILINESTRING((612450.44991377 6614589.735635,-41888.199677738 4789207.0615115))","attributes":{"co2e":"0","distance":"1357.192038","title":"match 54 to match 54 to match 55"}},{"from_stop_id":115,"to_stop_id":114,"geometry":"MULTILINESTRING((-41888.199677738 4789207.0615115,-13338.791190753 6712224.6242844))","attributes":{"title":"match 55 to match 55","distance":"1339.079158","co2e":"0"}},{"from_stop_id":113,"to_stop_id":112,"geometry":"MULTILINESTRING((-41888.199677738 4789207.0615115,781375.9515294 6629421.3111641))","attributes":{"co2e":"0","distance":"1409.638624","title":"match 56 to match 56"}},{"from_stop_id":110,"to_stop_id":111,"geometry":"MULTILINESTRING((612450.44991377 6614589.735635,-41888.199677738 4789207.0615115))","attributes":{"distance":"1357.192038","title":"match 57 to match 57","co2e":"0"}},{"from_stop_id":109,"to_stop_id":108,"geometry":"MULTILINESTRING((612450.44991377 6614589.735635,-13338.791190753 6712224.6242844))","attributes":{"distance":"396.003328","title":"match 58 to match 58","co2e":"0"}},{"from_stop_id":105,"to_stop_id":104,"geometry":"MULTILINESTRING((612450.44991377 6614589.735635,-41888.199677738 4789207.0615115))","attributes":{"distance":"1357.192038","title":"match 60 to match 60","co2e":"0"}},{"from_stop_id":102,"to_stop_id":103,"geometry":"MULTILINESTRING((597761.1751887 5357208.8627658,-13338.791190753 6712224.6242844))","attributes":{"distance":"1001.824938","co2e":"0","title":"match 61 to match 61"}},{"from_stop_id":102,"to_stop_id":100,"geometry":"MULTILINESTRING((597761.1751887 5357208.8627658,2641534.6723122 4577125.613886))","attributes":{"youtube:link":"","transportcat":"Method of Transportation","weight":"0","description":"","co2e":"0","distance":"1653.621714","title":"match 61 to match 61"}},{"from_stop_id":100,"to_stop_id":101,"geometry":"MULTILINESTRING((2641534.6723122 4577125.613886,-13338.791190753 6712224.6242844))","attributes":{"distance":"2391.474747","co2e":"0","title":"match 62 to match 62"}},{"from_stop_id":99,"to_stop_id":98,"geometry":"MULTILINESTRING((-13338.791190753 6712224.6242844,831033.18299631 6712649.1387336))","attributes":{"co2e":"0","distance":"524.667958","title":"match 63 to match 63"}},{"from_stop_id":102,"to_stop_id":97,"geometry":"MULTILINESTRING((597761.1751887 5357208.8627658,597761.1751887 5357208.8627658))","attributes":{"title":"match 61 to match 64","co2e":"0","distance":"0"}},{"from_stop_id":97,"to_stop_id":96,"geometry":"MULTILINESTRING((597761.1751887 5357208.8627658,-13338.791190753 6712224.6242844))","attributes":{"title":"match 64 to match 64","distance":"1001.824938","co2e":"0"}},{"from_stop_id":95,"to_stop_id":94,"geometry":"MULTILINESTRING((597761.1751887 5357208.8627658,2641534.6723122 4577125.613886))","attributes":{"co2e":"0","title":"match 65 to match 65","distance":"1653.621714"}},{"from_stop_id":93,"to_stop_id":92,"geometry":"MULTILINESTRING((597761.1751887 5357208.8627658,831033.18299631 6712649.1387336))","attributes":{"co2e":"0","title":"match 66 to match 66","distance":"927.104870"}},{"from_stop_id":91,"to_stop_id":90,"geometry":"MULTILINESTRING((2641534.6723122 4577125.613886,-13338.791190753 6712224.6242844))","attributes":{"distance":"2391.474747","title":"match 67 to match 67","co2e":"0"}},{"from_stop_id":89,"to_stop_id":88,"geometry":"MULTILINESTRING((2641534.6723122 4577125.613886,597761.1751887 5357208.8627658))","attributes":{"co2e":"0","distance":"1653.621714","title":"match 68 to match 68"}},{"from_stop_id":86,"to_stop_id":87,"geometry":"MULTILINESTRING((831033.18299631 6712649.1387336,2641534.6723122 4577125.613886))","attributes":{"co2e":"0","distance":"1969.050275","title":"match 69 to match 69"}},{"from_stop_id":84,"to_stop_id":85,"geometry":"MULTILINESTRING((-13338.791190753 6712224.6242844,831033.18299631 6712649.1387336))","attributes":{"distance":"524.667958","co2e":"0","title":"match 70 to match 70"}},{"from_stop_id":82,"to_stop_id":83,"geometry":"MULTILINESTRING((597761.1751887 5357208.8627658,831033.18299631 6712649.1387336))","attributes":{"co2e":"0","title":"match 71 to match 71","distance":"927.104870"}},{"from_stop_id":80,"to_stop_id":81,"geometry":"MULTILINESTRING((2641534.6723122 4577125.613886,831033.18299631 6712649.1387336))","attributes":{"title":"match 72 to match 72","distance":"1969.050275","co2e":"0"}},{"from_stop_id":79,"to_stop_id":78,"geometry":"MULTILINESTRING((3721394.8806529 4181073.462683,3385225.4919132 8379287.9642544))","attributes":{"title":"match 73 to match 73","co2e":"0","distance":"2764.231785"}},{"from_stop_id":76,"to_stop_id":77,"geometry":"MULTILINESTRING((-960010.98403354 5035480.8282298,3721394.8806529 4181073.462683))","attributes":{"title":"match 74 to match 74","co2e":"0","distance":"3701.608666"}},{"from_stop_id":74,"to_stop_id":75,"geometry":"MULTILINESTRING((4208194.0119487 6109497.6061747,3721394.8806529 4181073.462683))","attributes":{"distance":"1478.044527","title":"match 75 to match 75","co2e":"0"}},{"from_stop_id":72,"to_stop_id":73,"geometry":"MULTILINESTRING((3721394.8806529 4181073.462683,3385225.4919132 8379287.9642544))","attributes":{"title":"match 76 to match 76","distance":"2764.231785","co2e":"0"}},{"from_stop_id":70,"to_stop_id":71,"geometry":"MULTILINESTRING((-960010.98403354 5035480.8282298,3385225.4919132 8379287.9642544))","attributes":{"title":"match 77 to match 77","distance":"3378.558843","co2e":"0"}},{"from_stop_id":68,"to_stop_id":69,"geometry":"MULTILINESTRING((4208194.0119487 6109497.6061747,3385225.4919132 8379287.9642544))","attributes":{"title":"match 78 to match 78","co2e":"0","distance":"1405.940374"}},{"from_stop_id":66,"to_stop_id":67,"geometry":"MULTILINESTRING((3721394.8806529 4181073.462683,-960010.98403354 5035480.8282298))","attributes":{"title":"match 79 to match 79","distance":"3701.608666","co2e":"0"}},{"from_stop_id":64,"to_stop_id":65,"geometry":"MULTILINESTRING((3385225.4919132 8379287.9642544,-960010.98403354 5035480.8282298))","attributes":{"distance":"3378.558843","title":"match 80 to match 80","co2e":"0"}},{"from_stop_id":62,"to_stop_id":63,"geometry":"MULTILINESTRING((4208194.0119487 6109497.6061747,-960010.98403354 5035480.8282298))","attributes":{"title":"match 81 to match 81","co2e":"0","distance":"3696.470598"}},{"from_stop_id":60,"to_stop_id":61,"geometry":"MULTILINESTRING((3721394.8806529 4181073.462683,4208194.0119487 6109497.6061747))","attributes":{"co2e":"0","title":"match 82 to match 82","distance":"1478.044527"}},{"from_stop_id":58,"to_stop_id":59,"geometry":"MULTILINESTRING((3385225.4919132 8379287.9642544,4208194.0119487 6109497.6061747))","attributes":{"title":"match 83 to match 83","distance":"1405.940374","co2e":"0"}},{"from_stop_id":57,"to_stop_id":56,"geometry":"MULTILINESTRING((4208194.0119487 6109497.6061747,-960010.98403354 5035480.8282298))","attributes":{"co2e":"0","title":"match 84 to match 84","distance":"3696.470598"}},{"from_stop_id":54,"to_stop_id":55,"geometry":"MULTILINESTRING((1022638.2831419 5695097.7965024,241942.17087464 5069305.4882311))","attributes":{"distance":"725.216070","title":"match 85 to match 85","co2e":"0"}},{"from_stop_id":52,"to_stop_id":53,"geometry":"MULTILINESTRING((1482299.6818091 6345313.9608952,241942.17087464 5069305.4882311))","attributes":{"distance":"1243.985493","co2e":"0","title":"match 86 to match 86"}},{"from_stop_id":50,"to_stop_id":51,"geometry":"MULTILINESTRING((3172605.4871667 7214471.2636437,241942.17087464 5069305.4882311))","attributes":{"co2e":"0","distance":"2406.965298","title":"match 87 to match 87"}},{"from_stop_id":48,"to_stop_id":49,"geometry":"MULTILINESTRING((241942.17087464 5069305.4882311,1022638.2831419 5695097.7965024))","attributes":{"title":"match 88 to match 88","co2e":"0","distance":"725.216070"}},{"from_stop_id":46,"to_stop_id":47,"geometry":"MULTILINESTRING((1488744.5682555 6401098.3248024,1022638.2831419 5695097.7965024))","attributes":{"title":"match 89 to match 89","distance":"569.272455","co2e":"0"}},{"from_stop_id":44,"to_stop_id":45,"geometry":"MULTILINESTRING((3172605.4871667 7214471.2636437,1022638.2831419 5695097.7965024))","attributes":{"title":"match 89 to match 90","co2e":"0","distance":"1684.605611"}},{"from_stop_id":42,"to_stop_id":43,"geometry":"MULTILINESTRING((241942.17087464 5069305.4882311,1488744.5682555 6401098.3248024))","attributes":{"title":"match 91 to match 91","co2e":"0","distance":"1271.333306"}},{"from_stop_id":40,"to_stop_id":41,"geometry":"MULTILINESTRING((1022638.2831419 5695097.7965024,1488744.5682555 6401098.3248024))","attributes":{"title":"match 92 to match 92","co2e":"0","distance":"569.272455"}},{"from_stop_id":38,"to_stop_id":39,"geometry":"MULTILINESTRING((3172605.4871667 7214471.2636437,1488744.5682555 6401098.3248024))","attributes":{"distance":"1147.033205","title":"match 93 to match 93","co2e":"0"}},{"from_stop_id":36,"to_stop_id":37,"geometry":"MULTILINESTRING((241942.17087464 5069305.4882311,3172605.4871667 7214471.2636437))","attributes":{"distance":"2406.965298","title":"match 94 to match 94","co2e":"0"}},{"from_stop_id":35,"to_stop_id":34,"geometry":"MULTILINESTRING((3172605.4871667 7214471.2636437,1022638.2831419 5695097.7965024))","attributes":{"title":"match 95 to match 95","co2e":"0","distance":"1684.605611"}},{"from_stop_id":32,"to_stop_id":33,"geometry":"MULTILINESTRING((1488744.5682555 6401098.3248024,3172605.4871667 7214471.2636437))","attributes":{"title":"match 96 to match 96","distance":"1147.033205","co2e":"0"}},{"from_stop_id":30,"to_stop_id":29,"geometry":"MULTILINESTRING((241942.17087464 5069305.4882311,781375.9515294 6629421.3111641))","attributes":{"co2e":"0","title":"match 97 to match 97","distance":"1136.463632"}},{"from_stop_id":27,"to_stop_id":28,"geometry":"MULTILINESTRING((3721394.8806529 4181073.462683,538303.09745498 5742617.236142))","attributes":{"distance":"2673.726082","title":"match 98 to match 98","co2e":"0"}},{"from_stop_id":26,"to_stop_id":25,"geometry":"MULTILINESTRING((3385225.4919132 8379287.9642544,-1018577.3926461 4682399.0909397))","attributes":{"co2e":"0","title":"match 99 to match 99","distance":"3620.364616"}},{"from_stop_id":23,"to_stop_id":24,"geometry":"MULTILINESTRING((-13338.791190753 6712224.6242844,1022638.2831419 5695097.7965024))","attributes":{"distance":"958.973587","title":"match 100 to match 100","co2e":"0"}},{"from_stop_id":21,"to_stop_id":22,"geometry":"MULTILINESTRING((-412304.03901172 4926693.072095,4188248.8987861 7508737.8314651))","attributes":{"distance":"3440.592842","title":"match 101 to match 101","co2e":"0"}},{"from_stop_id":19,"to_stop_id":20,"geometry":"MULTILINESTRING((-13338.791190753 6712224.6242844,1588320.342562 4990502.9730649))","attributes":{"distance":"1616.614300","title":"match 102 to match 102","co2e":"0"}},{"from_stop_id":17,"to_stop_id":18,"geometry":"MULTILINESTRING((1288755.218023 6129611.5190524,845201.32665726 6033538.7678687))","attributes":{"distance":"304.198193","title":"match 103 to match 103","co2e":"0"}},{"from_stop_id":15,"to_stop_id":16,"geometry":"MULTILINESTRING((1022638.2831419 5695097.7965024,597761.1751887 5357208.8627658))","attributes":{"co2e":"0","distance":"387.443174","title":"match 104 to match 104"}},{"from_stop_id":13,"to_stop_id":14,"geometry":"MULTILINESTRING((-13338.791190753 6712224.6242844,-1018577.3926461 4682399.0909397))","attributes":{"distance":"1585.692385","title":"match 105 to match 105","co2e":"0"}},{"from_stop_id":11,"to_stop_id":12,"geometry":"MULTILINESTRING((-412304.03901172 4926693.072095,3721394.8806529 4181073.462683))","attributes":{"title":"match 106 to match 106","co2e":"0","distance":"3291.613630"}},{"from_stop_id":9,"to_stop_id":10,"geometry":"MULTILINESTRING((241942.17087464 5069305.4882311,1022638.2831419 5695097.7965024))","attributes":{"distance":"725.216070","title":"match 107 to match 107","co2e":"0"}},{"from_stop_id":7,"to_stop_id":8,"geometry":"MULTILINESTRING((1288755.218023 6129611.5190524,597761.1751887 5357208.8627658))","attributes":{"distance":"721.949491","title":"match 108 to match 108","co2e":"0"}},{"from_stop_id":5,"to_stop_id":6,"geometry":"MULTILINESTRING((-13338.791190753 6712224.6242844,241942.17087464 5069305.4882311))","attributes":{"distance":"1139.447988","title":"match 109 to match 109","co2e":"0"}},{"from_stop_id":3,"to_stop_id":4,"geometry":"MULTILINESTRING((1288755.218023 6129611.5190524,-412304.03901172 4926693.072095))","attributes":{"distance":"1484.571456","title":"match 110 to match 110","co2e":"0"}},{"from_stop_id":1,"to_stop_id":2,"geometry":"MULTILINESTRING((1288755.218023 6129611.5190524,-13338.791190753 6712224.6242844))","attributes":{"title":"match 111 to match 111","distance":"917.818448","co2e":"0"}}]},"editable":false}