{"type":"FeatureCollection","features":[{"type":"Feature","geometry":{"type":"Point","coordinates":[-93.379205699997,40.788078800002]},"properties":{"description":"282","address":"50060","placename":"Corydon, IA 50060, USA","title":"ManuPlant2"}},{"type":"Feature","geometry":{"type":"Point","coordinates":[-73.596263500004,45.402446700001]},"properties":{"description":"92","address":"J5C1B4","placename":"Sainte-Catherine, QC J5C 1B4, Canada","title":"Smelter13"}},{"type":"Feature","geometry":{"type":"Point","coordinates":[-74.476008799997,41.433474500001]},"properties":{"description":"85","address":"10940","placename":"Middletown, NY 10940, USA","title":"Smelter12"}},{"type":"Feature","geometry":{"type":"Point","coordinates":[-86.157370899998,39.771342499999]},"properties":{"description":"80","address":"46204","placename":"Indianapolis, IN 46204, USA","title":"Smelter11"}},{"type":"Feature","geometry":{"type":"Point","coordinates":[-117.9307584,34.027462200002]},"properties":{"description":"75","address":"91744","placename":"La Puente, CA 91744, USA","title":"Smelter10"}},{"type":"Feature","geometry":{"type":"Point","coordinates":[-82.456319899998,27.955269200003]},"properties":{"description":"70","address":"33602","placename":"Tampa, FL 33602, USA","title":"Smelter9"}},{"type":"Feature","geometry":{"type":"Point","coordinates":[-93.2080991,44.814974699998]},"properties":{"description":"65","address":"55122","placename":"Saint Paul, MN 55122, USA","title":"Smelter8"}},{"type":"Feature","geometry":{"type":"Point","coordinates":[-118.2234229,34.006374699999]},"properties":{"description":"60","address":"90058","placename":"Los Angeles, CA 90058, USA","title":"Smelter7"}},{"type":"Feature","geometry":{"type":"Point","coordinates":[-85.383370300004,40.194069799998]},"properties":{"description":"55","address":"47305","placename":"Muncie, IN 47305, USA","title":"Smelter6"}},{"type":"Feature","geometry":{"type":"Point","coordinates":[-75.830153700003,40.464964500002]},"properties":{"description":"500","address":"19522","placename":"Fleetwood, PA 19522, USA","title":"ManuPlant1"}},{"type":"Feature","geometry":{"type":"Point","coordinates":[-96.8148347,33.174667500001]},"properties":{"description":"50","address":"75033","placename":"Frisco, TX 75033, USA","title":"Smelter5"}},{"type":"Feature","geometry":{"type":"Point","coordinates":[-95.205790900001,40.008134399997]},"properties":{"description":"45","address":"64451","placename":"Forest City, MO 64451, USA","title":"Smelter4"}},{"type":"Feature","geometry":{"type":"Point","coordinates":[-75.830153700003,40.464964500002]},"properties":{"description":"40","address":"19522","placename":"Fleetwood, PA 19522, USA","title":"Smelter3"}},{"type":"Feature","geometry":{"type":"Point","coordinates":[-90.5352356,37.6693797]},"properties":{"description":"35","address":"63637","placename":"Doe Run, MO 63637, USA","title":"Smelter2"}},{"type":"Feature","geometry":{"type":"Point","coordinates":[-99.445043900002,27.567662699999]},"properties":{"description":"30","address":"78041","placename":"Laredo, TX 78041, USA","title":"Smelter1"}},{"type":"Feature","geometry":{"type":"Point","coordinates":[-74.411524599999,40.721118899998]},"properties":{"description":"65","address":"07928","placename":"Chatham, NJ 07928, USA","title":"Cust65"}},{"type":"Feature","geometry":{"type":"Point","coordinates":[-74.519705999996,40.930976000002]},"properties":{"description":"64","address":"07866","placename":"Rockaway, NJ 07866, USA","title":"Cust64"}},{"type":"Feature","geometry":{"type":"Point","coordinates":[-74.276618599998,40.2303787]},"properties":{"description":"63","address":"07728","placename":"Freehold Township, NJ 07728, USA","title":"Cust63"}},{"type":"Feature","geometry":{"type":"Point","coordinates":[-74.047637800002,40.887627300002]},"properties":{"description":"62","address":"07601","placename":"Hackensack, NJ 07601, USA","title":"Cust62"}},{"type":"Feature","geometry":{"type":"Point","coordinates":[-74.150420399999,40.9045824]},"properties":{"description":"61","address":"07513","placename":"Paterson, NJ 07513, USA","title":"Cust61"}},{"type":"Feature","geometry":{"type":"Point","coordinates":[-73.596263500004,45.402446700001]},"properties":{"description":"92","address":"J5C1B4","placename":"Sainte-Catherine, QC J5C 1B4, Canada","title":"Smelter13"}},{"type":"Feature","geometry":{"type":"Point","coordinates":[-74.253146499997,40.941148700001]},"properties":{"description":"60","address":"07470","placename":"Wayne, NJ 07470, USA","title":"Cust60"}},{"type":"Feature","geometry":{"type":"Point","coordinates":[-74.032949900001,40.7300567]},"properties":{"description":"59","address":"07310","placename":"Jersey City, NJ 07310, USA","title":"Cust59"}},{"type":"Feature","geometry":{"type":"Point","coordinates":[-74.179776600002,40.651777300001]},"properties":{"description":"58","address":"07206","placename":"Elizabethport, NJ 07206, USA","title":"Cust58"}},{"type":"Feature","geometry":{"type":"Point","coordinates":[-74.141612699999,40.723126399998]},"properties":{"description":"57","address":"07105","placename":"Newark, NJ 07105, USA","title":"Cust57"}},{"type":"Feature","geometry":{"type":"Point","coordinates":[-74.417387700003,40.568290000003]},"properties":{"description":"56","address":"07080","placename":"South Plainfield, NJ 07080, USA","title":"Cust56"}},{"type":"Feature","geometry":{"type":"Point","coordinates":[-74.476008799997,41.433474500001]},"properties":{"description":"85","address":"10940","placename":"Middletown, NY 10940, USA","title":"Smelter12"}},{"type":"Feature","geometry":{"type":"Point","coordinates":[-73.521128600002,41.099423800003]},"properties":{"description":"55","address":"06907","placename":"Stamford, CT 06907, USA","title":"Cust55"}},{"type":"Feature","geometry":{"type":"Point","coordinates":[-73.453377900001,41.375572199998]},"properties":{"description":"54","address":"06810","placename":"Danbury, CT 06810, USA","title":"Cust54"}},{"type":"Feature","geometry":{"type":"Point","coordinates":[-73.022817299998,41.530284500001]},"properties":{"description":"53","address":"06706","placename":"Waterbury, CT 06706, USA","title":"Cust53"}},{"type":"Feature","geometry":{"type":"Point","coordinates":[-73.1290596,41.166114200003]},"properties":{"description":"52","address":"06615","placename":"Stratford, CT 06615, USA","title":"Cust52"}},{"type":"Feature","geometry":{"type":"Point","coordinates":[-72.928339099998,41.321291200002]},"properties":{"description":"51","address":"06511","placename":"New Haven, CT 06511, USA","title":"Cust51"}},{"type":"Feature","geometry":{"type":"Point","coordinates":[-86.157370899998,39.771342499999]},"properties":{"description":"80","address":"46204","placename":"Indianapolis, IN 46204, USA","title":"Smelter11"}},{"type":"Feature","geometry":{"type":"Point","coordinates":[-72.780642199996,41.459303900001]},"properties":{"description":"50","address":"06492","placename":"Wallingford, CT 06492, USA","title":"Cust50"}},{"type":"Feature","geometry":{"type":"Point","coordinates":[-72.153460600004,41.351290100001]},"properties":{"description":"49","address":"06385","placename":"Waterford, CT 06385, USA","title":"Cust49"}},{"type":"Feature","geometry":{"type":"Point","coordinates":[-71.8689917,41.904601199998]},"properties":{"description":"48","address":"06260","placename":"Putnam, CT 06260, USA","title":"Cust48"}},{"type":"Feature","geometry":{"type":"Point","coordinates":[-72.727449500004,41.737097500002]},"properties":{"description":"47","address":"06110","placename":"West Hartford, CT 06110, USA","title":"Cust47"}},{"type":"Feature","geometry":{"type":"Point","coordinates":[-72.733360400003,41.839445799999]},"properties":{"description":"46","address":"06002","placename":"Bloomfield, CT 06002, USA","title":"Cust46"}},{"type":"Feature","geometry":{"type":"Point","coordinates":[-117.9307584,34.027462200002]},"properties":{"description":"75","address":"91744","placename":"La Puente, CA 91744, USA","title":"Smelter10"}},{"type":"Feature","geometry":{"type":"Point","coordinates":[-71.492234100004,45.007682600001]},"properties":{"description":"45","address":"05902","placename":"Beecher Falls, VT 05902, USA","title":"Cust45"}},{"type":"Feature","geometry":{"type":"Point","coordinates":[-72.074994099998,44.947145499999]},"properties":{"description":"44","address":"05829","placename":"Derby, VT 05829, USA","title":"Cust44"}},{"type":"Feature","geometry":{"type":"Point","coordinates":[-72.922432900003,43.615354900002]},"properties":{"description":"43","address":"05701","placename":"Rutland, VT 05701, USA","title":"Cust43"}},{"type":"Feature","geometry":{"type":"Point","coordinates":[-72.508467799996,44.2019646]},"properties":{"description":"42","address":"05641","placename":"Barre, VT 05641, USA","title":"Cust42"}},{"type":"Feature","geometry":{"type":"Point","coordinates":[-73.160780599996,44.449348899997]},"properties":{"description":"41","address":"05403","placename":"South Burlington, VT 05403, USA","title":"Cust41"}},{"type":"Feature","geometry":{"type":"Point","coordinates":[-82.456319899998,27.955269200003]},"properties":{"description":"70","address":"33602","placename":"Tampa, FL 33602, USA","title":"Smelter9"}},{"type":"Feature","geometry":{"type":"Point","coordinates":[-72.875178600001,42.893695500001]},"properties":{"description":"40","address":"05363","placename":"Wilmington, VT 05363, USA","title":"Cust40"}},{"type":"Feature","geometry":{"type":"Point","coordinates":[-73.064139600003,43.149263799999]},"properties":{"description":"39","address":"05255","placename":"Manchester Center, VT 05255, USA","title":"Cust39"}},{"type":"Feature","geometry":{"type":"Point","coordinates":[-72.496818899998,43.174494899998]},"properties":{"description":"38","address":"05101","placename":"Bellows Falls, VT 05101, USA","title":"Cust38"}},{"type":"Feature","geometry":{"type":"Point","coordinates":[-72.152199700004,44.018198300003]},"properties":{"description":"37","address":"05033","placename":"Bradford, VT 05033, USA","title":"Cust37"}},{"type":"Feature","geometry":{"type":"Point","coordinates":[-69.663869399999,44.769781799999]},"properties":{"description":"36","address":"04976","placename":"Skowhegan, ME 04976, USA","title":"Cust36"}},{"type":"Feature","geometry":{"type":"Point","coordinates":[-93.2080991,44.814974699998]},"properties":{"description":"65","address":"55122","placename":"Saint Paul, MN 55122, USA","title":"Smelter8"}},{"type":"Feature","geometry":{"type":"Point","coordinates":[-69.123906800003,44.121031099999]},"properties":{"description":"35","address":"04841","placename":"Rockland, ME 04841, USA","title":"Cust35"}},{"type":"Feature","geometry":{"type":"Point","coordinates":[-67.989974700004,46.7026897]},"properties":{"description":"34","address":"04769","placename":"Presque Isle, ME 04769, USA","title":"Cust34"}},{"type":"Feature","geometry":{"type":"Point","coordinates":[-68.373505299998,44.774233099998]},"properties":{"description":"33","address":"04605","placename":"Ellsworth, ME 04605, USA","title":"Cust33"}},{"type":"Feature","geometry":{"type":"Point","coordinates":[-69.8244763,43.891022000001]},"properties":{"description":"32","address":"04530","placename":"Bath, ME 04530, USA","title":"Cust32"}},{"type":"Feature","geometry":{"type":"Point","coordinates":[-68.861861700002,44.850412200001]},"properties":{"description":"31","address":"04401","placename":"Bangor, ME 04401, USA","title":"Cust31"}},{"type":"Feature","geometry":{"type":"Point","coordinates":[-118.2234229,34.006374699999]},"properties":{"description":"60","address":"90058","placename":"Los Angeles, CA 90058, USA","title":"Smelter7"}},{"type":"Feature","geometry":{"type":"Point","coordinates":[-69.692375999997,44.352001500001]},"properties":{"description":"30","address":"04330","placename":"Augusta, ME 04330, USA","title":"Cust30"}},{"type":"Feature","geometry":{"type":"Point","coordinates":[-70.255657899996,44.111461100002]},"properties":{"description":"29","address":"04210","placename":"Auburn, ME 04210, USA","title":"Cust29"}},{"type":"Feature","geometry":{"type":"Point","coordinates":[-70.280782700003,43.629708399997]},"properties":{"description":"28","address":"04106","placename":"South Portland, ME 04106, USA","title":"Cust28"}},{"type":"Feature","geometry":{"type":"Point","coordinates":[-70.344213399997,43.702113299999]},"properties":{"description":"27","address":"04092","placename":"Westbrook, ME 04092, USA","title":"Cust27"}},{"type":"Feature","geometry":{"type":"Point","coordinates":[-70.648292000004,43.161768699998]},"properties":{"description":"26","address":"03909","placename":"York, ME 03909, USA","title":"Cust26"}},{"type":"Feature","geometry":{"type":"Point","coordinates":[-85.383370300004,40.194069799998]},"properties":{"description":"55","address":"47305","placename":"Muncie, IN 47305, USA","title":"Smelter6"}},{"type":"Feature","geometry":{"type":"Point","coordinates":[-93.379205699997,40.788078800002]},"properties":{"description":"282","address":"50060","placename":"Corydon, IA 50060, USA","title":"ManuPlant2"}},{"type":"Feature","geometry":{"type":"Point","coordinates":[-70.835779200002,43.087490599998]},"properties":{"description":"25","address":"03801","placename":"Portsmouth, NH 03801, USA","title":"Cust25"}},{"type":"Feature","geometry":{"type":"Point","coordinates":[-72.249235100004,43.621775699999]},"properties":{"description":"24","address":"03766","placename":"Lebanon, NH 03766, USA","title":"Cust24"}},{"type":"Feature","geometry":{"type":"Point","coordinates":[-71.785029399998,44.336410699999]},"properties":{"description":"23","address":"03561","placename":"Littleton, NH 03561, USA","title":"Cust23"}},{"type":"Feature","geometry":{"type":"Point","coordinates":[-72.3074326,42.956141400002]},"properties":{"description":"22","address":"03431","placename":"Keene, NH 03431, USA","title":"Cust22"}},{"type":"Feature","geometry":{"type":"Point","coordinates":[-71.5486562,43.2086343]},"properties":{"description":"21","address":"03301","placename":"Concord, NH 03301, USA","title":"Cust21"}},{"type":"Feature","geometry":{"type":"Point","coordinates":[-96.8148347,33.174667500001]},"properties":{"description":"50","address":"75033","placename":"Frisco, TX 75033, USA","title":"Smelter5"}},{"type":"Feature","geometry":{"type":"Point","coordinates":[-71.474999400004,43.579052100002]},"properties":{"description":"20","address":"03246","placename":"Laconia, NH 03246, USA","title":"Cust20"}},{"type":"Feature","geometry":{"type":"Point","coordinates":[-71.441810100002,42.956148500003]},"properties":{"description":"19","address":"03103","placename":"Manchester, NH 03103, USA","title":"Cust19"}},{"type":"Feature","geometry":{"type":"Point","coordinates":[-71.2161428,42.776831800001]},"properties":{"description":"18","address":"03079","placename":"Salem, NH 03079, USA","title":"Cust18"}},{"type":"Feature","geometry":{"type":"Point","coordinates":[-71.513044500003,41.903682499997]},"properties":{"description":"17","address":"02917","placename":"Smithfield, RI 02917, USA","title":"Cust17"}},{"type":"Feature","geometry":{"type":"Point","coordinates":[-71.426519800003,41.711351900002]},"properties":{"description":"16","address":"02887","placename":"Warwick, RI 02887, USA","title":"Cust16"}},{"type":"Feature","geometry":{"type":"Point","coordinates":[-95.205790900001,40.008134399997]},"properties":{"description":"45","address":"64451","placename":"Forest City, MO 64451, USA","title":"Smelter4"}},{"type":"Feature","geometry":{"type":"Point","coordinates":[-71.204261900001,41.7558583]},"properties":{"description":"15","address":"02777","placename":"Swansea, MA 02777, USA","title":"Cust15"}},{"type":"Feature","geometry":{"type":"Point","coordinates":[-70.300357199998,41.656720700002]},"properties":{"description":"14","address":"02601","placename":"Hyannis, MA 02601, USA","title":"Cust14"}},{"type":"Feature","geometry":{"type":"Point","coordinates":[-70.627627900002,41.575024900003]},"properties":{"description":"13","address":"02540","placename":"Falmouth, MA 02540, USA","title":"Cust13"}},{"type":"Feature","geometry":{"type":"Point","coordinates":[-71.159382200001,42.370377499998]},"properties":{"description":"12","address":"02471","placename":"Watertown, MA 02471, USA","title":"Cust12"}},{"type":"Feature","geometry":{"type":"Point","coordinates":[-70.847670799996,42.116221700003]},"properties":{"description":"11","address":"02339","placename":"Hanover, MA 02339, USA","title":"Cust11"}},{"type":"Feature","geometry":{"type":"Point","coordinates":[-75.830153700003,40.464964500002]},"properties":{"description":"40","address":"19522","placename":"Fleetwood, PA 19522, USA","title":"Smelter3"}},{"type":"Feature","geometry":{"type":"Point","coordinates":[-71.1002881,42.380875700001]},"properties":{"description":"10","address":"02143","placename":"Somerville, MA 02143, USA","title":"Cust10"}},{"type":"Feature","geometry":{"type":"Point","coordinates":[-71.180498799998,42.249451400003]},"properties":{"description":"9","address":"02026","placename":"Dedham, MA 02026, USA","title":"Cust9"}},{"type":"Feature","geometry":{"type":"Point","coordinates":[-71.014117999996,42.468164200001]},"properties":{"description":"8","address":"01906","placename":"Saugus, MA 01906, USA","title":"Cust8"}},{"type":"Feature","geometry":{"type":"Point","coordinates":[-71.275542199996,42.683027599998]},"properties":{"description":"7","address":"01826","placename":"Dracut, MA 01826, USA","title":"Cust7"}},{"type":"Feature","geometry":{"type":"Point","coordinates":[-71.346809100001,42.277528099999]},"properties":{"description":"6","address":"01760","placename":"Natick, MA 01760, USA","title":"Cust6"}},{"type":"Feature","geometry":{"type":"Point","coordinates":[-90.5352356,37.6693797]},"properties":{"description":"35","address":"63637","placename":"Doe Run, MO 63637, USA","title":"Smelter2"}},{"type":"Feature","geometry":{"type":"Point","coordinates":[-71.797833299997,42.3142089]},"properties":{"description":"5","address":"01606","placename":"Worcester, MA 01606, USA","title":"Cust5"}},{"type":"Feature","geometry":{"type":"Point","coordinates":[-71.726659000002,42.2834603]},"properties":{"description":"4","address":"01545","placename":"Shrewsbury, MA 01545, USA","title":"Cust4"}},{"type":"Feature","geometry":{"type":"Point","coordinates":[-71.833414499999,42.5768698]},"properties":{"description":"3","address":"01420","placename":"Fitchburg, MA 01420, USA","title":"Cust3"}},{"type":"Feature","geometry":{"type":"Point","coordinates":[-72.603289500003,42.6334135]},"properties":{"description":"2","address":"01301","placename":"Greenfield, MA 01301, USA","title":"Cust2"}},{"type":"Feature","geometry":{"type":"Point","coordinates":[-73.300123299999,42.463450299998]},"properties":{"description":"1","address":"01201","placename":"Pittsfield, MA 01201, USA","title":"Cust1"}},{"type":"Feature","geometry":{"type":"Point","coordinates":[-99.445043900002,27.567662699999]},"properties":{"description":"30","address":"78041","placename":"Laredo, TX 78041, USA","title":"Smelter1"}},{"type":"Feature","geometry":{"type":"Point","coordinates":[-75.830153700003,40.464964500002]},"properties":{"description":"500","address":"19522","placename":"Fleetwood, PA 19522, USA","title":"ManuPlant1"}},{"type":"Feature","geometry":{"type":"LineString","coordinates":[[-99.445043900002,27.567662699999],[-75.830153700003,40.464964500002]]},"properties":[]},{"type":"Feature","geometry":{"type":"LineString","coordinates":[[-73.300123299999,42.463450299998],[-99.445043900002,27.567662699999]]},"properties":[]},{"type":"Feature","geometry":{"type":"LineString","coordinates":[[-72.603289500003,42.6334135],[-99.445043900002,27.567662699999]]},"properties":[]},{"type":"Feature","geometry":{"type":"LineString","coordinates":[[-71.833414499999,42.5768698],[-99.445043900002,27.567662699999]]},"properties":[]},{"type":"Feature","geometry":{"type":"LineString","coordinates":[[-71.726659000002,42.2834603],[-99.445043900002,27.567662699999]]},"properties":[]},{"type":"Feature","geometry":{"type":"LineString","coordinates":[[-71.797833299997,42.3142089],[-99.445043900002,27.567662699999]]},"properties":[]},{"type":"Feature","geometry":{"type":"LineString","coordinates":[[-90.5352356,37.6693797],[-75.830153700003,40.464964500002]]},"properties":[]},{"type":"Feature","geometry":{"type":"LineString","coordinates":[[-71.346809100001,42.277528099999],[-90.5352356,37.6693797]]},"properties":[]},{"type":"Feature","geometry":{"type":"LineString","coordinates":[[-71.275542199996,42.683027599998],[-90.5352356,37.6693797]]},"properties":[]},{"type":"Feature","geometry":{"type":"LineString","coordinates":[[-71.014117999996,42.468164200001],[-90.5352356,37.6693797]]},"properties":[]},{"type":"Feature","geometry":{"type":"LineString","coordinates":[[-71.180498799998,42.249451400003],[-90.5352356,37.6693797]]},"properties":[]},{"type":"Feature","geometry":{"type":"LineString","coordinates":[[-71.1002881,42.380875700001],[-90.5352356,37.6693797]]},"properties":[]},{"type":"Feature","geometry":{"type":"LineString","coordinates":[[-75.830153700003,40.464964500002],[-75.830153700003,40.464964500002]]},"properties":[]},{"type":"Feature","geometry":{"type":"LineString","coordinates":[[-70.847670799996,42.116221700003],[-75.830153700003,40.464964500002]]},"properties":[]},{"type":"Feature","geometry":{"type":"LineString","coordinates":[[-71.159382200001,42.370377499998],[-75.830153700003,40.464964500002]]},"properties":[]},{"type":"Feature","geometry":{"type":"LineString","coordinates":[[-70.627627900002,41.575024900003],[-75.830153700003,40.464964500002]]},"properties":[]},{"type":"Feature","geometry":{"type":"LineString","coordinates":[[-70.300357199998,41.656720700002],[-75.830153700003,40.464964500002]]},"properties":[]},{"type":"Feature","geometry":{"type":"LineString","coordinates":[[-71.204261900001,41.7558583],[-75.830153700003,40.464964500002]]},"properties":[]},{"type":"Feature","geometry":{"type":"LineString","coordinates":[[-95.205790900001,40.008134399997],[-75.830153700003,40.464964500002]]},"properties":[]},{"type":"Feature","geometry":{"type":"LineString","coordinates":[[-71.426519800003,41.711351900002],[-95.205790900001,40.008134399997]]},"properties":[]},{"type":"Feature","geometry":{"type":"LineString","coordinates":[[-71.513044500003,41.903682499997],[-95.205790900001,40.008134399997]]},"properties":[]},{"type":"Feature","geometry":{"type":"LineString","coordinates":[[-71.2161428,42.776831800001],[-95.205790900001,40.008134399997]]},"properties":[]},{"type":"Feature","geometry":{"type":"LineString","coordinates":[[-71.441810100002,42.956148500003],[-95.205790900001,40.008134399997]]},"properties":[]},{"type":"Feature","geometry":{"type":"LineString","coordinates":[[-71.474999400004,43.579052100002],[-95.205790900001,40.008134399997]]},"properties":[]},{"type":"Feature","geometry":{"type":"LineString","coordinates":[[-96.8148347,33.174667500001],[-75.830153700003,40.464964500002]]},"properties":[]},{"type":"Feature","geometry":{"type":"LineString","coordinates":[[-71.5486562,43.2086343],[-96.8148347,33.174667500001]]},"properties":[]},{"type":"Feature","geometry":{"type":"LineString","coordinates":[[-72.3074326,42.956141400002],[-96.8148347,33.174667500001]]},"properties":[]},{"type":"Feature","geometry":{"type":"LineString","coordinates":[[-71.785029399998,44.336410699999],[-96.8148347,33.174667500001]]},"properties":[]},{"type":"Feature","geometry":{"type":"LineString","coordinates":[[-72.249235100004,43.621775699999],[-96.8148347,33.174667500001]]},"properties":[]},{"type":"Feature","geometry":{"type":"LineString","coordinates":[[-70.835779200002,43.087490599998],[-96.8148347,33.174667500001]]},"properties":[]},{"type":"Feature","geometry":{"type":"LineString","coordinates":[[-85.383370300004,40.194069799998],[-93.379205699997,40.788078800002]]},"properties":[]},{"type":"Feature","geometry":{"type":"LineString","coordinates":[[-70.648292000004,43.161768699998],[-85.383370300004,40.194069799998]]},"properties":[]},{"type":"Feature","geometry":{"type":"LineString","coordinates":[[-70.344213399997,43.702113299999],[-85.383370300004,40.194069799998]]},"properties":[]},{"type":"Feature","geometry":{"type":"LineString","coordinates":[[-70.280782700003,43.629708399997],[-85.383370300004,40.194069799998]]},"properties":[]},{"type":"Feature","geometry":{"type":"LineString","coordinates":[[-70.255657899996,44.111461100002],[-85.383370300004,40.194069799998]]},"properties":[]},{"type":"Feature","geometry":{"type":"LineString","coordinates":[[-69.692375999997,44.352001500001],[-85.383370300004,40.194069799998]]},"properties":[]},{"type":"Feature","geometry":{"type":"LineString","coordinates":[[-118.2234229,34.006374699999],[-93.379205699997,40.788078800002]]},"properties":[]},{"type":"Feature","geometry":{"type":"LineString","coordinates":[[-68.861861700002,44.850412200001],[-118.2234229,34.006374699999]]},"properties":[]},{"type":"Feature","geometry":{"type":"LineString","coordinates":[[-69.8244763,43.891022000001],[-118.2234229,34.006374699999]]},"properties":[]},{"type":"Feature","geometry":{"type":"LineString","coordinates":[[-68.373505299998,44.774233099998],[-118.2234229,34.006374699999]]},"properties":[]},{"type":"Feature","geometry":{"type":"LineString","coordinates":[[-67.989974700004,46.7026897],[-118.2234229,34.006374699999]]},"properties":[]},{"type":"Feature","geometry":{"type":"LineString","coordinates":[[-69.123906800003,44.121031099999],[-118.2234229,34.006374699999]]},"properties":[]},{"type":"Feature","geometry":{"type":"LineString","coordinates":[[-93.2080991,44.814974699998],[-93.379205699997,40.788078800002]]},"properties":[]},{"type":"Feature","geometry":{"type":"LineString","coordinates":[[-69.663869399999,44.769781799999],[-93.2080991,44.814974699998]]},"properties":[]},{"type":"Feature","geometry":{"type":"LineString","coordinates":[[-72.152199700004,44.018198300003],[-93.2080991,44.814974699998]]},"properties":[]},{"type":"Feature","geometry":{"type":"LineString","coordinates":[[-72.496818899998,43.174494899998],[-93.2080991,44.814974699998]]},"properties":[]},{"type":"Feature","geometry":{"type":"LineString","coordinates":[[-73.064139600003,43.149263799999],[-93.2080991,44.814974699998]]},"properties":[]},{"type":"Feature","geometry":{"type":"LineString","coordinates":[[-72.875178600001,42.893695500001],[-93.2080991,44.814974699998]]},"properties":[]},{"type":"Feature","geometry":{"type":"LineString","coordinates":[[-82.456319899998,27.955269200003],[-93.379205699997,40.788078800002]]},"properties":[]},{"type":"Feature","geometry":{"type":"LineString","coordinates":[[-73.160780599996,44.449348899997],[-82.456319899998,27.955269200003]]},"properties":[]},{"type":"Feature","geometry":{"type":"LineString","coordinates":[[-72.508467799996,44.2019646],[-82.456319899998,27.955269200003]]},"properties":[]},{"type":"Feature","geometry":{"type":"LineString","coordinates":[[-72.922432900003,43.615354900002],[-82.456319899998,27.955269200003]]},"properties":[]},{"type":"Feature","geometry":{"type":"LineString","coordinates":[[-72.074994099998,44.947145499999],[-82.456319899998,27.955269200003]]},"properties":[]},{"type":"Feature","geometry":{"type":"LineString","coordinates":[[-71.492234100004,45.007682600001],[-82.456319899998,27.955269200003]]},"properties":[]},{"type":"Feature","geometry":{"type":"LineString","coordinates":[[-117.9307584,34.027462200002],[-93.379205699997,40.788078800002]]},"properties":[]},{"type":"Feature","geometry":{"type":"LineString","coordinates":[[-72.733360400003,41.839445799999],[-117.9307584,34.027462200002]]},"properties":[]},{"type":"Feature","geometry":{"type":"LineString","coordinates":[[-72.727449500004,41.737097500002],[-117.9307584,34.027462200002]]},"properties":[]},{"type":"Feature","geometry":{"type":"LineString","coordinates":[[-71.8689917,41.904601199998],[-117.9307584,34.027462200002]]},"properties":[]},{"type":"Feature","geometry":{"type":"LineString","coordinates":[[-72.153460600004,41.351290100001],[-117.9307584,34.027462200002]]},"properties":[]},{"type":"Feature","geometry":{"type":"LineString","coordinates":[[-72.780642199996,41.459303900001],[-117.9307584,34.027462200002]]},"properties":[]},{"type":"Feature","geometry":{"type":"LineString","coordinates":[[-86.157370899998,39.771342499999],[-93.379205699997,40.788078800002]]},"properties":[]},{"type":"Feature","geometry":{"type":"LineString","coordinates":[[-72.928339099998,41.321291200002],[-86.157370899998,39.771342499999]]},"properties":[]},{"type":"Feature","geometry":{"type":"LineString","coordinates":[[-73.1290596,41.166114200003],[-86.157370899998,39.771342499999]]},"properties":[]},{"type":"Feature","geometry":{"type":"LineString","coordinates":[[-73.022817299998,41.530284500001],[-86.157370899998,39.771342499999]]},"properties":[]},{"type":"Feature","geometry":{"type":"LineString","coordinates":[[-73.453377900001,41.375572199998],[-86.157370899998,39.771342499999]]},"properties":[]},{"type":"Feature","geometry":{"type":"LineString","coordinates":[[-73.521128600002,41.099423800003],[-86.157370899998,39.771342499999]]},"properties":[]},{"type":"Feature","geometry":{"type":"LineString","coordinates":[[-74.476008799997,41.433474500001],[-93.379205699997,40.788078800002]]},"properties":[]},{"type":"Feature","geometry":{"type":"LineString","coordinates":[[-74.417387700003,40.568290000003],[-74.476008799997,41.433474500001]]},"properties":[]},{"type":"Feature","geometry":{"type":"LineString","coordinates":[[-74.141612699999,40.723126399998],[-74.476008799997,41.433474500001]]},"properties":[]},{"type":"Feature","geometry":{"type":"LineString","coordinates":[[-74.179776600002,40.651777300001],[-74.476008799997,41.433474500001]]},"properties":[]},{"type":"Feature","geometry":{"type":"LineString","coordinates":[[-74.032949900001,40.7300567],[-74.476008799997,41.433474500001]]},"properties":[]},{"type":"Feature","geometry":{"type":"LineString","coordinates":[[-74.253146499997,40.941148700001],[-74.476008799997,41.433474500001]]},"properties":[]},{"type":"Feature","geometry":{"type":"LineString","coordinates":[[-73.596263500004,45.402446700001],[-93.379205699997,40.788078800002]]},"properties":[]},{"type":"Feature","geometry":{"type":"LineString","coordinates":[[-74.150420399999,40.9045824],[-73.596263500004,45.402446700001]]},"properties":[]},{"type":"Feature","geometry":{"type":"LineString","coordinates":[[-74.047637800002,40.887627300002],[-73.596263500004,45.402446700001]]},"properties":[]},{"type":"Feature","geometry":{"type":"LineString","coordinates":[[-74.276618599998,40.2303787],[-73.596263500004,45.402446700001]]},"properties":[]},{"type":"Feature","geometry":{"type":"LineString","coordinates":[[-74.519705999996,40.930976000002],[-73.596263500004,45.402446700001]]},"properties":[]},{"type":"Feature","geometry":{"type":"LineString","coordinates":[[-74.411524599999,40.721118899998],[-73.596263500004,45.402446700001]]},"properties":[]},{"type":"Feature","geometry":{"type":"LineString","coordinates":[[-96.8148347,33.174667500001],[-75.830153700003,40.464964500002]]},"properties":[]},{"type":"Feature","geometry":{"type":"LineString","coordinates":[[-73.596263500004,45.402446700001],[-93.379205699997,40.788078800002]]},"properties":[]}],"properties":{"tags":"","description":"","title":"East Penn Supply Chain"}}