{"supplychain":{"category":10,"created":1365694923,"enable_comments":true,"flags":0,"id":5680,"modified":1365694924,"other_perms":1,"passcode":null,"user_featured":false,"usergroup_id":null,"usergroup_perms":0,"user_id":5296,"owner":{"id":5296,"name":"Munendra","avatar":"http:\/\/free.sourcemap.com\/assets\/images\/default-user.png","banner_url":null,"display_name":null},"taxonomy":[{"description":"Travel","id":10,"left":15,"name":"travel","right":16,"title":"Travel"}],"attributes":{"tags":"","description":"","title":"East Penn Supply Chain"},"stops":[{"local_stop_id":95,"id":95,"geometry":"POINT(-10394925.629204 4981133.408464)","attributes":{"description":"282","address":"50060","placename":"Corydon, IA 50060, USA","title":"ManuPlant2"}},{"local_stop_id":94,"id":94,"geometry":"POINT(-8192698.577108 5685102.565945)","attributes":{"description":"92","address":"J5C1B4","placename":"Sainte-Catherine, QC J5C 1B4, Canada","title":"Smelter13"}},{"local_stop_id":93,"id":93,"geometry":"POINT(-8290631.375931 5076490.841573)","attributes":{"description":"85","address":"10940","placename":"Middletown, NY 10940, USA","title":"Smelter12"}},{"local_stop_id":92,"id":92,"geometry":"POINT(-9590994.656675 4832769.818153)","attributes":{"description":"80","address":"46204","placename":"Indianapolis, IN 46204, USA","title":"Smelter11"}},{"local_stop_id":91,"id":91,"geometry":"POINT(-13127991.973953 4032490.12498)","attributes":{"description":"75","address":"91744","placename":"La Puente, CA 91744, USA","title":"Smelter10"}},{"local_stop_id":90,"id":90,"geometry":"POINT(-9178995.543955 3243335.428756)","attributes":{"description":"70","address":"33602","placename":"Tampa, FL 33602, USA","title":"Smelter9"}},{"local_stop_id":89,"id":89,"geometry":"POINT(-10375878.129621 5592439.920325)","attributes":{"description":"65","address":"55122","placename":"Saint Paul, MN 55122, USA","title":"Smelter8"}},{"local_stop_id":88,"id":88,"geometry":"POINT(-13160571.237066 4029658.024718)","attributes":{"description":"60","address":"90058","placename":"Los Angeles, CA 90058, USA","title":"Smelter7"}},{"local_stop_id":87,"id":87,"geometry":"POINT(-9504833.30401 4894184.181057)","attributes":{"description":"55","address":"47305","placename":"Muncie, IN 47305, USA","title":"Smelter6"}},{"local_stop_id":86,"id":86,"geometry":"POINT(-8441374.09666 4933741.498787)","attributes":{"description":"500","address":"19522","placename":"Fleetwood, PA 19522, USA","title":"ManuPlant1"}},{"local_stop_id":85,"id":85,"geometry":"POINT(-10777378.100039 3918511.168232)","attributes":{"description":"50","address":"75033","placename":"Frisco, TX 75033, USA","title":"Smelter5"}},{"local_stop_id":84,"id":84,"geometry":"POINT(-10598260.163559 4867124.418761)","attributes":{"description":"45","address":"64451","placename":"Forest City, MO 64451, USA","title":"Smelter4"}},{"local_stop_id":83,"id":83,"geometry":"POINT(-8441374.09666 4933741.498787)","attributes":{"description":"40","address":"19522","placename":"Fleetwood, PA 19522, USA","title":"Smelter3"}},{"local_stop_id":82,"id":82,"geometry":"POINT(-10078336.325841 4532824.962159)","attributes":{"description":"35","address":"63637","placename":"Doe Run, MO 63637, USA","title":"Smelter2"}},{"local_stop_id":81,"id":81,"geometry":"POINT(-11070171.648863 3194574.487277)","attributes":{"description":"30","address":"78041","placename":"Laredo, TX 78041, USA","title":"Smelter1"}},{"local_stop_id":80,"id":80,"geometry":"POINT(-8283453.027623 4971293.383172)","attributes":{"description":"65","address":"07928","placename":"Chatham, NJ 07928, USA","title":"Cust65"}},{"local_stop_id":79,"id":79,"geometry":"POINT(-8295495.725984 5002165.964345)","attributes":{"description":"64","address":"07866","placename":"Rockaway, NJ 07866, USA","title":"Cust64"}},{"local_stop_id":78,"id":78,"geometry":"POINT(-8268435.360398 4899476.978137)","attributes":{"description":"63","address":"07728","placename":"Freehold Township, NJ 07728, USA","title":"Cust63"}},{"local_stop_id":77,"id":77,"geometry":"POINT(-8242945.334341 4995780.818998)","attributes":{"description":"62","address":"07601","placename":"Hackensack, NJ 07601, USA","title":"Cust62"}},{"local_stop_id":76,"id":76,"geometry":"POINT(-8254387.041035 4998277.760607)","attributes":{"description":"61","address":"07513","placename":"Paterson, NJ 07513, USA","title":"Cust61"}},{"local_stop_id":75,"id":75,"geometry":"POINT(-8192698.577108 5685102.565945)","attributes":{"description":"92","address":"J5C1B4","placename":"Sainte-Catherine, QC J5C 1B4, Canada","title":"Smelter13"}},{"local_stop_id":74,"id":74,"geometry":"POINT(-8265822.458178 5003664.982079)","attributes":{"description":"60","address":"07470","placename":"Wayne, NJ 07470, USA","title":"Cust60"}},{"local_stop_id":73,"id":73,"geometry":"POINT(-8241310.284792 4972606.255754)","attributes":{"description":"59","address":"07310","placename":"Jersey City, NJ 07310, USA","title":"Cust59"}},{"local_stop_id":72,"id":72,"geometry":"POINT(-8257654.958271 4961113.784994)","attributes":{"description":"58","address":"07206","placename":"Elizabethport, NJ 07206, USA","title":"Cust58"}},{"local_stop_id":71,"id":71,"geometry":"POINT(-8253406.572356 4971588.249301)","attributes":{"description":"57","address":"07105","placename":"Newark, NJ 07105, USA","title":"Cust57"}},{"local_stop_id":70,"id":70,"geometry":"POINT(-8284105.70493 4948871.571999)","attributes":{"description":"56","address":"07080","placename":"South Plainfield, NJ 07080, USA","title":"Cust56"}},{"local_stop_id":69,"id":69,"geometry":"POINT(-8290631.375931 5076490.841573)","attributes":{"description":"85","address":"10940","placename":"Middletown, NY 10940, USA","title":"Smelter12"}},{"local_stop_id":68,"id":68,"geometry":"POINT(-8184334.598299 5027017.730857)","attributes":{"description":"55","address":"06907","placename":"Stamford, CT 06907, USA","title":"Cust55"}},{"local_stop_id":67,"id":67,"geometry":"POINT(-8176792.624874 5067897.308972)","attributes":{"description":"54","address":"06810","placename":"Danbury, CT 06810, USA","title":"Cust54"}},{"local_stop_id":66,"id":66,"geometry":"POINT(-8128862.838126 5090875.976575)","attributes":{"description":"53","address":"06706","placename":"Waterbury, CT 06706, USA","title":"Cust53"}},{"local_stop_id":65,"id":65,"geometry":"POINT(-8140689.676863 5036874.432427)","attributes":{"description":"52","address":"06615","placename":"Stratford, CT 06615, USA","title":"Cust52"}},{"local_stop_id":64,"id":64,"geometry":"POINT(-8118345.573011 5059848.173769)","attributes":{"description":"51","address":"06511","placename":"New Haven, CT 06511, USA","title":"Cust51"}},{"local_stop_id":63,"id":63,"geometry":"POINT(-9590994.656675 4832769.818153)","attributes":{"description":"80","address":"46204","placename":"Indianapolis, IN 46204, USA","title":"Smelter11"}},{"local_stop_id":62,"id":62,"geometry":"POINT(-8101904.029311 5080326.767527)","attributes":{"description":"50","address":"06492","placename":"Wallingford, CT 06492, USA","title":"Cust50"}},{"local_stop_id":61,"id":61,"geometry":"POINT(-8032086.492965 5064295.773704)","attributes":{"description":"49","address":"06385","placename":"Waterford, CT 06385, USA","title":"Cust49"}},{"local_stop_id":60,"id":60,"geometry":"POINT(-8000419.55987 5146699.861131)","attributes":{"description":"48","address":"06260","placename":"Putnam, CT 06260, USA","title":"Cust48"}},{"local_stop_id":59,"id":59,"geometry":"POINT(-8095982.645034 5121678.9164)","attributes":{"description":"47","address":"06110","placename":"West Hartford, CT 06110, USA","title":"Cust47"}},{"local_stop_id":58,"id":58,"geometry":"POINT(-8096640.643412 5136959.461943)","attributes":{"description":"46","address":"06002","placename":"Bloomfield, CT 06002, USA","title":"Cust46"}},{"local_stop_id":57,"id":57,"geometry":"POINT(-13127991.973953 4032490.12498)","attributes":{"description":"75","address":"91744","placename":"La Puente, CA 91744, USA","title":"Smelter10"}},{"local_stop_id":56,"id":56,"geometry":"POINT(-7958479.095686 5622731.035425)","attributes":{"description":"45","address":"05902","placename":"Beecher Falls, VT 05902, USA","title":"Cust45"}},{"local_stop_id":55,"id":55,"geometry":"POINT(-8023351.64214 5613204.461303)","attributes":{"description":"44","address":"05829","placename":"Derby, VT 05829, USA","title":"Cust44"}},{"local_stop_id":54,"id":54,"geometry":"POINT(-8117688.097835 5406109.143621)","attributes":{"description":"43","address":"05701","placename":"Rutland, VT 05701, USA","title":"Cust43"}},{"local_stop_id":53,"id":53,"geometry":"POINT(-8071605.713696 5496750.051507)","attributes":{"description":"42","address":"05641","placename":"Barre, VT 05641, USA","title":"Cust42"}},{"local_stop_id":52,"id":52,"geometry":"POINT(-8144220.84243 5535245.340408)","attributes":{"description":"41","address":"05403","placename":"South Burlington, VT 05403, USA","title":"Cust41"}},{"local_stop_id":51,"id":51,"geometry":"POINT(-9178995.543955 3243335.428756)","attributes":{"description":"70","address":"33602","placename":"Tampa, FL 33602, USA","title":"Smelter9"}},{"local_stop_id":50,"id":50,"geometry":"POINT(-8112427.773221 5295805.190195)","attributes":{"description":"40","address":"05363","placename":"Wilmington, VT 05363, USA","title":"Cust40"}},{"local_stop_id":49,"id":49,"geometry":"POINT(-8133462.815521 5334718.986484)","attributes":{"description":"39","address":"05255","placename":"Manchester Center, VT 05255, USA","title":"Cust39"}},{"local_stop_id":48,"id":48,"geometry":"POINT(-8070308.96408 5338569.57762)","attributes":{"description":"38","address":"05101","placename":"Bellows Falls, VT 05101, USA","title":"Cust38"}},{"local_stop_id":47,"id":47,"geometry":"POINT(-8031946.130219 5468258.844196)","attributes":{"description":"37","address":"05033","placename":"Bradford, VT 05033, USA","title":"Cust37"}},{"local_stop_id":46,"id":46,"geometry":"POINT(-7754946.468297 5585350.864499)","attributes":{"description":"36","address":"04976","placename":"Skowhegan, ME 04976, USA","title":"Cust36"}},{"local_stop_id":45,"id":45,"geometry":"POINT(-10375878.129621 5592439.920325)","attributes":{"description":"65","address":"55122","placename":"Saint Paul, MN 55122, USA","title":"Smelter8"}},{"local_stop_id":44,"id":44,"geometry":"POINT(-7694838.106618 5484191.168394)","attributes":{"description":"35","address":"04841","placename":"Rockland, ME 04841, USA","title":"Cust35"}},{"local_stop_id":43,"id":43,"geometry":"POINT(-7568609.362652 5893679.769526)","attributes":{"description":"34","address":"04769","placename":"Presque Isle, ME 04769, USA","title":"Cust34"}},{"local_stop_id":42,"id":42,"geometry":"POINT(-7611303.793747 5586048.858643)","attributes":{"description":"33","address":"04605","placename":"Ellsworth, ME 04605, USA","title":"Cust33"}},{"local_stop_id":41,"id":41,"geometry":"POINT(-7772825.146623 5448593.045897)","attributes":{"description":"32","address":"04530","placename":"Bath, ME 04530, USA","title":"Cust32"}},{"local_stop_id":40,"id":40,"geometry":"POINT(-7665667.379521 5598002.610094)","attributes":{"description":"31","address":"04401","placename":"Bangor, ME 04401, USA","title":"Cust31"}},{"local_stop_id":39,"id":39,"geometry":"POINT(-13160571.237066 4029658.024718)","attributes":{"description":"60","address":"90058","placename":"Los Angeles, CA 90058, USA","title":"Smelter7"}},{"local_stop_id":38,"id":38,"geometry":"POINT(-7758119.808493 5520077.801929)","attributes":{"description":"30","address":"04330","placename":"Augusta, ME 04330, USA","title":"Cust30"}},{"local_stop_id":37,"id":37,"geometry":"POINT(-7820824.062774 5482707.278465)","attributes":{"description":"29","address":"04210","placename":"Auburn, ME 04210, USA","title":"Cust29"}},{"local_stop_id":36,"id":36,"geometry":"POINT(-7823620.942717 5408316.386296)","attributes":{"description":"28","address":"04106","placename":"South Portland, ME 04106, USA","title":"Cust28"}},{"local_stop_id":35,"id":35,"geometry":"POINT(-7830682.015941 5419458.66229)","attributes":{"description":"27","address":"04092","placename":"Westbrook, ME 04092, USA","title":"Cust27"}},{"local_stop_id":34,"id":34,"geometry":"POINT(-7864531.890855 5336627.196674)","attributes":{"description":"26","address":"03909","placename":"York, ME 03909, USA","title":"Cust26"}},{"local_stop_id":33,"id":33,"geometry":"POINT(-9504833.30401 4894184.181057)","attributes":{"description":"55","address":"47305","placename":"Muncie, IN 47305, USA","title":"Smelter6"}},{"local_stop_id":32,"id":32,"geometry":"POINT(-10394925.629204 4981133.408464)","attributes":{"description":"282","address":"50060","placename":"Corydon, IA 50060, USA","title":"ManuPlant2"}},{"local_stop_id":31,"id":31,"geometry":"POINT(-7885402.870489 5325298.303918)","attributes":{"description":"25","address":"03801","placename":"Portsmouth, NH 03801, USA","title":"Cust25"}},{"local_stop_id":30,"id":30,"geometry":"POINT(-8042748.061536 5407096.451857)","attributes":{"description":"24","address":"03766","placename":"Lebanon, NH 03766, USA","title":"Cust24"}},{"local_stop_id":29,"id":29,"geometry":"POINT(-7991072.919388 5517650.966942)","attributes":{"description":"23","address":"03561","placename":"Littleton, NH 03561, USA","title":"Cust23"}},{"local_stop_id":28,"id":28,"geometry":"POINT(-8049226.577601 5305298.501657)","attributes":{"description":"22","address":"03431","placename":"Keene, NH 03431, USA","title":"Cust22"}},{"local_stop_id":27,"id":27,"geometry":"POINT(-7964759.975127 5343782.223724)","attributes":{"description":"21","address":"03301","placename":"Concord, NH 03301, USA","title":"Cust21"}},{"local_stop_id":26,"id":26,"geometry":"POINT(-10777378.100039 3918511.168232)","attributes":{"description":"50","address":"75033","placename":"Frisco, TX 75033, USA","title":"Smelter5"}},{"local_stop_id":25,"id":25,"geometry":"POINT(-7956560.537658 5400528.946714)","attributes":{"description":"20","address":"03246","placename":"Laconia, NH 03246, USA","title":"Cust20"}},{"local_stop_id":24,"id":24,"geometry":"POINT(-7952865.921682 5305299.581579)","attributes":{"description":"19","address":"03103","placename":"Manchester, NH 03103, USA","title":"Cust19"}},{"local_stop_id":23,"id":23,"geometry":"POINT(-7927744.752757 5278064.826399)","attributes":{"description":"18","address":"03079","placename":"Salem, NH 03079, USA","title":"Cust18"}},{"local_stop_id":22,"id":22,"geometry":"POINT(-7960795.698817 5146562.45113)","attributes":{"description":"17","address":"02917","placename":"Smithfield, RI 02917, USA","title":"Cust17"}},{"local_stop_id":21,"id":21,"geometry":"POINT(-7951163.813272 5117838.947459)","attributes":{"description":"16","address":"02887","placename":"Warwick, RI 02887, USA","title":"Cust16"}},{"local_stop_id":20,"id":20,"geometry":"POINT(-10598260.163559 4867124.418761)","attributes":{"description":"45","address":"64451","placename":"Forest City, MO 64451, USA","title":"Smelter4"}},{"local_stop_id":19,"id":19,"geometry":"POINT(-7926422.177019 5124478.068613)","attributes":{"description":"15","address":"02777","placename":"Swansea, MA 02777, USA","title":"Cust15"}},{"local_stop_id":18,"id":18,"geometry":"POINT(-7825799.966089 5109695.767755)","attributes":{"description":"14","address":"02601","placename":"Hyannis, MA 02601, USA","title":"Cust14"}},{"local_stop_id":17,"id":17,"geometry":"POINT(-7862231.573765 5097531.288185)","attributes":{"description":"13","address":"02540","placename":"Falmouth, MA 02540, USA","title":"Cust13"}},{"local_stop_id":16,"id":16,"geometry":"POINT(-7921426.191668 5216622.67835)","attributes":{"description":"12","address":"02471","placename":"Watertown, MA 02471, USA","title":"Cust12"}},{"local_stop_id":15,"id":15,"geometry":"POINT(-7886726.637345 5178404.820947)","attributes":{"description":"11","address":"02339","placename":"Hanover, MA 02339, USA","title":"Cust11"}},{"local_stop_id":14,"id":14,"geometry":"POINT(-8441374.09666 4933741.498787)","attributes":{"description":"40","address":"19522","placename":"Fleetwood, PA 19522, USA","title":"Smelter3"}},{"local_stop_id":13,"id":13,"geometry":"POINT(-7914847.866547 5218204.629957)","attributes":{"description":"10","address":"02143","placename":"Somerville, MA 02143, USA","title":"Cust10"}},{"local_stop_id":12,"id":12,"geometry":"POINT(-7923776.880827 5198419.60563)","attributes":{"description":"9","address":"02026","placename":"Dedham, MA 02026, USA","title":"Cust9"}},{"local_stop_id":11,"id":11,"geometry":"POINT(-7905255.454893 5231368.206485)","attributes":{"description":"8","address":"01906","placename":"Saugus, MA 01906, USA","title":"Cust8"}},{"local_stop_id":10,"id":10,"geometry":"POINT(-7934357.063718 5263849.193265)","attributes":{"description":"7","address":"01826","placename":"Dracut, MA 01826, USA","title":"Cust7"}},{"local_stop_id":9,"id":9,"geometry":"POINT(-7942290.458737 5202642.891384)","attributes":{"description":"6","address":"01760","placename":"Natick, MA 01760, USA","title":"Cust6"}},{"local_stop_id":8,"id":8,"geometry":"POINT(-10078336.325841 4532824.962159)","attributes":{"description":"35","address":"63637","placename":"Doe Run, MO 63637, USA","title":"Smelter2"}},{"local_stop_id":7,"id":7,"geometry":"POINT(-7992498.243016 5208163.238352)","attributes":{"description":"5","address":"01606","placename":"Worcester, MA 01606, USA","title":"Cust5"}},{"local_stop_id":6,"id":6,"geometry":"POINT(-7984575.156183 5203535.451233)","attributes":{"description":"4","address":"01545","placename":"Shrewsbury, MA 01545, USA","title":"Cust4"}},{"local_stop_id":5,"id":5,"geometry":"POINT(-7996459.124082 5247787.288654)","attributes":{"description":"3","address":"01420","placename":"Fitchburg, MA 01420, USA","title":"Cust3"}},{"local_stop_id":4,"id":4,"geometry":"POINT(-8082161.217057 5256339.062824)","attributes":{"description":"2","address":"01301","placename":"Greenfield, MA 01301, USA","title":"Cust2"}},{"local_stop_id":3,"id":3,"geometry":"POINT(-8159732.40084 5230656.856473)","attributes":{"description":"1","address":"01201","placename":"Pittsfield, MA 01201, USA","title":"Cust1"}},{"local_stop_id":2,"id":2,"geometry":"POINT(-11070171.648863 3194574.487277)","attributes":{"description":"30","address":"78041","placename":"Laredo, TX 78041, USA","title":"Smelter1"}},{"local_stop_id":1,"id":1,"geometry":"POINT(-8441374.09666 4933741.498787)","attributes":{"description":"500","address":"19522","placename":"Fleetwood, PA 19522, USA","title":"ManuPlant1"}}],"hops":[{"from_stop_id":2,"to_stop_id":1,"geometry":"MULTILINESTRING((-11070171.648863 3194574.487277,-8441374.09666 4933741.498787))","attributes":{}},{"from_stop_id":3,"to_stop_id":2,"geometry":"MULTILINESTRING((-8159732.40084 5230656.856473,-11070171.648863 3194574.487277))","attributes":{}},{"from_stop_id":4,"to_stop_id":2,"geometry":"MULTILINESTRING((-8082161.217057 5256339.062824,-11070171.648863 3194574.487277))","attributes":{}},{"from_stop_id":5,"to_stop_id":2,"geometry":"MULTILINESTRING((-7996459.124082 5247787.288654,-11070171.648863 3194574.487277))","attributes":{}},{"from_stop_id":6,"to_stop_id":2,"geometry":"MULTILINESTRING((-7984575.156183 5203535.451233,-11070171.648863 3194574.487277))","attributes":{}},{"from_stop_id":7,"to_stop_id":2,"geometry":"MULTILINESTRING((-7992498.243016 5208163.238352,-11070171.648863 3194574.487277))","attributes":{}},{"from_stop_id":8,"to_stop_id":1,"geometry":"MULTILINESTRING((-10078336.325841 4532824.962159,-8441374.09666 4933741.498787))","attributes":{}},{"from_stop_id":9,"to_stop_id":8,"geometry":"MULTILINESTRING((-7942290.458737 5202642.891384,-10078336.325841 4532824.962159))","attributes":{}},{"from_stop_id":10,"to_stop_id":8,"geometry":"MULTILINESTRING((-7934357.063718 5263849.193265,-10078336.325841 4532824.962159))","attributes":{}},{"from_stop_id":11,"to_stop_id":8,"geometry":"MULTILINESTRING((-7905255.454893 5231368.206485,-10078336.325841 4532824.962159))","attributes":{}},{"from_stop_id":12,"to_stop_id":8,"geometry":"MULTILINESTRING((-7923776.880827 5198419.60563,-10078336.325841 4532824.962159))","attributes":{}},{"from_stop_id":13,"to_stop_id":8,"geometry":"MULTILINESTRING((-7914847.866547 5218204.629957,-10078336.325841 4532824.962159))","attributes":{}},{"from_stop_id":14,"to_stop_id":1,"geometry":"MULTILINESTRING((-8441374.09666 4933741.498787,-8441374.09666 4933741.498787))","attributes":{}},{"from_stop_id":15,"to_stop_id":14,"geometry":"MULTILINESTRING((-7886726.637345 5178404.820947,-8441374.09666 4933741.498787))","attributes":{}},{"from_stop_id":16,"to_stop_id":14,"geometry":"MULTILINESTRING((-7921426.191668 5216622.67835,-8441374.09666 4933741.498787))","attributes":{}},{"from_stop_id":17,"to_stop_id":14,"geometry":"MULTILINESTRING((-7862231.573765 5097531.288185,-8441374.09666 4933741.498787))","attributes":{}},{"from_stop_id":18,"to_stop_id":14,"geometry":"MULTILINESTRING((-7825799.966089 5109695.767755,-8441374.09666 4933741.498787))","attributes":{}},{"from_stop_id":19,"to_stop_id":14,"geometry":"MULTILINESTRING((-7926422.177019 5124478.068613,-8441374.09666 4933741.498787))","attributes":{}},{"from_stop_id":20,"to_stop_id":1,"geometry":"MULTILINESTRING((-10598260.163559 4867124.418761,-8441374.09666 4933741.498787))","attributes":{}},{"from_stop_id":21,"to_stop_id":20,"geometry":"MULTILINESTRING((-7951163.813272 5117838.947459,-10598260.163559 4867124.418761))","attributes":{}},{"from_stop_id":22,"to_stop_id":20,"geometry":"MULTILINESTRING((-7960795.698817 5146562.45113,-10598260.163559 4867124.418761))","attributes":{}},{"from_stop_id":23,"to_stop_id":20,"geometry":"MULTILINESTRING((-7927744.752757 5278064.826399,-10598260.163559 4867124.418761))","attributes":{}},{"from_stop_id":24,"to_stop_id":20,"geometry":"MULTILINESTRING((-7952865.921682 5305299.581579,-10598260.163559 4867124.418761))","attributes":{}},{"from_stop_id":25,"to_stop_id":20,"geometry":"MULTILINESTRING((-7956560.537658 5400528.946714,-10598260.163559 4867124.418761))","attributes":{}},{"from_stop_id":26,"to_stop_id":1,"geometry":"MULTILINESTRING((-10777378.100039 3918511.168232,-8441374.09666 4933741.498787))","attributes":{}},{"from_stop_id":27,"to_stop_id":26,"geometry":"MULTILINESTRING((-7964759.975127 5343782.223724,-10777378.100039 3918511.168232))","attributes":{}},{"from_stop_id":28,"to_stop_id":26,"geometry":"MULTILINESTRING((-8049226.577601 5305298.501657,-10777378.100039 3918511.168232))","attributes":{}},{"from_stop_id":29,"to_stop_id":26,"geometry":"MULTILINESTRING((-7991072.919388 5517650.966942,-10777378.100039 3918511.168232))","attributes":{}},{"from_stop_id":30,"to_stop_id":26,"geometry":"MULTILINESTRING((-8042748.061536 5407096.451857,-10777378.100039 3918511.168232))","attributes":{}},{"from_stop_id":31,"to_stop_id":26,"geometry":"MULTILINESTRING((-7885402.870489 5325298.303918,-10777378.100039 3918511.168232))","attributes":{}},{"from_stop_id":33,"to_stop_id":32,"geometry":"MULTILINESTRING((-9504833.30401 4894184.181057,-10394925.629204 4981133.408464))","attributes":{}},{"from_stop_id":34,"to_stop_id":33,"geometry":"MULTILINESTRING((-7864531.890855 5336627.196674,-9504833.30401 4894184.181057))","attributes":{}},{"from_stop_id":35,"to_stop_id":33,"geometry":"MULTILINESTRING((-7830682.015941 5419458.66229,-9504833.30401 4894184.181057))","attributes":{}},{"from_stop_id":36,"to_stop_id":33,"geometry":"MULTILINESTRING((-7823620.942717 5408316.386296,-9504833.30401 4894184.181057))","attributes":{}},{"from_stop_id":37,"to_stop_id":33,"geometry":"MULTILINESTRING((-7820824.062774 5482707.278465,-9504833.30401 4894184.181057))","attributes":{}},{"from_stop_id":38,"to_stop_id":33,"geometry":"MULTILINESTRING((-7758119.808493 5520077.801929,-9504833.30401 4894184.181057))","attributes":{}},{"from_stop_id":39,"to_stop_id":32,"geometry":"MULTILINESTRING((-13160571.237066 4029658.024718,-10394925.629204 4981133.408464))","attributes":{}},{"from_stop_id":40,"to_stop_id":39,"geometry":"MULTILINESTRING((-7665667.379521 5598002.610094,-13160571.237066 4029658.024718))","attributes":{}},{"from_stop_id":41,"to_stop_id":39,"geometry":"MULTILINESTRING((-7772825.146623 5448593.045897,-13160571.237066 4029658.024718))","attributes":{}},{"from_stop_id":42,"to_stop_id":39,"geometry":"MULTILINESTRING((-7611303.793747 5586048.858643,-13160571.237066 4029658.024718))","attributes":{}},{"from_stop_id":43,"to_stop_id":39,"geometry":"MULTILINESTRING((-7568609.362652 5893679.769526,-13160571.237066 4029658.024718))","attributes":{}},{"from_stop_id":44,"to_stop_id":39,"geometry":"MULTILINESTRING((-7694838.106618 5484191.168394,-13160571.237066 4029658.024718))","attributes":{}},{"from_stop_id":45,"to_stop_id":32,"geometry":"MULTILINESTRING((-10375878.129621 5592439.920325,-10394925.629204 4981133.408464))","attributes":{}},{"from_stop_id":46,"to_stop_id":45,"geometry":"MULTILINESTRING((-7754946.468297 5585350.864499,-10375878.129621 5592439.920325))","attributes":{}},{"from_stop_id":47,"to_stop_id":45,"geometry":"MULTILINESTRING((-8031946.130219 5468258.844196,-10375878.129621 5592439.920325))","attributes":{}},{"from_stop_id":48,"to_stop_id":45,"geometry":"MULTILINESTRING((-8070308.96408 5338569.57762,-10375878.129621 5592439.920325))","attributes":{}},{"from_stop_id":49,"to_stop_id":45,"geometry":"MULTILINESTRING((-8133462.815521 5334718.986484,-10375878.129621 5592439.920325))","attributes":{}},{"from_stop_id":50,"to_stop_id":45,"geometry":"MULTILINESTRING((-8112427.773221 5295805.190195,-10375878.129621 5592439.920325))","attributes":{}},{"from_stop_id":51,"to_stop_id":32,"geometry":"MULTILINESTRING((-9178995.543955 3243335.428756,-10394925.629204 4981133.408464))","attributes":{}},{"from_stop_id":52,"to_stop_id":51,"geometry":"MULTILINESTRING((-8144220.84243 5535245.340408,-9178995.543955 3243335.428756))","attributes":{}},{"from_stop_id":53,"to_stop_id":51,"geometry":"MULTILINESTRING((-8071605.713696 5496750.051507,-9178995.543955 3243335.428756))","attributes":{}},{"from_stop_id":54,"to_stop_id":51,"geometry":"MULTILINESTRING((-8117688.097835 5406109.143621,-9178995.543955 3243335.428756))","attributes":{}},{"from_stop_id":55,"to_stop_id":51,"geometry":"MULTILINESTRING((-8023351.64214 5613204.461303,-9178995.543955 3243335.428756))","attributes":{}},{"from_stop_id":56,"to_stop_id":51,"geometry":"MULTILINESTRING((-7958479.095686 5622731.035425,-9178995.543955 3243335.428756))","attributes":{}},{"from_stop_id":57,"to_stop_id":32,"geometry":"MULTILINESTRING((-13127991.973953 4032490.12498,-10394925.629204 4981133.408464))","attributes":{}},{"from_stop_id":58,"to_stop_id":57,"geometry":"MULTILINESTRING((-8096640.643412 5136959.461943,-13127991.973953 4032490.12498))","attributes":{}},{"from_stop_id":59,"to_stop_id":57,"geometry":"MULTILINESTRING((-8095982.645034 5121678.9164,-13127991.973953 4032490.12498))","attributes":{}},{"from_stop_id":60,"to_stop_id":57,"geometry":"MULTILINESTRING((-8000419.55987 5146699.861131,-13127991.973953 4032490.12498))","attributes":{}},{"from_stop_id":61,"to_stop_id":57,"geometry":"MULTILINESTRING((-8032086.492965 5064295.773704,-13127991.973953 4032490.12498))","attributes":{}},{"from_stop_id":62,"to_stop_id":57,"geometry":"MULTILINESTRING((-8101904.029311 5080326.767527,-13127991.973953 4032490.12498))","attributes":{}},{"from_stop_id":63,"to_stop_id":32,"geometry":"MULTILINESTRING((-9590994.656675 4832769.818153,-10394925.629204 4981133.408464))","attributes":{}},{"from_stop_id":64,"to_stop_id":63,"geometry":"MULTILINESTRING((-8118345.573011 5059848.173769,-9590994.656675 4832769.818153))","attributes":{}},{"from_stop_id":65,"to_stop_id":63,"geometry":"MULTILINESTRING((-8140689.676863 5036874.432427,-9590994.656675 4832769.818153))","attributes":{}},{"from_stop_id":66,"to_stop_id":63,"geometry":"MULTILINESTRING((-8128862.838126 5090875.976575,-9590994.656675 4832769.818153))","attributes":{}},{"from_stop_id":67,"to_stop_id":63,"geometry":"MULTILINESTRING((-8176792.624874 5067897.308972,-9590994.656675 4832769.818153))","attributes":{}},{"from_stop_id":68,"to_stop_id":63,"geometry":"MULTILINESTRING((-8184334.598299 5027017.730857,-9590994.656675 4832769.818153))","attributes":{}},{"from_stop_id":69,"to_stop_id":32,"geometry":"MULTILINESTRING((-8290631.375931 5076490.841573,-10394925.629204 4981133.408464))","attributes":{}},{"from_stop_id":70,"to_stop_id":69,"geometry":"MULTILINESTRING((-8284105.70493 4948871.571999,-8290631.375931 5076490.841573))","attributes":{}},{"from_stop_id":71,"to_stop_id":69,"geometry":"MULTILINESTRING((-8253406.572356 4971588.249301,-8290631.375931 5076490.841573))","attributes":{}},{"from_stop_id":72,"to_stop_id":69,"geometry":"MULTILINESTRING((-8257654.958271 4961113.784994,-8290631.375931 5076490.841573))","attributes":{}},{"from_stop_id":73,"to_stop_id":69,"geometry":"MULTILINESTRING((-8241310.284792 4972606.255754,-8290631.375931 5076490.841573))","attributes":{}},{"from_stop_id":74,"to_stop_id":69,"geometry":"MULTILINESTRING((-8265822.458178 5003664.982079,-8290631.375931 5076490.841573))","attributes":{}},{"from_stop_id":75,"to_stop_id":32,"geometry":"MULTILINESTRING((-8192698.577108 5685102.565945,-10394925.629204 4981133.408464))","attributes":{}},{"from_stop_id":76,"to_stop_id":75,"geometry":"MULTILINESTRING((-8254387.041035 4998277.760607,-8192698.577108 5685102.565945))","attributes":{}},{"from_stop_id":77,"to_stop_id":75,"geometry":"MULTILINESTRING((-8242945.334341 4995780.818998,-8192698.577108 5685102.565945))","attributes":{}},{"from_stop_id":78,"to_stop_id":75,"geometry":"MULTILINESTRING((-8268435.360398 4899476.978137,-8192698.577108 5685102.565945))","attributes":{}},{"from_stop_id":79,"to_stop_id":75,"geometry":"MULTILINESTRING((-8295495.725984 5002165.964345,-8192698.577108 5685102.565945))","attributes":{}},{"from_stop_id":80,"to_stop_id":75,"geometry":"MULTILINESTRING((-8283453.027623 4971293.383172,-8192698.577108 5685102.565945))","attributes":{}},{"from_stop_id":85,"to_stop_id":86,"geometry":"MULTILINESTRING((-10777378.100039 3918511.168232,-8441374.09666 4933741.498787))","attributes":{}},{"from_stop_id":94,"to_stop_id":95,"geometry":"MULTILINESTRING((-8192698.577108 5685102.565945,-10394925.629204 4981133.408464))","attributes":{}}]},"editable":false}