{"type":"FeatureCollection","features":[{"type":"Feature","geometry":{"type":"Point","coordinates":[-75.264167000001,6.1383330000039]},"properties":{"address":"Santuario, Antioquia","placename":"Santuario, Antioquia, Colombia","title":"Zanahoria"}},{"type":"Feature","geometry":{"type":"Point","coordinates":[-76.632111000003,7.883609]},"properties":{"address":"Apartad\u00f3, Antioquia","placename":"Apartado, Antioquia, Colombia","title":"Banano"}},{"type":"Feature","geometry":{"type":"Point","coordinates":[-75.264167000001,6.1383330000039]},"properties":{"address":"Santuario, Antioquia","placename":"Santuario, Antioquia, Colombia","title":"Cebolla"}},{"type":"Feature","geometry":{"type":"Point","coordinates":[-73.121917900004,5.7927340000006]},"properties":{"address":"Paipa, Boyac\u00e1","placename":"Paipa, Boyaca, Colombia","title":"Papa"}},{"type":"Feature","geometry":{"type":"Point","coordinates":[-75.867889999999,5.2011000000028]},"properties":{"address":"Bel\u00e9n de Umbria, Risaralda","placename":"Belen de Umbria, Risaralda, Colombia","title":"Platano"}},{"type":"Feature","geometry":{"type":"Point","coordinates":[-75.575271999999,5.8820320000029]},"properties":{"address":"Santa Barbara, Antioquia","placename":"Santa Barbara, Antioquia, Colombia","title":"Mango"}},{"type":"Feature","geometry":{"type":"Point","coordinates":[-75.3333333,6.0833333000026]},"properties":{"address":"Carmen de Viboral, Antioquia","placename":"Carmen de Viboral, Antioquia, Colombia","title":"Mora"}},{"type":"Feature","geometry":{"type":"Point","coordinates":[-75.497823999998,6.2122853]},"properties":{"address":"Santa Elena, Antioquia","placename":"Santa Elena, Antioquia, Colombia","title":"Fresas"}}],"properties":{"tags":"","description":"","title":"SiembraViva"}}