{"type":"FeatureCollection","features":[{"type":"Feature","geometry":{"type":"Point","coordinates":[0,0]},"properties":{"address":"#REF!, #REF!","title":"Jacksonville"}},{"type":"Feature","geometry":{"type":"Point","coordinates":[0,0]},"properties":{"address":"#REF!, #REF!","title":"San Francisco"}},{"type":"Feature","geometry":{"type":"Point","coordinates":[0,0]},"properties":{"address":"#REF!, #REF!","title":"Indianapolis"}},{"type":"Feature","geometry":{"type":"Point","coordinates":[0,0]},"properties":{"address":"#REF!, #REF!","title":"Baltimore"}},{"type":"Feature","geometry":{"type":"Point","coordinates":[0,0]},"properties":{"address":"#REF!, #REF!","title":"San Jose"}},{"type":"Feature","geometry":{"type":"Point","coordinates":[0,0]},"properties":{"address":"#REF!, #REF!","title":"San Antonio"}},{"type":"Feature","geometry":{"type":"Point","coordinates":[0,0]},"properties":{"address":"#REF!, #REF!","title":"Phoenix"}},{"type":"Feature","geometry":{"type":"Point","coordinates":[0,0]},"properties":{"address":"#REF!, #REF!","title":"Dallas"}},{"type":"Feature","geometry":{"type":"Point","coordinates":[0,0]},"properties":{"address":"#REF!, #REF!","title":"Detroit"}},{"type":"Feature","geometry":{"type":"Point","coordinates":[0,0]},"properties":{"address":"#REF!, #REF!","title":"San Diego"}},{"type":"Feature","geometry":{"type":"Point","coordinates":[0,0]},"properties":{"address":"#REF!, #REF!","title":"Philadelphia"}},{"type":"Feature","geometry":{"type":"Point","coordinates":[0,0]},"properties":{"address":"#REF!, #REF!","title":"Houston"}},{"type":"Feature","geometry":{"type":"Point","coordinates":[0,0]},"properties":{"address":"#REF!, #REF!","title":"Chicago"}},{"type":"Feature","geometry":{"type":"Point","coordinates":[0,0]},"properties":{"address":"#REF!, #REF!","title":"Los Angeles"}},{"type":"Feature","geometry":{"type":"Point","coordinates":[0,0]},"properties":{"address":"#REF!, #REF!","title":"Warehouse1"}},{"type":"Feature","geometry":{"type":"Point","coordinates":[0,0]},"properties":{"address":"#REF!, #REF!","title":"#REF!"}},{"type":"Feature","geometry":{"type":"Point","coordinates":[0,0]},"properties":{"address":"#REF!, #REF!","title":"#REF!"}},{"type":"Feature","geometry":{"type":"Point","coordinates":[0,0]},"properties":{"address":"#REF!, #REF!","title":"#REF!"}},{"type":"Feature","geometry":{"type":"Point","coordinates":[0,0]},"properties":{"address":"#REF!, #REF!","title":"#REF!"}},{"type":"Feature","geometry":{"type":"Point","coordinates":[0,0]},"properties":{"address":"#REF!, #REF!","title":"#REF!"}},{"type":"Feature","geometry":{"type":"Point","coordinates":[0,0]},"properties":{"address":"#REF!, #REF!","title":"#REF!"}},{"type":"Feature","geometry":{"type":"Point","coordinates":[0,0]},"properties":{"address":"#REF!, #REF!","title":"#REF!"}},{"type":"Feature","geometry":{"type":"Point","coordinates":[0,0]},"properties":{"address":"#REF!, #REF!","title":"#REF!"}},{"type":"Feature","geometry":{"type":"Point","coordinates":[-74.005973100003,40.7143528]},"properties":{"address":"New York","placename":"New York, NY, USA","title":"Warehouse1"}},{"type":"Feature","geometry":{"type":"LineString","coordinates":[[0,0],[-74.005973100003,40.7143528]]},"properties":[]},{"type":"Feature","geometry":{"type":"LineString","coordinates":[[0,0],[-74.005973100003,40.7143528]]},"properties":[]},{"type":"Feature","geometry":{"type":"LineString","coordinates":[[0,0],[-74.005973100003,40.7143528]]},"properties":[]},{"type":"Feature","geometry":{"type":"LineString","coordinates":[[0,0],[-74.005973100003,40.7143528]]},"properties":[]},{"type":"Feature","geometry":{"type":"LineString","coordinates":[[0,0],[-74.005973100003,40.7143528]]},"properties":[]},{"type":"Feature","geometry":{"type":"LineString","coordinates":[[0,0],[-74.005973100003,40.7143528]]},"properties":[]},{"type":"Feature","geometry":{"type":"LineString","coordinates":[[0,0],[-74.005973100003,40.7143528]]},"properties":[]},{"type":"Feature","geometry":{"type":"LineString","coordinates":[[0,0],[-74.005973100003,40.7143528]]},"properties":[]},{"type":"Feature","geometry":{"type":"LineString","coordinates":[[0,0],[0,0]]},"properties":[]},{"type":"Feature","geometry":{"type":"LineString","coordinates":[[0,0],[0,0]]},"properties":[]},{"type":"Feature","geometry":{"type":"LineString","coordinates":[[0,0],[0,0]]},"properties":[]},{"type":"Feature","geometry":{"type":"LineString","coordinates":[[0,0],[0,0]]},"properties":[]},{"type":"Feature","geometry":{"type":"LineString","coordinates":[[0,0],[0,0]]},"properties":[]},{"type":"Feature","geometry":{"type":"LineString","coordinates":[[0,0],[0,0]]},"properties":[]},{"type":"Feature","geometry":{"type":"LineString","coordinates":[[0,0],[0,0]]},"properties":[]},{"type":"Feature","geometry":{"type":"LineString","coordinates":[[0,0],[0,0]]},"properties":[]},{"type":"Feature","geometry":{"type":"LineString","coordinates":[[0,0],[0,0]]},"properties":[]},{"type":"Feature","geometry":{"type":"LineString","coordinates":[[0,0],[0,0]]},"properties":[]},{"type":"Feature","geometry":{"type":"LineString","coordinates":[[0,0],[0,0]]},"properties":[]},{"type":"Feature","geometry":{"type":"LineString","coordinates":[[0,0],[0,0]]},"properties":[]},{"type":"Feature","geometry":{"type":"LineString","coordinates":[[0,0],[0,0]]},"properties":[]},{"type":"Feature","geometry":{"type":"LineString","coordinates":[[0,0],[0,0]]},"properties":[]}],"properties":{"tags":"","description":"88 nodes","title":"Cycle Stock Example"}}