{"supplychain":{"category":null,"created":1367957790,"enable_comments":true,"flags":0,"id":5927,"modified":1367957791,"other_perms":1,"passcode":null,"user_featured":false,"usergroup_id":null,"usergroup_perms":0,"user_id":5492,"owner":{"id":5492,"name":"JHamister","avatar":"http:\/\/free.sourcemap.com\/assets\/images\/default-user.png","banner_url":null,"display_name":null},"taxonomy":null,"attributes":{"tags":"","description":"88 nodes","title":"Cycle Stock Example"},"stops":[{"local_stop_id":24,"id":24,"geometry":"POINT(0 -0)","attributes":{"address":"#REF!, #REF!","title":"Jacksonville"}},{"local_stop_id":23,"id":23,"geometry":"POINT(0 -0)","attributes":{"address":"#REF!, #REF!","title":"San Francisco"}},{"local_stop_id":22,"id":22,"geometry":"POINT(0 -0)","attributes":{"address":"#REF!, #REF!","title":"Indianapolis"}},{"local_stop_id":21,"id":21,"geometry":"POINT(0 -0)","attributes":{"address":"#REF!, #REF!","title":"Baltimore"}},{"local_stop_id":20,"id":20,"geometry":"POINT(0 -0)","attributes":{"address":"#REF!, #REF!","title":"San Jose"}},{"local_stop_id":19,"id":19,"geometry":"POINT(0 -0)","attributes":{"address":"#REF!, #REF!","title":"San Antonio"}},{"local_stop_id":18,"id":18,"geometry":"POINT(0 -0)","attributes":{"address":"#REF!, #REF!","title":"Phoenix"}},{"local_stop_id":17,"id":17,"geometry":"POINT(0 -0)","attributes":{"address":"#REF!, #REF!","title":"Dallas"}},{"local_stop_id":16,"id":16,"geometry":"POINT(0 -0)","attributes":{"address":"#REF!, #REF!","title":"Detroit"}},{"local_stop_id":15,"id":15,"geometry":"POINT(0 -0)","attributes":{"address":"#REF!, #REF!","title":"San Diego"}},{"local_stop_id":14,"id":14,"geometry":"POINT(0 -0)","attributes":{"address":"#REF!, #REF!","title":"Philadelphia"}},{"local_stop_id":13,"id":13,"geometry":"POINT(0 -0)","attributes":{"address":"#REF!, #REF!","title":"Houston"}},{"local_stop_id":12,"id":12,"geometry":"POINT(0 -0)","attributes":{"address":"#REF!, #REF!","title":"Chicago"}},{"local_stop_id":11,"id":11,"geometry":"POINT(0 -0)","attributes":{"address":"#REF!, #REF!","title":"Los Angeles"}},{"local_stop_id":10,"id":10,"geometry":"POINT(0 -0)","attributes":{"address":"#REF!, #REF!","title":"Warehouse1"}},{"local_stop_id":9,"id":9,"geometry":"POINT(0 -0)","attributes":{"address":"#REF!, #REF!","title":"#REF!"}},{"local_stop_id":8,"id":8,"geometry":"POINT(0 -0)","attributes":{"address":"#REF!, #REF!","title":"#REF!"}},{"local_stop_id":7,"id":7,"geometry":"POINT(0 -0)","attributes":{"address":"#REF!, #REF!","title":"#REF!"}},{"local_stop_id":6,"id":6,"geometry":"POINT(0 -0)","attributes":{"address":"#REF!, #REF!","title":"#REF!"}},{"local_stop_id":5,"id":5,"geometry":"POINT(0 -0)","attributes":{"address":"#REF!, #REF!","title":"#REF!"}},{"local_stop_id":4,"id":4,"geometry":"POINT(0 -0)","attributes":{"address":"#REF!, #REF!","title":"#REF!"}},{"local_stop_id":3,"id":3,"geometry":"POINT(0 -0)","attributes":{"address":"#REF!, #REF!","title":"#REF!"}},{"local_stop_id":2,"id":2,"geometry":"POINT(0 -0)","attributes":{"address":"#REF!, #REF!","title":"#REF!"}},{"local_stop_id":1,"id":1,"geometry":"POINT(-8238307.241153 4970299.628631)","attributes":{"address":"New York","placename":"New York, NY, USA","title":"Warehouse1"}}],"hops":[{"from_stop_id":2,"to_stop_id":1,"geometry":"MULTILINESTRING((0 0,-8238307.241153 4970299.628631))","attributes":{}},{"from_stop_id":3,"to_stop_id":1,"geometry":"MULTILINESTRING((0 0,-8238307.241153 4970299.628631))","attributes":{}},{"from_stop_id":4,"to_stop_id":1,"geometry":"MULTILINESTRING((0 0,-8238307.241153 4970299.628631))","attributes":{}},{"from_stop_id":5,"to_stop_id":1,"geometry":"MULTILINESTRING((0 0,-8238307.241153 4970299.628631))","attributes":{}},{"from_stop_id":6,"to_stop_id":1,"geometry":"MULTILINESTRING((0 0,-8238307.241153 4970299.628631))","attributes":{}},{"from_stop_id":7,"to_stop_id":1,"geometry":"MULTILINESTRING((0 0,-8238307.241153 4970299.628631))","attributes":{}},{"from_stop_id":8,"to_stop_id":1,"geometry":"MULTILINESTRING((0 0,-8238307.241153 4970299.628631))","attributes":{}},{"from_stop_id":9,"to_stop_id":1,"geometry":"MULTILINESTRING((0 0,-8238307.241153 4970299.628631))","attributes":{}},{"from_stop_id":10,"to_stop_id":11,"geometry":"MULTILINESTRING((0 0,0 0))","attributes":{}},{"from_stop_id":10,"to_stop_id":12,"geometry":"MULTILINESTRING((0 0,0 0))","attributes":{}},{"from_stop_id":10,"to_stop_id":13,"geometry":"MULTILINESTRING((0 0,0 0))","attributes":{}},{"from_stop_id":10,"to_stop_id":14,"geometry":"MULTILINESTRING((0 0,0 0))","attributes":{}},{"from_stop_id":10,"to_stop_id":15,"geometry":"MULTILINESTRING((0 0,0 0))","attributes":{}},{"from_stop_id":10,"to_stop_id":16,"geometry":"MULTILINESTRING((0 0,0 0))","attributes":{}},{"from_stop_id":10,"to_stop_id":17,"geometry":"MULTILINESTRING((0 0,0 0))","attributes":{}},{"from_stop_id":10,"to_stop_id":18,"geometry":"MULTILINESTRING((0 0,0 0))","attributes":{}},{"from_stop_id":10,"to_stop_id":19,"geometry":"MULTILINESTRING((0 0,0 0))","attributes":{}},{"from_stop_id":10,"to_stop_id":20,"geometry":"MULTILINESTRING((0 0,0 0))","attributes":{}},{"from_stop_id":10,"to_stop_id":21,"geometry":"MULTILINESTRING((0 0,0 0))","attributes":{}},{"from_stop_id":10,"to_stop_id":22,"geometry":"MULTILINESTRING((0 0,0 0))","attributes":{}},{"from_stop_id":10,"to_stop_id":23,"geometry":"MULTILINESTRING((0 0,0 0))","attributes":{}},{"from_stop_id":10,"to_stop_id":24,"geometry":"MULTILINESTRING((0 0,0 0))","attributes":{}}]},"editable":false}