{"type":"FeatureCollection","features":[{"type":"Feature","geometry":{"type":"Point","coordinates":[103.84665598554,46.862495994939]},"properties":{"description":"","address":"Mongolia","title":"Karissa"}},{"type":"Feature","geometry":{"type":"Point","coordinates":[90.356330987419,23.684993996891]},"properties":{"supplychain_instance_id":"supplychain-1","stop_instance_id":"stop-122","description":"","address":"Bangladesh","title":"Luke"}},{"type":"Feature","geometry":{"type":"Point","coordinates":[104.19539698549,35.861659995661]},"properties":{"supplychain_instance_id":"supplychain-1","stop_instance_id":"stop-101","description":"","address":"China","title":"Alex"}},{"type":"Feature","geometry":{"type":"Point","coordinates":[46.199615993569,5.1521489992848]},"properties":{"supplychain_instance_id":"supplychain-1","stop_instance_id":"stop-82","description":"","address":"Somalia","title":"Sydney"}},{"type":"Feature","geometry":{"type":"Point","coordinates":[-88.896529987625,13.794184998117]},"properties":{"supplychain_instance_id":"supplychain-1","stop_instance_id":"stop-65","description":"","address":"El Salvador","title":"Joseph"}},{"type":"Feature","geometry":{"type":"Point","coordinates":[-86.241904987995,15.199998997934]},"properties":{"supplychain_instance_id":"supplychain-1","stop_instance_id":"stop-50","description":"","address":"Honduras","title":"John"}},{"type":"Feature","geometry":{"type":"Point","coordinates":[-102.55278398572,23.634500996897]},"properties":{"supplychain_instance_id":"supplychain-1","stop_instance_id":"stop-37","description":"","address":"Mexico","title":"Amanda"}},{"type":"Feature","geometry":{"type":"Point","coordinates":[113.92132698414,-0.78927499989015]},"properties":{"supplychain_instance_id":"supplychain-1","stop_instance_id":"stop-26","description":"","address":"Indonesia","title":"Marie"}},{"type":"Feature","geometry":{"type":"Point","coordinates":[-72.285214989938,18.971186997456]},"properties":{"supplychain_instance_id":"supplychain-1","stop_instance_id":"stop-17","description":"","address":"Haiti","title":"Ryan"}},{"type":"Feature","geometry":{"type":"Point","coordinates":[108.27719898493,14.058323998082]},"properties":{"supplychain_instance_id":"supplychain-1","stop_instance_id":"stop-10","description":"","address":"Vietnam","title":"Emma"}},{"type":"Feature","geometry":{"type":"Point","coordinates":[-95.712890986677,37.090239995559]},"properties":{"supplychain_instance_id":"supplychain-1","stop_instance_id":"stop-5","description":"","address":"United States","title":"Kayla"}},{"type":"Feature","geometry":{"type":"Point","coordinates":[104.99096298539,12.565678998279]},"properties":{"supplychain_instance_id":"supplychain-1","stop_instance_id":"stop-1","description":"","address":"Cambodia","title":"Arielle"}}],"properties":{"title":"Period 1 -- Clothing","description":"Where do the clothes from our class come from?","tags":"clothing"}}