{"type":"FeatureCollection","features":[{"type":"Feature","geometry":{"type":"Point","coordinates":[100.99254098594,15.870031997848]},"properties":{"description":"","address":"Thailand","title":"Madeline 2"}},{"type":"Feature","geometry":{"type":"Point","coordinates":[108.27719898493,14.058323998082]},"properties":{"supplychain_instance_id":"supplychain-1","stop_instance_id":"stop-64","description":"","address":"Vietnam","title":"Kyle"}},{"type":"Feature","geometry":{"type":"Point","coordinates":[-90.230758987436,15.783470997858]},"properties":{"supplychain_instance_id":"supplychain-1","stop_instance_id":"stop-49","description":"","address":"Guatemala","title":"Zac"}},{"type":"Feature","geometry":{"type":"Point","coordinates":[-86.241904987995,15.199998997934]},"properties":{"supplychain_instance_id":"supplychain-1","stop_instance_id":"stop-36","description":"","address":"Honduras","title":"Thomas"}},{"type":"Feature","geometry":{"type":"Point","coordinates":[4.8951678993186,52.370215694757]},"properties":{"supplychain_instance_id":"supplychain-1","stop_instance_id":"stop-25","description":"","address":"Amsterdam, The Netherlands","title":"Madeline"}},{"type":"Feature","geometry":{"type":"Point","coordinates":[-95.712890986677,37.090239995559]},"properties":{"supplychain_instance_id":"supplychain-1","stop_instance_id":"stop-16","description":"","address":"United States","title":"Mariah"}},{"type":"Feature","geometry":{"type":"Point","coordinates":[-102.55278398572,23.634500996897]},"properties":{"supplychain_instance_id":"supplychain-1","stop_instance_id":"stop-9","description":"","address":"Mexico","title":"Ishid"}},{"type":"Feature","geometry":{"type":"Point","coordinates":[121.77401698304,12.879720998237]},"properties":{"supplychain_instance_id":"supplychain-1","stop_instance_id":"stop-4","description":"","address":"Philippines","title":"Adam"}},{"type":"Feature","geometry":{"type":"Point","coordinates":[104.19539698549,35.861659995661]},"properties":{"supplychain_instance_id":"supplychain-1","stop_instance_id":"stop-1","description":"","address":"China","title":"Daniel"}}],"properties":{"title":"Period 2 -- Clothing","description":"Where do the clothes from our class come from?","tags":"clothing"}}