{"type":"FeatureCollection","features":[{"type":"Feature","geometry":{"type":"Point","coordinates":[140.71109208041,-5.092565699293]},"properties":{"supplychain_instance_id":"supplychain-1","stop_instance_id":"stop-150","description":"","address":"New Guinea","title":"New Guinea"}},{"type":"Feature","geometry":{"type":"Point","coordinates":[165.61804197695,-20.904304997219]},"properties":{"supplychain_instance_id":"supplychain-1","stop_instance_id":"stop-127","description":"","address":"New Caledonia","title":"New Caledonia"}},{"type":"Feature","geometry":{"type":"Point","coordinates":[133.77513598138,-25.27439799671]},"properties":{"supplychain_instance_id":"supplychain-1","stop_instance_id":"stop-106","description":"","address":"Australia","title":"Australia"}},{"type":"Feature","geometry":{"type":"Point","coordinates":[-3.7492199994781,40.463666995306]},"properties":{"supplychain_instance_id":"supplychain-1","stop_instance_id":"stop-87","description":"","address":"Spain","title":"Spain"}},{"type":"Feature","geometry":{"type":"Point","coordinates":[-102.55278398572,23.634500996897]},"properties":{"supplychain_instance_id":"supplychain-1","stop_instance_id":"stop-70","description":"","address":"Mexico","title":"Mexico"}},{"type":"Feature","geometry":{"type":"Point","coordinates":[78.962879989009,20.593683997257]},"properties":{"supplychain_instance_id":"supplychain-1","stop_instance_id":"stop-55","description":"","address":"India","title":"India"}},{"type":"Feature","geometry":{"type":"Point","coordinates":[-51.925279992772,-14.235003998059]},"properties":{"supplychain_instance_id":"supplychain-1","stop_instance_id":"stop-42","description":"","address":"Brazil","title":"Brazil"}},{"type":"Feature","geometry":{"type":"Point","coordinates":[104.19539698549,35.861659995661]},"properties":{"supplychain_instance_id":"supplychain-1","stop_instance_id":"stop-31","description":"","address":"China","title":"China"}},{"type":"Feature","geometry":{"type":"Point","coordinates":[-99.901813086096,31.968598796012]},"properties":{"supplychain_instance_id":"supplychain-1","stop_instance_id":"stop-22","description":"","address":"Texas, USA","title":"Texas"}},{"type":"Feature","geometry":{"type":"Point","coordinates":[-81.515753488653,27.664827396449]},"properties":{"supplychain_instance_id":"supplychain-1","stop_instance_id":"stop-15","description":"","address":"Florida, USA","title":"Florida"}},{"type":"Feature","geometry":{"type":"Point","coordinates":[-119.41793238338,36.778260995585]},"properties":{"supplychain_instance_id":"supplychain-1","stop_instance_id":"stop-10","description":"","address":"California, USA","title":"Cali"}},{"type":"Feature","geometry":{"type":"Point","coordinates":[-111.09373108453,34.048928095819]},"properties":{"supplychain_instance_id":"supplychain-1","stop_instance_id":"stop-7","description":"","address":"Arizona, USA","title":"Arizona"}}],"properties":{"title":"Oranges","description":"Oranges cultivated world wide\nhttp:\/\/onlinelibrary.wiley.com\/doi\/10.1111\/j.1541-4337.2012.00201.x\/pdf","tags":"oranges"}}