{"type":"FeatureCollection","features":[{"type":"Feature","geometry":{"type":"Point","coordinates":[5.8678019991832,51.00048199479]},"properties":{"description":"","address":"Sittard, The Netherlands","title":"Sittard, Netherlands"}},{"type":"Feature","geometry":{"type":"Point","coordinates":[100.96374558594,13.493266398157]},"properties":{"supplychain_instance_id":"supplychain-1","stop_instance_id":"stop-591","description":"","address":"Bang Pakong, Chachoengsao, Thailand","title":"Bang Pakong, Chachoengsao Thailand"}},{"type":"Feature","geometry":{"type":"Point","coordinates":[-84.84328518819,37.762297995506]},"properties":{"supplychain_instance_id":"supplychain-1","stop_instance_id":"stop-546","description":"","address":"Harrodsburg, KY 40330, USA","title":"Harrodsburg, Kentucky USA"}},{"type":"Feature","geometry":{"type":"Point","coordinates":[14.329377898005,49.893523494822]},"properties":{"supplychain_instance_id":"supplychain-1","stop_instance_id":"stop-503","description":"","address":"Prague-West District, Czech Republic","title":"Praha z\u00e1pad, Czech Republic"}},{"type":"Feature","geometry":{"type":"Point","coordinates":[121.12508248314,14.187671198066]},"properties":{"supplychain_instance_id":"supplychain-1","stop_instance_id":"stop-462","description":"","address":"Calamba City, Philippines","title":"Calamba, Laguna Philippines"}},{"type":"Feature","geometry":{"type":"Point","coordinates":[103.92969798553,1.3604879998106]},"properties":{"youtube:link":"","water":"0","energy":"0","co2e":"0","weight":"0","supplychain_instance_id":"supplychain-1","stop_instance_id":"stop-404","description":"output","address":"10 Tampines Industrial Avenue 3, Singapore 528798","title":"10 Tampines Industrial Ave 3 Singapore"}},{"type":"Feature","geometry":{"type":"Point","coordinates":[121.31111108311,24.988888896742]},"properties":{"supplychain_instance_id":"supplychain-1","stop_instance_id":"stop-367","description":"","address":"Taoyuan City, Taoyuan County, Taiwan 330","title":"Taoyuan, Taiwan"}},{"type":"Feature","geometry":{"type":"Point","coordinates":[6.4811049990978,50.802951294795]},"properties":{"supplychain_instance_id":"supplychain-1","stop_instance_id":"stop-332","description":"","address":"D\u00fcren, Germany","title":"Duren, Germany"}},{"type":"Feature","geometry":{"type":"Point","coordinates":[-80.477746888798,43.434310995116]},"properties":{"supplychain_instance_id":"supplychain-1","stop_instance_id":"stop-299","description":"","address":"Kitchener, ON, Canada","title":"Kitchener, Ontario Canada"}},{"type":"Feature","geometry":{"type":"Point","coordinates":[150.94042157899,-33.853467995837]},"properties":{"supplychain_instance_id":"supplychain-1","stop_instance_id":"stop-268","description":"","address":"Smithfield NSW 2164, Australia","title":"Smithfield, Australia"}},{"type":"Feature","geometry":{"type":"Point","coordinates":[-122.39953628296,45.587063094999]},"properties":{"supplychain_instance_id":"supplychain-1","stop_instance_id":"stop-239","description":"","address":"Camas, WA, USA","title":"Camas, Washington USA"}},{"type":"Feature","geometry":{"type":"Point","coordinates":[120.89696338317,14.479129698027]},"properties":{"supplychain_instance_id":"supplychain-1","stop_instance_id":"stop-212","description":"","address":"Cavite City, Philippines","title":"Cavite, Philippines"}},{"type":"Feature","geometry":{"type":"Point","coordinates":[101.79486218583,2.8393019996051]},"properties":{"supplychain_instance_id":"supplychain-1","stop_instance_id":"stop-187","description":"","address":"Nilai, Negeri Sembilan, Malaysia","title":"Nilai, Negeri Sembilan Malaysia"}},{"type":"Feature","geometry":{"type":"Point","coordinates":[-76.305514389378,40.037875495336]},"properties":{"supplychain_instance_id":"supplychain-1","stop_instance_id":"stop-164","description":"","address":"Lancaster, PA, USA","title":"Lancaster, Pennsylvania USA"}},{"type":"Feature","geometry":{"type":"Point","coordinates":[131.42024108171,31.907673596018]},"properties":{"supplychain_instance_id":"supplychain-1","stop_instance_id":"stop-143","description":"","address":"Miyazaki, Miyazaki Prefecture, Japan","title":"Ishinomaki City, Miyazaki Japan"}},{"type":"Feature","geometry":{"type":"Point","coordinates":[121.4737039831,31.230392996084]},"properties":{"youtube:link":"","water":"0","energy":"0","co2e":"0","weight":"0","supplychain_instance_id":"supplychain-1","stop_instance_id":"stop-115","description":"mouse,Mac pc","address":"Shanghai, China","title":"Shanghai, China"}},{"type":"Feature","geometry":{"type":"Point","coordinates":[-121.98857188302,37.548269695523]},"properties":{"youtube:link":"","water":"0","energy":"0","co2e":"0","weight":"0","supplychain_instance_id":"supplychain-1","stop_instance_id":"stop-90","description":"MAC PC","address":"Fremont, CA, USA","title":"Fremont, California, USA"}},{"type":"Feature","geometry":{"type":"Point","coordinates":[104.06485598552,30.65860099614]},"properties":{"youtube:link":"","water":"0","energy":"0","co2e":"0","weight":"0","supplychain_instance_id":"supplychain-1","stop_instance_id":"stop-68","description":"ipad","address":"Chengdu, Sichuan, China","title":"Chengdu, Sichuan, China"}},{"type":"Feature","geometry":{"type":"Point","coordinates":[127.76692198221,35.907756995657]},"properties":{"youtube:link":"","water":"0","energy":"0","co2e":"0","weight":"0","supplychain_instance_id":"supplychain-1","stop_instance_id":"stop-49","description":"screens","address":"South Korea","title":"south korea"}},{"type":"Feature","geometry":{"type":"Point","coordinates":[113.62536798419,34.746599995757]},"properties":{"youtube:link":"","water":"0","energy":"0","co2e":"0","weight":"0","supplychain_instance_id":"supplychain-1","stop_instance_id":"stop-33","description":"iphone","address":"Zhengzhou, Henan, China","title":"Zhengzhou, Henan, China"}},{"type":"Feature","geometry":{"type":"Point","coordinates":[114.05786798412,22.543098997024]},"properties":{"youtube:link":"","water":"0","energy":"0","co2e":"0","weight":"0","supplychain_instance_id":"supplychain-1","stop_instance_id":"stop-20","description":"iphone, ipod","address":"Shenzhen, Guangdong, China","title":"Shenzhen, Guangdong, China"}},{"type":"Feature","geometry":{"type":"Point","coordinates":[-46.884452693474,-23.186453296949]},"properties":{"youtube:link":"","water":"0","energy":"0","co2e":"0","weight":"0","supplychain_instance_id":"supplychain-1","stop_instance_id":"stop-10","description":"iphone,ipad","address":"Jundia\u00ed - S\u00e3o Paulo, Brazil","title":"Jundia\u00ed, S\u00e3o Paulo, Brazil"}},{"type":"Feature","geometry":{"type":"Point","coordinates":[113.75176498416,23.020535996968]},"properties":{"youtube:link":"","water":"0","energy":"0","co2e":"0","weight":"0","supplychain_instance_id":"supplychain-1","stop_instance_id":"stop-3","description":"mouses","address":"Dongguan, Guangdong, China","title":"Dongguan, Guangdong, China"}},{"type":"Feature","geometry":{"type":"Point","coordinates":[-8.4863156988187,51.896891694767]},"properties":{"title":"Cork, Republic of Ireland","address":"Cork, Ireland","description":"screens","stop_instance_id":"stop-1","supplychain_instance_id":"supplychain-1","weight":"0","co2e":"0","energy":"0","water":"0","youtube:link":""}}],"properties":{"tags":"","description":"Apple produces iphones that become a leader of the smartphone market. Apple has a hugh supply chain to support its business, not only exists in China, but all over the world.","title":"Apple Inc. supply chain"}}