{"type":"FeatureCollection","features":[{"type":"Feature","geometry":{"type":"Point","coordinates":[-122.073297283,37.051337395563]},"properties":{"description":"","address":"Felton, CA, USA","title":"h"}},{"type":"Feature","geometry":{"type":"Point","coordinates":[-122.073297283,37.051337395563]},"properties":{"supplychain_instance_id":"supplychain-1","stop_instance_id":"stop-25","description":"","address":"Felton, CA, USA","title":"New Leaf "}},{"type":"Feature","geometry":{"type":"Point","coordinates":[-122.122186883,37.126057795557]},"properties":{"supplychain_instance_id":"supplychain-1","stop_instance_id":"stop-16","description":"","address":"Boulder Creek, CA 95006, USA","title":"Little Sky Lavender"}},{"type":"Feature","geometry":{"type":"Point","coordinates":[-121.89940158303,36.977172895569]},"properties":{"supplychain_instance_id":"supplychain-1","stop_instance_id":"stop-9","description":"","address":"Aptos, CA, USA","title":"Glaum Egg Farm"}},{"type":"Feature","geometry":{"type":"Point","coordinates":[-105.78206738528,39.550050695371]},"properties":{"supplychain_instance_id":"supplychain-1","stop_instance_id":"stop-4","description":"","address":"Colorado, USA","title":"Earth Balance"}},{"type":"Feature","geometry":{"type":"Point","coordinates":[-122.36608248297,37.58410259552]},"properties":{"supplychain_instance_id":"supplychain-1","stop_instance_id":"stop-1","description":"","address":"Burlingame, CA, USA","title":"Guittard Chocolate"}}],"properties":{"sm:ui:energy":"1","sm:ui:co2e":"1","title":"Lavender Brownies","description":"","tags":""}}