{"type":"FeatureCollection","features":[{"type":"Feature","geometry":{"type":"Point","coordinates":[133.77513598138,-25.27439799671]},"properties":{"description":"","address":"Australia","title":"Australia"}},{"type":"Feature","geometry":{"type":"Point","coordinates":[76.085600989409,29.058775696302]},"properties":{"supplychain_instance_id":"supplychain-1","stop_instance_id":"stop-145","description":"","address":"Haryana, India","title":"India"}},{"type":"Feature","geometry":{"type":"Point","coordinates":[121.4737039831,31.230392996084]},"properties":{"youtube:link":"","water":"0","energy":"0","co2e":"0","weight":"0","supplychain_instance_id":"supplychain-1","stop_instance_id":"stop-117","description":"","address":"Shanghai, China","title":"China"}},{"type":"Feature","geometry":{"type":"Point","coordinates":[-70.25943459022,19.300799897415]},"properties":{"supplychain_instance_id":"supplychain-1","stop_instance_id":"stop-100","description":"","address":"Puerto Rico, San Francisco de Macoris 31000, Dominican Republic","title":"Puerto Rico \/ Dominican Republic"}},{"type":"Feature","geometry":{"type":"Point","coordinates":[-103.3999999856,20.716666697242]},"properties":{"supplychain_instance_id":"supplychain-1","stop_instance_id":"stop-85","description":"","address":"Zapopan, JAL, Mexico","title":"Mexico"}},{"type":"Feature","geometry":{"type":"Point","coordinates":[-46.564738093518,-23.68958399689]},"properties":{"youtube:link":"","water":"0","energy":"0","co2e":"0","weight":"0","supplychain_instance_id":"supplychain-1","stop_instance_id":"stop-36","description":"","address":"S\u00e3o Bernardo do Campo - S\u00e3o Paulo, Brazil","title":"Brazil"}},{"type":"Feature","geometry":{"type":"Point","coordinates":[11.674273798375,48.225897294881]},"properties":{"youtube:link":"","water":"0","energy":"0","co2e":"0","weight":"0","supplychain_instance_id":"supplychain-1","stop_instance_id":"stop-25","description":"","address":"Ismaning, Germany","title":"Germany"}},{"type":"Feature","geometry":{"type":"Point","coordinates":[2.2144359996918,48.754516994861]},"properties":{"youtube:link":"","water":"0","energy":"0","co2e":"0","weight":"0","supplychain_instance_id":"supplychain-1","stop_instance_id":"stop-16","description":"","address":"Bi\u00e8vres, France","title":"France"}},{"type":"Feature","geometry":{"type":"Point","coordinates":[-2.5969500996385,53.390044094738]},"properties":{"youtube:link":"","water":"0","energy":"0","co2e":"0","weight":"0","supplychain_instance_id":"supplychain-1","stop_instance_id":"stop-9","description":"","address":"Warrington, UK","title":"UK"}},{"type":"Feature","geometry":{"type":"Point","coordinates":[-85.323213888123,51.253774994783]},"properties":{"youtube:link":"","water":"0","energy":"0","co2e":"0","weight":"0","supplychain_instance_id":"supplychain-1","stop_instance_id":"stop-4","description":"","address":"Ontario, Canada","title":"Canada"}},{"type":"Feature","geometry":{"type":"Point","coordinates":[-87.818735487776,41.206929295256]},"properties":{"youtube:link":"","water":"0","energy":"0","co2e":"0","weight":"0","supplychain_instance_id":"supplychain-1","stop_instance_id":"stop-1","description":"","address":"Sycamore, IL, USA","title":"USA"}}],"properties":{"tags":"","description":"","title":"Ideal","sm:ui:tileset":"satellite"}}