{"supplychain":{"category":19,"created":1371224331,"enable_comments":true,"flags":0,"id":6187,"modified":1371224333,"other_perms":1,"passcode":null,"user_featured":false,"usergroup_id":null,"usergroup_perms":0,"user_id":5696,"owner":{"id":5696,"name":"Juseline","avatar":"http:\/\/free.sourcemap.com\/assets\/images\/default-user.png","banner_url":null,"display_name":null},"taxonomy":[{"description":"Test Maps","id":19,"left":35,"name":"test-maps","right":36,"title":"Test Maps "}],"attributes":{"tags":"","description":"Exportaciones de Bolivia hacia los distintos pa\u00edses de destino en el mundo.","title":"Exportaciones pa\u00edses de destino"},"stops":[{"local_stop_id":197,"id":197,"geometry":"POINT(18582729.911316 -58196.188245)","attributes":{"address":"Nauru","placename":"Nauru","title":"Destino"}},{"local_stop_id":196,"id":196,"geometry":"POINT(19978804.6995 -1201283.410428)","attributes":{"address":"Tuvalu","placename":"Tuvalu","title":"Destino"}},{"local_stop_id":195,"id":195,"geometry":"POINT(14981657.596076 838972.716642)","attributes":{"address":"Palau","placename":"Palau","title":"Destino"}},{"local_stop_id":194,"id":194,"geometry":"POINT(-19502979.087317 -2413233.597269)","attributes":{"address":"Tonga","placename":"Tonga","title":"Destino"}},{"local_stop_id":193,"id":193,"geometry":"POINT(736164.809495 20745.536883)","attributes":{"address":"Sao Tome and Principe","placename":"S\u00e3o Tom\u00e9 and Pr\u00edncipe","title":"Destino"}},{"local_stop_id":192,"id":192,"geometry":"POINT(-17517226.187934 207854.429556)","attributes":{"address":"Kiribati","placename":"Kiribati","title":"Destino"}},{"local_stop_id":191,"id":191,"geometry":"POINT(13995925.620171 -991846.878008)","attributes":{"address":"East Timor","placename":"Timor-Leste","title":"Destino"}},{"local_stop_id":190,"id":190,"geometry":"POINT(4823840.890392 -1305390.276197)","attributes":{"address":"Comoros","placename":"Comoros","title":"Destino"}},{"local_stop_id":189,"id":189,"geometry":"POINT(-19158599.663445 -1546584.978985)","attributes":{"address":"Samoa","placename":"Samoa","title":"Destino"}},{"local_stop_id":188,"id":188,"geometry":"POINT(-400589.543963 4463854.090685)","attributes":{"address":"Granada","placename":"Granada, Spain","title":"Destino"}},{"local_stop_id":187,"id":187,"geometry":"POINT(18585808.451834 -1732652.756176)","attributes":{"address":"Vanuatu","placename":"Vanuatu","title":"Destino"}},{"local_stop_id":186,"id":186,"geometry":"POINT(-6879146.897803 1927905.530255)","attributes":{"address":"Antigua and Barbuda","placename":"Antigua and Barbuda","title":"Destino"}},{"local_stop_id":185,"id":185,"geometry":"POINT(-6831785.797806 1737074.177907)","attributes":{"address":"Dominica","placename":"Dominica","title":"Destino"}},{"local_stop_id":184,"id":184,"geometry":"POINT(-9045220.696611 2191856.866086)","attributes":{"address":"Cayman Islands","placename":"Cayman Islands","title":"Destino"}},{"local_stop_id":183,"id":183,"geometry":"POINT(-6988971.367835 1962517.709555)","attributes":{"address":"Saint Kitts and Nevis","placename":"Saint Kitts and Nevis","title":"Destino"}},{"local_stop_id":182,"id":182,"geometry":"POINT(169406.112409 5237122.786598)","attributes":{"address":"Andorra","placename":"Andorra","title":"Destino"}},{"local_stop_id":181,"id":181,"geometry":"POINT(-6812335.499777 1488695.624015)","attributes":{"address":"Saint Vincent and the Grenadines","placename":"Saint Vincent and the Grenadines","title":"Destino"}},{"local_stop_id":180,"id":180,"geometry":"POINT(4741127.725745 1325814.408765)","attributes":{"address":"Djibouti","placename":"Djibouti","title":"Destino"}},{"local_stop_id":179,"id":179,"geometry":"POINT(3330555.154622 -375703.95736)","attributes":{"address":"Burundi","placename":"Burundi","title":"Destino"}},{"local_stop_id":178,"id":178,"geometry":"POINT(-1704316.877454 1510410.542924)","attributes":{"address":"Gambia","placename":"The Gambia","title":"Destino"}},{"local_stop_id":177,"id":177,"geometry":"POINT(-6626138.289336 -6763368.892542)","attributes":{"address":"Falkland Islands","placename":"FIQQ 1ZZ, Falkland Islands (Islas Malvinas)","title":"Destino"}},{"local_stop_id":176,"id":176,"geometry":"POINT(2330968.243574 737584.011323)","attributes":{"address":"Central African Republic","placename":"Central African Republic","title":"Destino"}},{"local_stop_id":175,"id":175,"geometry":"POINT(-2627705.674978 1703232.952894)","attributes":{"address":"Cape Verde","placename":"Cape Verde","title":"Destino"}},{"local_stop_id":174,"id":174,"geometry":"POINT(-6788139.317898 1563829.337287)","attributes":{"address":"St. Lucia","placename":"Saint Lucia","title":"Destino"}},{"local_stop_id":173,"id":173,"geometry":"POINT(17828505.963469 -1078863.738207)","attributes":{"address":"Solomon Islands","placename":"Solomon Islands","title":"Destino"}},{"local_stop_id":172,"id":172,"geometry":"POINT(-1689875.845192 1323381.864678)","attributes":{"address":"Guinea-Bissau","placename":"Guinea-Bissau","title":"Destino"}},{"local_stop_id":171,"id":171,"geometry":"POINT(3325546.000175 -216032.053352)","attributes":{"address":"Rwanda","placename":"Rwanda","title":"Destino"}},{"local_stop_id":170,"id":170,"geometry":"POINT(-4742689.315562 11648433.889385)","attributes":{"address":"Greenland","placename":"Greenland","title":"Destino"}},{"local_stop_id":169,"id":169,"geometry":"POINT(4428549.163448 1709882.213088)","attributes":{"address":"Eritrea","placename":"Eritrea","title":"Destino"}},{"local_stop_id":168,"id":168,"geometry":"POINT(-1049687.027116 717073.663481)","attributes":{"address":"Liberia","placename":"Liberia","title":"Destino"}},{"local_stop_id":167,"id":167,"geometry":"POINT(-6628318.481563 1481892.105744)","attributes":{"address":"Barbados","placename":"Barbados","title":"Destino"}},{"local_stop_id":166,"id":166,"geometry":"POINT(-1311331.245081 945266.170437)","attributes":{"address":"Sierra Leone","placename":"Sierra Leone","title":"Destino"}},{"local_stop_id":165,"id":165,"geometry":"POINT(6177338.622752 -521507.915974)","attributes":{"address":"Seychelles","placename":"Seychelles","title":"Destino"}},{"local_stop_id":164,"id":164,"geometry":"POINT(5142917.727965 574309.098919)","attributes":{"address":"Somalia","placename":"Somalia","title":"Destino"}},{"local_stop_id":163,"id":163,"geometry":"POINT(10067022.413922 3187857.67285)","attributes":{"address":"Bhutan","placename":"Bhutan","title":"Destino"}},{"local_stop_id":162,"id":162,"geometry":"POINT(-9851513.334401 1942939.083677)","attributes":{"address":"Belize","placename":"Belize","title":"Destino"}},{"local_stop_id":161,"id":161,"geometry":"POINT(2156747.22923 5267734.268962)","attributes":{"address":"Montenegro","placename":"Montenegro","title":"Destino"}},{"local_stop_id":160,"id":160,"geometry":"POINT(-8615714.478894 2879955.737669)","attributes":{"address":"Bahamas","placename":"Commonwealth of The Bahamas","title":"Destino"}},{"local_stop_id":159,"id":159,"geometry":"POINT(826504.450192 5425050.538922)","attributes":{"address":"Monaco","placename":"Monaco","title":"Destino"}},{"local_stop_id":158,"id":158,"geometry":"POINT(-8046753.325682 2151543.94475)","attributes":{"address":"Haiti","placename":"Haiti","title":"Destino"}},{"local_stop_id":157,"id":157,"geometry":"POINT(9364641.734049 3298848.05185)","attributes":{"address":"Nepal","placename":"Nepal","title":"Destino"}},{"local_stop_id":156,"id":156,"geometry":"POINT(19822108.690328 -2004026.222226)","attributes":{"address":"Fiji","placename":"Fiji","title":"Destino"}},{"local_stop_id":155,"id":155,"geometry":"POINT(91814.312255 963163.074994)","attributes":{"address":"Togo","placename":"Togo","title":"Destino"}},{"local_stop_id":154,"id":154,"geometry":"POINT(3818428.296433 -1488801.355152)","attributes":{"address":"Malawi","placename":"Malawi","title":"Destino"}},{"local_stop_id":153,"id":153,"geometry":"POINT(18436516.101619 -2380471.632631)","attributes":{"address":"New Caledonia","placename":"New Caledonia","title":"Destino"}},{"local_stop_id":152,"id":152,"geometry":"POINT(3142950.865817 -3453515.305463)","attributes":{"address":"Lesotho","placename":"Lesotho","title":"Destino"}},{"local_stop_id":151,"id":151,"geometry":"POINT(12639646.125056 2535403.729069)","attributes":{"address":"Macao","placename":"Macau","title":"Destino"}},{"local_stop_id":150,"id":150,"geometry":"POINT(899646.943881 1991691.558385)","attributes":{"address":"Niger","placename":"Niger","title":"Destino"}},{"local_stop_id":149,"id":149,"geometry":"POINT(-6560077.629956 541709.129825)","attributes":{"address":"Guyana","placename":"Guyana","title":"Destino"}},{"local_stop_id":148,"id":148,"geometry":"POINT(7934418.378494 4701785.38843)","attributes":{"address":"Tajikistan","placename":"Tajikistan","title":"Destino"}},{"local_stop_id":147,"id":147,"geometry":"POINT(5013628.265731 4875988.644415)","attributes":{"address":"Armenia","placename":"Armenia","title":"Destino"}},{"local_stop_id":146,"id":146,"geometry":"POINT(5217445.125175 -2127516.82188)","attributes":{"address":"Madagascar","placename":"Madagascar","title":"Destino"}},{"local_stop_id":145,"id":145,"geometry":"POINT(-6236984.273836 436635.68837)","attributes":{"address":"Surinam","placename":"Suriname","title":"Destino"}},{"local_stop_id":144,"id":144,"geometry":"POINT(-8604719.230149 2050378.802628)","attributes":{"address":"Jamaica","placename":"Jamaica","title":"Destino"}},{"local_stop_id":143,"id":143,"geometry":"POINT(-1079425.583803 1112739.818908)","attributes":{"address":"Guinea","placename":"Guinea","title":"Destino"}},{"local_stop_id":142,"id":142,"geometry":"POINT(257797.461642 1040714.83444)","attributes":{"address":"Benin","placename":"Benin","title":"Destino"}},{"local_stop_id":141,"id":141,"geometry":"POINT(2245128.33707 5034984.473549)","attributes":{"address":"Albania","placename":"Albania","title":"Destino"}},{"local_stop_id":140,"id":140,"geometry":"POINT(3502764.180489 -3063940.42616)","attributes":{"address":"Swaziland","placename":"Swaziland","title":"Destino"}},{"local_stop_id":139,"id":139,"geometry":"POINT(11409746.423324 2256011.885919)","attributes":{"address":"Laos","placename":"Laos","title":"Destino"}},{"local_stop_id":138,"id":138,"geometry":"POINT(-173835.737586 1372844.313774)","attributes":{"address":"Burkina Faso","placename":"Burkina Faso","title":"Destino"}},{"local_stop_id":137,"id":137,"geometry":"POINT(-9229178.715495 3783994.218369)","attributes":{"address":"Georgia","placename":"Georgia, USA","title":"Destino"}},{"local_stop_id":136,"id":136,"geometry":"POINT(-444851.164245 1987359.399603)","attributes":{"address":"Mali","placename":"Mali","title":"Destino"}},{"local_stop_id":135,"id":135,"geometry":"POINT(8322923.95796 5042534.567123)","attributes":{"address":"Kyrgyzstan","placename":"Kyrgyzstan","title":"Destino"}},{"local_stop_id":134,"id":134,"geometry":"POINT(3158121.152064 6009523.467887)","attributes":{"address":"Moldova","placename":"Moldova","title":"Destino"}},{"local_stop_id":133,"id":133,"geometry":"POINT(-1608829.5786 1631344.630706)","attributes":{"address":"Senegal","placename":"Senegal","title":"Destino"}},{"local_stop_id":132,"id":132,"geometry":"POINT(1386793.392056 5456526.589077)","attributes":{"address":"San Marino","placename":"San Marino","title":"Destino"}},{"local_stop_id":131,"id":131,"geometry":"POINT(14194358.623763 4915452.248367)","attributes":{"address":"North Korea","placename":"North Korea","title":"Destino"}},{"local_stop_id":130,"id":130,"geometry":"POINT(3594536.970575 152893.371044)","attributes":{"address":"Uganda","placename":"Uganda","title":"Destino"}},{"local_stop_id":129,"id":129,"geometry":"POINT(7537437.489596 4020628.914252)","attributes":{"address":"Afghanistan","placename":"Afghanistan","title":"Destino"}},{"local_stop_id":128,"id":128,"geometry":"POINT(6406676.254697 -2314350.159717)","attributes":{"address":"Mauricio","placename":"Mauritius","title":"Destino"}},{"local_stop_id":127,"id":127,"geometry":"POINT(3955132.749948 -2115616.180098)","attributes":{"address":"Mozambique","placename":"Mozambique","title":"Destino"}},{"local_stop_id":126,"id":126,"geometry":"POINT(4507289.780746 1022366.88618)","attributes":{"address":"Ethiopia","placename":"Ethiopia","title":"Destino"}},{"local_stop_id":125,"id":125,"geometry":"POINT(1063699.2567 5969211.714568)","attributes":{"address":"Liechtenstein","placename":"Liechtenstein","title":"Destino"}},{"local_stop_id":124,"id":124,"geometry":"POINT(-1217928.181053 2392819.411011)","attributes":{"address":"Mauritania","placename":"Mauritania","title":"Destino"}},{"local_stop_id":123,"id":123,"geometry":"POINT(3245503.835391 -2156753.573765)","attributes":{"address":"Zimbabwe","placename":"Zimbabwe","title":"Destino"}},{"local_stop_id":122,"id":122,"geometry":"POINT(-9485225.344186 1444360.519557)","attributes":{"address":"Nicaragua","placename":"Nicaragua","title":"Destino"}},{"local_stop_id":121,"id":121,"geometry":"POINT(2085259.744674 1741597.357213)","attributes":{"address":"Chad","placename":"Chad","title":"Destino"}},{"local_stop_id":120,"id":120,"geometry":"POINT(2420672.94016 5102533.956456)","attributes":{"address":"Macedonia","placename":"Macedonia (FYROM)","title":"Destino"}},{"local_stop_id":119,"id":119,"geometry":"POINT(2058343.025759 -2626896.715328)","attributes":{"address":"Namibia","placename":"Namibia","title":"Destino"}},{"local_stop_id":118,"id":118,"geometry":"POINT(11560156.866504 5919658.729761)","attributes":{"address":"Mongolia","placename":"Mongolia","title":"Destino"}},{"local_stop_id":117,"id":117,"geometry":"POINT(1600263.989061 4292024.32283)","attributes":{"address":"Malta","placename":"Malta","title":"Destino"}},{"local_stop_id":116,"id":116,"geometry":"POINT(-2117389.666663 9598645.705352)","attributes":{"address":"Iceland","placename":"Iceland","title":"Destino"}},{"local_stop_id":115,"id":115,"geometry":"POINT(-9895916.452889 1550614.448509)","attributes":{"address":"El Salvador","placename":"El Salvador","title":"Destino"}},{"local_stop_id":114,"id":114,"geometry":"POINT(11687540.539055 1410155.012282)","attributes":{"address":"Cambodia","placename":"Cambodia","title":"Destino"}},{"local_stop_id":113,"id":113,"geometry":"POINT(3883805.899417 -710461.619568)","attributes":{"address":"Tanzania","placename":"Tanzania","title":"Destino"}},{"local_stop_id":112,"id":112,"geometry":"POINT(3992171.304883 4009311.247656)","attributes":{"address":"Lebanon","placename":"Lebanon","title":"Destino"}},{"local_stop_id":111,"id":111,"geometry":"POINT(1375321.361932 822665.286731)","attributes":{"address":"Cameroon","placename":"Cameroon","title":"Destino"}},{"local_stop_id":110,"id":110,"geometry":"POINT(4219698.102672 -2622.575957)","attributes":{"address":"Kenya","placename":"Kenya","title":"Destino"}},{"local_stop_id":109,"id":109,"geometry":"POINT(1968025.738016 5452434.561675)","attributes":{"address":"Bosnia and Herzegovina","placename":"Bosnia and Herzegovina","title":"Destino"}},{"local_stop_id":108,"id":108,"geometry":"POINT(2747906.71342 -2551008.420793)","attributes":{"address":"Botswana","placename":"Botswana","title":"Destino"}},{"local_stop_id":107,"id":107,"geometry":"POINT(-8658559.903747 2454202.390949)","attributes":{"address":"Cuba","placename":"Cuba","title":"Destino"}},{"local_stop_id":106,"id":106,"geometry":"POINT(16025058.522866 -704409.432655)","attributes":{"address":"Papua New Guinea","placename":"Papua New Guinea","title":"Destino"}},{"local_stop_id":105,"id":105,"geometry":"POINT(-9600404.949642 1712260.140507)","attributes":{"address":"Honduras","placename":"Honduras","title":"Destino"}},{"local_stop_id":104,"id":104,"geometry":"POINT(5400819.607289 1752983.407652)","attributes":{"address":"Yemen","placename":"Yemen","title":"Destino"}},{"local_stop_id":103,"id":103,"geometry":"POINT(4034041.793636 3578991.172208)","attributes":{"address":"Jordan","placename":"Jordan","title":"Destino"}},{"local_stop_id":102,"id":102,"geometry":"POINT(4341105.588359 4137016.351319)","attributes":{"address":"Syria","placename":"Syria","title":"Destino"}},{"local_stop_id":101,"id":101,"geometry":"POINT(10681797.882806 2501198.83421)","attributes":{"address":"Burma, Myanmar","placename":"Burma","title":"Destino"}},{"local_stop_id":100,"id":100,"geometry":"POINT(-7078656.47219 -1838348.789522)","attributes":{"address":"Bolivia","placename":"Bolivia","title":"Destino"}},{"local_stop_id":99,"id":99,"geometry":"POINT(-7810470.582026 2123842.626161)","attributes":{"address":"Dominican Republic","placename":"Dominican Republic","title":"Destino"}},{"local_stop_id":98,"id":98,"geometry":"POINT(3363811.852496 1444062.609719)","attributes":{"address":"Sudan","placename":"Sudan","title":"Destino"}},{"local_stop_id":97,"id":97,"geometry":"POINT(3100173.457173 -1475033.831658)","attributes":{"address":"Zambia","placename":"Zambia","title":"Destino"}},{"local_stop_id":96,"id":96,"geometry":"POINT(-6207824.355862 -3832130.824994)","attributes":{"address":"Uruguay","placename":"Uruguay","title":"Destino"}},{"local_stop_id":95,"id":95,"geometry":"POINT(8991475.312498 879195.517639)","attributes":{"address":"Sri Lanka","placename":"Sri Lanka","title":"Destino"}},{"local_stop_id":94,"id":94,"geometry":"POINT(-6505937.618248 -2685620.33203)","attributes":{"address":"Paraguay","placename":"Paraguay","title":"Destino"}},{"local_stop_id":93,"id":93,"geometry":"POINT(-9323388.957151 1090519.231591)","attributes":{"address":"Costa Rica","placename":"Costa Rica","title":"Destino"}},{"local_stop_id":92,"id":92,"geometry":"POINT(-10044442.145771 1779661.011764)","attributes":{"address":"Guatemala","placename":"Guatemala","title":"Destino"}},{"local_stop_id":91,"id":91,"geometry":"POINT(12771425.692979 505392.766624)","attributes":{"address":"Brunei","placename":"Brunei Darussalam","title":"Destino"}},{"local_stop_id":90,"id":90,"geometry":"POINT(1292357.394473 -89469.184236)","attributes":{"address":"Gabon","placename":"Gabon","title":"Destino"}},{"local_stop_id":89,"id":89,"geometry":"POINT(2422163.396822 -449917.840172)","attributes":{"address":"DRC","placename":"Democratic Republic of the Congo","title":"Destino"}},{"local_stop_id":88,"id":88,"geometry":"POINT(-617498.12099 841780.906412)","attributes":{"address":"Ivory Coast","placename":"C\u00f4te d'Ivoire","title":"Destino"}},{"local_stop_id":87,"id":87,"geometry":"POINT(2338361.527555 5467999.202178)","attributes":{"address":"Serbia","placename":"Serbia","title":"Destino"}},{"local_stop_id":86,"id":86,"geometry":"POINT(2738814.471371 7735556.799888)","attributes":{"address":"Latvia","placename":"Latvia","title":"Destino"}},{"local_stop_id":85,"id":85,"geometry":"POINT(1692056.260058 5637278.201891)","attributes":{"address":"Croatia","placename":"Croatia","title":"Destino"}},{"local_stop_id":84,"id":84,"geometry":"POINT(1761926.94033 -25383.248614)","attributes":{"address":"Congo","placename":"Congo","title":"Destino"}},{"local_stop_id":83,"id":83,"geometry":"POINT(7189598.47859 5068181.963819)","attributes":{"address":"Uzbekistan","placename":"Uzbekistan","title":"Destino"}},{"local_stop_id":82,"id":82,"geometry":"POINT(-113901.435063 887453.057712)","attributes":{"address":"Ghana","placename":"Ghana","title":"Destino"}},{"local_stop_id":81,"id":81,"geometry":"POINT(-6815257.85905 1197174.420926)","attributes":{"address":"Trinidad and Tobago","placename":"Trinidad and Tobago","title":"Destino"}},{"local_stop_id":80,"id":80,"geometry":"POINT(6629774.540503 4717335.006851)","attributes":{"address":"Turkmenistan","placename":"Turkmenistan","title":"Destino"}},{"local_stop_id":79,"id":79,"geometry":"POINT(1143016.842919 183791.756876)","attributes":{"address":"Equatorial Guinea","placename":"Equatorial Guinea","title":"Destino"}},{"local_stop_id":78,"id":78,"geometry":"POINT(1917849.034138 3040644.059011)","attributes":{"address":"Libya","placename":"Libya","title":"Destino"}},{"local_stop_id":77,"id":77,"geometry":"POINT(2784501.994143 8093419.123256)","attributes":{"address":"Estonia","placename":"Estonia","title":"Destino"}},{"local_stop_id":76,"id":76,"geometry":"POINT(-8992625.242838 953980.901355)","attributes":{"address":"Panama","placename":"Panama","title":"Destino"}},{"local_stop_id":75,"id":75,"geometry":"POINT(1061709.532121 4013627.830394)","attributes":{"address":"Tunisia","placename":"Tunisia","title":"Destino"}},{"local_stop_id":74,"id":74,"geometry":"POINT(682342.058335 6414345.6274)","attributes":{"address":"Luxembourg","placename":"Luxembourg","title":"Destino"}},{"local_stop_id":73,"id":73,"geometry":"POINT(5628057.419679 3007344.372065)","attributes":{"address":"Bahrain","placename":"Bahrain","title":"Destino"}},{"local_stop_id":72,"id":72,"geometry":"POINT(-789546.84679 3735999.22766)","attributes":{"address":"Morocco","placename":"Morocco","title":"Destino"}},{"local_stop_id":71,"id":71,"geometry":"POINT(-8703336.944404 -203887.308284)","attributes":{"address":"Ecuador","placename":"Ecuador","title":"Destino"}},{"local_stop_id":70,"id":70,"geometry":"POINT(10058420.756868 2715069.967281)","attributes":{"address":"Bangladesh","placename":"Bangladesh","title":"Destino"}},{"local_stop_id":69,"id":69,"geometry":"POINT(7719463.00212 3551885.664913)","attributes":{"address":"Pakistan","placename":"Pakistan","title":"Destino"}},{"local_stop_id":68,"id":68,"geometry":"POINT(3428918.392521 3101070.050794)","attributes":{"address":"Egypt","placename":"Egypt","title":"Destino"}},{"local_stop_id":67,"id":67,"geometry":"POINT(2837069.618044 5271553.447419)","attributes":{"address":"Bulgaria","placename":"Bulgaria","title":"Destino"}},{"local_stop_id":66,"id":66,"geometry":"POINT(2429471.298754 4732306.812978)","attributes":{"address":"Greece","placename":"Greece","title":"Destino"}},{"local_stop_id":65,"id":65,"geometry":"POINT(2658451.372494 7394820.260241)","attributes":{"address":"Lithuania","placename":"Lithuania","title":"Destino"}},{"local_stop_id":64,"id":64,"geometry":"POINT(1669287.305369 5804618.909739)","attributes":{"address":"Slovenia","placename":"Slovenia","title":"Destino"}},{"local_stop_id":63,"id":63,"geometry":"POINT(5296239.287149 4886759.751808)","attributes":{"address":"Azerbaijan","placename":"Azerbaijan","title":"Destino"}},{"local_stop_id":62,"id":62,"geometry":"POINT(19468217.238607 -4997684.890551)","attributes":{"address":"NZ","placename":"New Zealand","title":"Destino"}},{"local_stop_id":61,"id":61,"geometry":"POINT(3111757.029426 7115387.658402)","attributes":{"address":"Belarus","placename":"Belarus","title":"Destino"}},{"local_stop_id":60,"id":60,"geometry":"POINT(6225348.270102 2453104.641232)","attributes":{"address":"Oman","placename":"Oman","title":"Destino"}},{"local_stop_id":59,"id":59,"geometry":"POINT(-8350648.52242 -1027437.355768)","attributes":{"address":"Peru","placename":"Peru","title":"Destino"}},{"local_stop_id":58,"id":58,"geometry":"POINT(13555821.564291 1445993.997497)","attributes":{"address":"Philippines","placename":"Philippines","title":"Destino"}},{"local_stop_id":57,"id":57,"geometry":"POINT(-915542.031333 4779112.741647)","attributes":{"address":"Portugal","placename":"Portugal","title":"Destino"}},{"local_stop_id":56,"id":56,"geometry":"POINT(-8270741.276858 509367.281339)","attributes":{"address":"Colombia","placename":"Colombia","title":"Destino"}},{"local_stop_id":55,"id":55,"geometry":"POINT(-7412781.478528 2063412.921355)","attributes":{"address":"Puerto Rico","placename":"Puerto Rico","title":"Destino"}},{"local_stop_id":54,"id":54,"geometry":"POINT(2779287.009958 5771245.404432)","attributes":{"address":"Romania","placename":"Romania","title":"Destino"}},{"local_stop_id":53,"id":53,"geometry":"POINT(3879663.701165 3638731.187583)","attributes":{"address":"Israel","placename":"Israel","title":"Destino"}},{"local_stop_id":52,"id":52,"geometry":"POINT(1989711.999337 -1255100.642297)","attributes":{"address":"Angola","placename":"Angola","title":"Destino"}},{"local_stop_id":51,"id":51,"geometry":"POINT(3469336.495877 6170212.711441)","attributes":{"address":"Ukraine","placename":"Ukraine","title":"Destino"}},{"local_stop_id":50,"id":50,"geometry":"POINT(184748.721227 3253246.71111)","attributes":{"address":"Algeria","placename":"Algeria","title":"Destino"}},{"local_stop_id":49,"id":49,"geometry":"POINT(2866271.058188 8841170.394214)","attributes":{"address":"Finland","placename":"Finland","title":"Destino"}},{"local_stop_id":48,"id":48,"geometry":"POINT(-7964126.878919 -4256013.675159)","attributes":{"address":"Chile","placename":"Chile","title":"Destino"}},{"local_stop_id":47,"id":47,"geometry":"POINT(4862356.432331 3924966.445386)","attributes":{"address":"Iraq","placename":"Iraq","title":"Destino"}},{"local_stop_id":46,"id":46,"geometry":"POINT(-7081775.533003 -4638374.275084)","attributes":{"address":"Argentina","placename":"Argentina","title":"Destino"}},{"local_stop_id":45,"id":45,"geometry":"POINT(2192885.320804 6218887.493883)","attributes":{"address":"Slovakia","placename":"Slovakia","title":"Destino"}},{"local_stop_id":44,"id":44,"geometry":"POINT(7449910.42489 6110111.702601)","attributes":{"address":"Kazakhstan","placename":"Kazakhstan","title":"Destino"}},{"local_stop_id":43,"id":43,"geometry":"POINT(-7412734.835662 716591.403237)","attributes":{"address":"Venezuela","placename":"Venezuela","title":"Destino"}},{"local_stop_id":42,"id":42,"geometry":"POINT(12053362.657202 1580908.758572)","attributes":{"address":"Vietnam","placename":"Vietnam","title":"Destino"}},{"local_stop_id":41,"id":41,"geometry":"POINT(2171097.870066 5968637.679129)","attributes":{"address":"Hungary","placename":"Hungary","title":"Destino"}},{"local_stop_id":40,"id":40,"geometry":"POINT(965727.418131 1015263.983184)","attributes":{"address":"Nigeria","placename":"Nigeria","title":"Destino"}},{"local_stop_id":39,"id":39,"geometry":"POINT(5285646.013085 3415373.48796)","attributes":{"address":"Kuwait","placename":"Kuwait","title":"Destino"}},{"local_stop_id":38,"id":38,"geometry":"POINT(2553391.487988 -3575670.675527)","attributes":{"address":"South Africa","placename":"South Africa","title":"Destino"}},{"local_stop_id":37,"id":37,"geometry":"POINT(5697763.903702 2919390.332888)","attributes":{"address":"Qatar","placename":"Qatar","title":"Destino"}},{"local_stop_id":36,"id":36,"geometry":"POINT(1057733.867827 7611135.068229)","attributes":{"address":"Denmark","placename":"Denmark","title":"Destino"}},{"local_stop_id":35,"id":35,"geometry":"POINT(-917705.636956 7059743.327002)","attributes":{"address":"Ireland","placename":"Ireland","title":"Destino"}},{"local_stop_id":34,"id":34,"geometry":"POINT(5976525.942406 3819612.201442)","attributes":{"address":"Iran","placename":"Iran","title":"Destino"}},{"local_stop_id":33,"id":33,"geometry":"POINT(1722442.250904 6414728.45895)","attributes":{"address":"Czech Republic","placename":"Czech Republic","title":"Destino"}},{"local_stop_id":32,"id":32,"geometry":"POINT(3923268.658903 4716479.684629)","attributes":{"address":"Turkey","placename":"Turkey","title":"Destino"}},{"local_stop_id":31,"id":31,"geometry":"POINT(942758.756276 8505587.038689)","attributes":{"address":"Norway","placename":"Norway","title":"Destino"}},{"local_stop_id":30,"id":30,"geometry":"POINT(1619706.606045 6026746.974644)","attributes":{"address":"Austria","placename":"Austria","title":"Destino"}},{"local_stop_id":29,"id":29,"geometry":"POINT(2075385.037924 8428326.96544)","attributes":{"address":"Sweden","placename":"Sweden","title":"Destino"}},{"local_stop_id":28,"id":28,"geometry":"POINT(2131226.790688 6785571.898792)","attributes":{"address":"Poland","placename":"Poland","title":"Destino"}},{"local_stop_id":27,"id":27,"geometry":"POINT(12681664.112134 -87864.470043)","attributes":{"address":"Indonesia","placename":"Indonesia","title":"Destino"}},{"local_stop_id":26,"id":26,"geometry":"POINT(11242438.238039 1789676.623494)","attributes":{"address":"Thailand","placename":"Thailand","title":"Destino"}},{"local_stop_id":25,"id":25,"geometry":"POINT(11351890.344374 469131.367658)","attributes":{"address":"Malaysia","placename":"Malaysia","title":"Destino"}},{"local_stop_id":24,"id":24,"geometry":"POINT(5994311.680089 2683384.657664)","attributes":{"address":"United Arab Emirates","placename":"United Arab Emirates","title":"Destino"}},{"local_stop_id":23,"id":23,"geometry":"POINT(-5780295.728898 -1601191.813438)","attributes":{"address":"Brazil","placename":"Brazil","title":"Destino"}},{"local_stop_id":22,"id":22,"geometry":"POINT(14891780.020321 -2909486.054997)","attributes":{"address":"Australia","placename":"Australia","title":"Destino"}},{"local_stop_id":21,"id":21,"geometry":"POINT(8790107.59317 2343495.165705)","attributes":{"address":"India","placename":"India","title":"Destino"}},{"local_stop_id":20,"id":20,"geometry":"POINT(-417361.261272 4933551.652462)","attributes":{"address":"Spain","placename":"Spain","title":"Destino"}},{"local_stop_id":19,"id":19,"geometry":"POINT(13465262.935892 2716627.939237)","attributes":{"address":"Taiwan","placename":"Taiwan","title":"Destino"}},{"local_stop_id":18,"id":18,"geometry":"POINT(915882.446336 5912448.054871)","attributes":{"address":"Switzerland","placename":"Switzerland","title":"Destino"}},{"local_stop_id":17,"id":17,"geometry":"POINT(497590.999399 6534001.856289)","attributes":{"address":"Belgium","placename":"Belgium","title":"Destino"}},{"local_stop_id":16,"id":16,"geometry":"POINT(-11416123.694313 2708933.292233)","attributes":{"address":"Mexico","placename":"Mexico","title":"Destino"}},{"local_stop_id":15,"id":15,"geometry":"POINT(5018189.359227 2739515.791932)","attributes":{"address":"Saudi Arabia","placename":"Saudi Arabia","title":"Destino"}},{"local_stop_id":14,"id":14,"geometry":"POINT(11557171.277761 150527.162641)","attributes":{"address":"Singapore","placename":"Singapore","title":"Destino"}},{"local_stop_id":13,"id":13,"geometry":"POINT(12702611.100717 2559188.1802)","attributes":{"address":"Hong Kong","placename":"Hong Kong","title":"Destino"}},{"local_stop_id":12,"id":12,"geometry":"POINT(-11838468.395229 7584411.732747)","attributes":{"address":"Canada","placename":"Canada","title":"Destino"}},{"local_stop_id":11,"id":11,"geometry":"POINT(-382490.764739 7435586.530983)","attributes":{"address":"UK","placename":"United Kingdom","title":"Destino"}},{"local_stop_id":10,"id":10,"geometry":"POINT(11724030.288901 8747149.04879)","attributes":{"address":"Russia","placename":"Russia","title":"Destino"}},{"local_stop_id":9,"id":9,"geometry":"POINT(1398994.342206 5141815.937641)","attributes":{"address":"Italy","placename":"Italy","title":"Destino"}},{"local_stop_id":8,"id":8,"geometry":"POINT(589021.036772 6824142.821624)","attributes":{"address":"Netherlands","placename":"The Netherlands","title":"Destino"}},{"local_stop_id":7,"id":7,"geometry":"POINT(14222948.697264 4287936.289399)","attributes":{"address":"South Korea","placename":"South Korea","title":"Destino"}},{"local_stop_id":6,"id":6,"geometry":"POINT(246433.411424 5816903.713427)","attributes":{"address":"France","placename":"France","title":"Destino"}},{"local_stop_id":5,"id":5,"geometry":"POINT(15390245.100361 4328841.562513)","attributes":{"address":"Japan","placename":"Japan","title":"Destino"}},{"local_stop_id":4,"id":4,"geometry":"POINT(1163458.552333 6650655.041174)","attributes":{"address":"Germany","placename":"Germany","title":"Destino"}},{"local_stop_id":3,"id":3,"geometry":"POINT(-10654710.288472 4451692.554811)","attributes":{"address":"U.S.","placename":"United States","title":"Destino"}},{"local_stop_id":2,"id":2,"geometry":"POINT(11598978.537043 4281602.659627)","attributes":{"address":"China","placename":"China","title":"Destino"}},{"local_stop_id":1,"id":1,"geometry":"POINT(-7078656.47219 -1838348.789522)","attributes":{"address":"Bolivia","placename":"Bolivia","title":"Origen"}}],"hops":[{"from_stop_id":1,"to_stop_id":2,"geometry":"MULTILINESTRING((-7078656.47219 -1838348.789522,11598978.537043 4281602.659627))","attributes":{}},{"from_stop_id":1,"to_stop_id":3,"geometry":"MULTILINESTRING((-7078656.47219 -1838348.789522,-10654710.288472 4451692.554811))","attributes":{}},{"from_stop_id":1,"to_stop_id":4,"geometry":"MULTILINESTRING((-7078656.47219 -1838348.789522,1163458.552333 6650655.041174))","attributes":{}},{"from_stop_id":1,"to_stop_id":5,"geometry":"MULTILINESTRING((-7078656.47219 -1838348.789522,15390245.100361 4328841.562513))","attributes":{}},{"from_stop_id":1,"to_stop_id":6,"geometry":"MULTILINESTRING((-7078656.47219 -1838348.789522,246433.411424 5816903.713427))","attributes":{}},{"from_stop_id":1,"to_stop_id":7,"geometry":"MULTILINESTRING((-7078656.47219 -1838348.789522,14222948.697264 4287936.289399))","attributes":{}},{"from_stop_id":1,"to_stop_id":8,"geometry":"MULTILINESTRING((-7078656.47219 -1838348.789522,589021.036772 6824142.821624))","attributes":{}},{"from_stop_id":1,"to_stop_id":9,"geometry":"MULTILINESTRING((-7078656.47219 -1838348.789522,1398994.342206 5141815.937641))","attributes":{}},{"from_stop_id":1,"to_stop_id":10,"geometry":"MULTILINESTRING((-7078656.47219 -1838348.789522,11724030.288901 8747149.04879))","attributes":{}},{"from_stop_id":1,"to_stop_id":11,"geometry":"MULTILINESTRING((-7078656.47219 -1838348.789522,-382490.764739 7435586.530983))","attributes":{}},{"from_stop_id":1,"to_stop_id":12,"geometry":"MULTILINESTRING((-7078656.47219 -1838348.789522,-11838468.395229 7584411.732747))","attributes":{}},{"from_stop_id":1,"to_stop_id":13,"geometry":"MULTILINESTRING((-7078656.47219 -1838348.789522,12702611.100717 2559188.1802))","attributes":{}},{"from_stop_id":1,"to_stop_id":14,"geometry":"MULTILINESTRING((-7078656.47219 -1838348.789522,11557171.277761 150527.162641))","attributes":{}},{"from_stop_id":1,"to_stop_id":15,"geometry":"MULTILINESTRING((-7078656.47219 -1838348.789522,5018189.359227 2739515.791932))","attributes":{}},{"from_stop_id":1,"to_stop_id":16,"geometry":"MULTILINESTRING((-7078656.47219 -1838348.789522,-11416123.694313 2708933.292233))","attributes":{}},{"from_stop_id":1,"to_stop_id":17,"geometry":"MULTILINESTRING((-7078656.47219 -1838348.789522,497590.999399 6534001.856289))","attributes":{}},{"from_stop_id":1,"to_stop_id":18,"geometry":"MULTILINESTRING((-7078656.47219 -1838348.789522,915882.446336 5912448.054871))","attributes":{}},{"from_stop_id":1,"to_stop_id":19,"geometry":"MULTILINESTRING((-7078656.47219 -1838348.789522,13465262.935892 2716627.939237))","attributes":{}},{"from_stop_id":1,"to_stop_id":20,"geometry":"MULTILINESTRING((-7078656.47219 -1838348.789522,-417361.261272 4933551.652462))","attributes":{}},{"from_stop_id":1,"to_stop_id":21,"geometry":"MULTILINESTRING((-7078656.47219 -1838348.789522,8790107.59317 2343495.165705))","attributes":{}},{"from_stop_id":1,"to_stop_id":22,"geometry":"MULTILINESTRING((-7078656.47219 -1838348.789522,14891780.020321 -2909486.054997))","attributes":{}},{"from_stop_id":1,"to_stop_id":23,"geometry":"MULTILINESTRING((-7078656.47219 -1838348.789522,-5780295.728898 -1601191.813438))","attributes":{}},{"from_stop_id":1,"to_stop_id":24,"geometry":"MULTILINESTRING((-7078656.47219 -1838348.789522,5994311.680089 2683384.657664))","attributes":{}},{"from_stop_id":1,"to_stop_id":25,"geometry":"MULTILINESTRING((-7078656.47219 -1838348.789522,11351890.344374 469131.367658))","attributes":{}},{"from_stop_id":1,"to_stop_id":26,"geometry":"MULTILINESTRING((-7078656.47219 -1838348.789522,11242438.238039 1789676.623494))","attributes":{}},{"from_stop_id":1,"to_stop_id":27,"geometry":"MULTILINESTRING((-7078656.47219 -1838348.789522,12681664.112134 -87864.470043))","attributes":{}},{"from_stop_id":1,"to_stop_id":28,"geometry":"MULTILINESTRING((-7078656.47219 -1838348.789522,2131226.790688 6785571.898792))","attributes":{}},{"from_stop_id":1,"to_stop_id":29,"geometry":"MULTILINESTRING((-7078656.47219 -1838348.789522,2075385.037924 8428326.96544))","attributes":{}},{"from_stop_id":1,"to_stop_id":30,"geometry":"MULTILINESTRING((-7078656.47219 -1838348.789522,1619706.606045 6026746.974644))","attributes":{}},{"from_stop_id":1,"to_stop_id":31,"geometry":"MULTILINESTRING((-7078656.47219 -1838348.789522,942758.756276 8505587.038689))","attributes":{}},{"from_stop_id":1,"to_stop_id":32,"geometry":"MULTILINESTRING((-7078656.47219 -1838348.789522,3923268.658903 4716479.684629))","attributes":{}},{"from_stop_id":1,"to_stop_id":33,"geometry":"MULTILINESTRING((-7078656.47219 -1838348.789522,1722442.250904 6414728.45895))","attributes":{}},{"from_stop_id":1,"to_stop_id":34,"geometry":"MULTILINESTRING((-7078656.47219 -1838348.789522,5976525.942406 3819612.201442))","attributes":{}},{"from_stop_id":1,"to_stop_id":35,"geometry":"MULTILINESTRING((-7078656.47219 -1838348.789522,-917705.636956 7059743.327002))","attributes":{}},{"from_stop_id":1,"to_stop_id":36,"geometry":"MULTILINESTRING((-7078656.47219 -1838348.789522,1057733.867827 7611135.068229))","attributes":{}},{"from_stop_id":1,"to_stop_id":37,"geometry":"MULTILINESTRING((-7078656.47219 -1838348.789522,5697763.903702 2919390.332888))","attributes":{}},{"from_stop_id":1,"to_stop_id":38,"geometry":"MULTILINESTRING((-7078656.47219 -1838348.789522,2553391.487988 -3575670.675527))","attributes":{}},{"from_stop_id":1,"to_stop_id":39,"geometry":"MULTILINESTRING((-7078656.47219 -1838348.789522,5285646.013085 3415373.48796))","attributes":{}},{"from_stop_id":1,"to_stop_id":40,"geometry":"MULTILINESTRING((-7078656.47219 -1838348.789522,965727.418131 1015263.983184))","attributes":{}},{"from_stop_id":1,"to_stop_id":41,"geometry":"MULTILINESTRING((-7078656.47219 -1838348.789522,2171097.870066 5968637.679129))","attributes":{}},{"from_stop_id":1,"to_stop_id":42,"geometry":"MULTILINESTRING((-7078656.47219 -1838348.789522,12053362.657202 1580908.758572))","attributes":{}},{"from_stop_id":1,"to_stop_id":43,"geometry":"MULTILINESTRING((-7078656.47219 -1838348.789522,-7412734.835662 716591.403237))","attributes":{}},{"from_stop_id":1,"to_stop_id":44,"geometry":"MULTILINESTRING((-7078656.47219 -1838348.789522,7449910.42489 6110111.702601))","attributes":{}},{"from_stop_id":1,"to_stop_id":45,"geometry":"MULTILINESTRING((-7078656.47219 -1838348.789522,2192885.320804 6218887.493883))","attributes":{}},{"from_stop_id":1,"to_stop_id":46,"geometry":"MULTILINESTRING((-7078656.47219 -1838348.789522,-7081775.533003 -4638374.275084))","attributes":{}},{"from_stop_id":1,"to_stop_id":47,"geometry":"MULTILINESTRING((-7078656.47219 -1838348.789522,4862356.432331 3924966.445386))","attributes":{}},{"from_stop_id":1,"to_stop_id":48,"geometry":"MULTILINESTRING((-7078656.47219 -1838348.789522,-7964126.878919 -4256013.675159))","attributes":{}},{"from_stop_id":1,"to_stop_id":49,"geometry":"MULTILINESTRING((-7078656.47219 -1838348.789522,2866271.058188 8841170.394214))","attributes":{}},{"from_stop_id":1,"to_stop_id":50,"geometry":"MULTILINESTRING((-7078656.47219 -1838348.789522,184748.721227 3253246.71111))","attributes":{}},{"from_stop_id":1,"to_stop_id":51,"geometry":"MULTILINESTRING((-7078656.47219 -1838348.789522,3469336.495877 6170212.711441))","attributes":{}},{"from_stop_id":1,"to_stop_id":52,"geometry":"MULTILINESTRING((-7078656.47219 -1838348.789522,1989711.999337 -1255100.642297))","attributes":{}},{"from_stop_id":1,"to_stop_id":53,"geometry":"MULTILINESTRING((-7078656.47219 -1838348.789522,3879663.701165 3638731.187583))","attributes":{}},{"from_stop_id":1,"to_stop_id":54,"geometry":"MULTILINESTRING((-7078656.47219 -1838348.789522,2779287.009958 5771245.404432))","attributes":{}},{"from_stop_id":1,"to_stop_id":55,"geometry":"MULTILINESTRING((-7078656.47219 -1838348.789522,-7412781.478528 2063412.921355))","attributes":{}},{"from_stop_id":1,"to_stop_id":56,"geometry":"MULTILINESTRING((-7078656.47219 -1838348.789522,-8270741.276858 509367.281339))","attributes":{}},{"from_stop_id":1,"to_stop_id":57,"geometry":"MULTILINESTRING((-7078656.47219 -1838348.789522,-915542.031333 4779112.741647))","attributes":{}},{"from_stop_id":1,"to_stop_id":58,"geometry":"MULTILINESTRING((-7078656.47219 -1838348.789522,13555821.564291 1445993.997497))","attributes":{}},{"from_stop_id":1,"to_stop_id":59,"geometry":"MULTILINESTRING((-7078656.47219 -1838348.789522,-8350648.52242 -1027437.355768))","attributes":{}},{"from_stop_id":1,"to_stop_id":60,"geometry":"MULTILINESTRING((-7078656.47219 -1838348.789522,6225348.270102 2453104.641232))","attributes":{}},{"from_stop_id":1,"to_stop_id":61,"geometry":"MULTILINESTRING((-7078656.47219 -1838348.789522,3111757.029426 7115387.658402))","attributes":{}},{"from_stop_id":1,"to_stop_id":62,"geometry":"MULTILINESTRING((-7078656.47219 -1838348.789522,19468217.238607 -4997684.890551))","attributes":{}},{"from_stop_id":1,"to_stop_id":63,"geometry":"MULTILINESTRING((-7078656.47219 -1838348.789522,5296239.287149 4886759.751808))","attributes":{}},{"from_stop_id":1,"to_stop_id":64,"geometry":"MULTILINESTRING((-7078656.47219 -1838348.789522,1669287.305369 5804618.909739))","attributes":{}},{"from_stop_id":1,"to_stop_id":65,"geometry":"MULTILINESTRING((-7078656.47219 -1838348.789522,2658451.372494 7394820.260241))","attributes":{}},{"from_stop_id":1,"to_stop_id":66,"geometry":"MULTILINESTRING((-7078656.47219 -1838348.789522,2429471.298754 4732306.812978))","attributes":{}},{"from_stop_id":1,"to_stop_id":67,"geometry":"MULTILINESTRING((-7078656.47219 -1838348.789522,2837069.618044 5271553.447419))","attributes":{}},{"from_stop_id":1,"to_stop_id":68,"geometry":"MULTILINESTRING((-7078656.47219 -1838348.789522,3428918.392521 3101070.050794))","attributes":{}},{"from_stop_id":1,"to_stop_id":69,"geometry":"MULTILINESTRING((-7078656.47219 -1838348.789522,7719463.00212 3551885.664913))","attributes":{}},{"from_stop_id":1,"to_stop_id":70,"geometry":"MULTILINESTRING((-7078656.47219 -1838348.789522,10058420.756868 2715069.967281))","attributes":{}},{"from_stop_id":1,"to_stop_id":71,"geometry":"MULTILINESTRING((-7078656.47219 -1838348.789522,-8703336.944404 -203887.308284))","attributes":{}},{"from_stop_id":1,"to_stop_id":72,"geometry":"MULTILINESTRING((-7078656.47219 -1838348.789522,-789546.84679 3735999.22766))","attributes":{}},{"from_stop_id":1,"to_stop_id":73,"geometry":"MULTILINESTRING((-7078656.47219 -1838348.789522,5628057.419679 3007344.372065))","attributes":{}},{"from_stop_id":1,"to_stop_id":74,"geometry":"MULTILINESTRING((-7078656.47219 -1838348.789522,682342.058335 6414345.6274))","attributes":{}},{"from_stop_id":1,"to_stop_id":75,"geometry":"MULTILINESTRING((-7078656.47219 -1838348.789522,1061709.532121 4013627.830394))","attributes":{}},{"from_stop_id":1,"to_stop_id":76,"geometry":"MULTILINESTRING((-7078656.47219 -1838348.789522,-8992625.242838 953980.901355))","attributes":{}},{"from_stop_id":1,"to_stop_id":77,"geometry":"MULTILINESTRING((-7078656.47219 -1838348.789522,2784501.994143 8093419.123256))","attributes":{}},{"from_stop_id":1,"to_stop_id":78,"geometry":"MULTILINESTRING((-7078656.47219 -1838348.789522,1917849.034138 3040644.059011))","attributes":{}},{"from_stop_id":1,"to_stop_id":79,"geometry":"MULTILINESTRING((-7078656.47219 -1838348.789522,1143016.842919 183791.756876))","attributes":{}},{"from_stop_id":1,"to_stop_id":80,"geometry":"MULTILINESTRING((-7078656.47219 -1838348.789522,6629774.540503 4717335.006851))","attributes":{}},{"from_stop_id":1,"to_stop_id":81,"geometry":"MULTILINESTRING((-7078656.47219 -1838348.789522,-6815257.85905 1197174.420926))","attributes":{}},{"from_stop_id":1,"to_stop_id":82,"geometry":"MULTILINESTRING((-7078656.47219 -1838348.789522,-113901.435063 887453.057712))","attributes":{}},{"from_stop_id":1,"to_stop_id":83,"geometry":"MULTILINESTRING((-7078656.47219 -1838348.789522,7189598.47859 5068181.963819))","attributes":{}},{"from_stop_id":1,"to_stop_id":84,"geometry":"MULTILINESTRING((-7078656.47219 -1838348.789522,1761926.94033 -25383.248614))","attributes":{}},{"from_stop_id":1,"to_stop_id":85,"geometry":"MULTILINESTRING((-7078656.47219 -1838348.789522,1692056.260058 5637278.201891))","attributes":{}},{"from_stop_id":1,"to_stop_id":86,"geometry":"MULTILINESTRING((-7078656.47219 -1838348.789522,2738814.471371 7735556.799888))","attributes":{}},{"from_stop_id":1,"to_stop_id":87,"geometry":"MULTILINESTRING((-7078656.47219 -1838348.789522,2338361.527555 5467999.202178))","attributes":{}},{"from_stop_id":1,"to_stop_id":88,"geometry":"MULTILINESTRING((-7078656.47219 -1838348.789522,-617498.12099 841780.906412))","attributes":{}},{"from_stop_id":1,"to_stop_id":89,"geometry":"MULTILINESTRING((-7078656.47219 -1838348.789522,2422163.396822 -449917.840172))","attributes":{}},{"from_stop_id":1,"to_stop_id":90,"geometry":"MULTILINESTRING((-7078656.47219 -1838348.789522,1292357.394473 -89469.184236))","attributes":{}},{"from_stop_id":1,"to_stop_id":91,"geometry":"MULTILINESTRING((-7078656.47219 -1838348.789522,12771425.692979 505392.766624))","attributes":{}},{"from_stop_id":1,"to_stop_id":92,"geometry":"MULTILINESTRING((-7078656.47219 -1838348.789522,-10044442.145771 1779661.011764))","attributes":{}},{"from_stop_id":1,"to_stop_id":93,"geometry":"MULTILINESTRING((-7078656.47219 -1838348.789522,-9323388.957151 1090519.231591))","attributes":{}},{"from_stop_id":1,"to_stop_id":94,"geometry":"MULTILINESTRING((-7078656.47219 -1838348.789522,-6505937.618248 -2685620.33203))","attributes":{}},{"from_stop_id":1,"to_stop_id":95,"geometry":"MULTILINESTRING((-7078656.47219 -1838348.789522,8991475.312498 879195.517639))","attributes":{}},{"from_stop_id":1,"to_stop_id":96,"geometry":"MULTILINESTRING((-7078656.47219 -1838348.789522,-6207824.355862 -3832130.824994))","attributes":{}},{"from_stop_id":1,"to_stop_id":97,"geometry":"MULTILINESTRING((-7078656.47219 -1838348.789522,3100173.457173 -1475033.831658))","attributes":{}},{"from_stop_id":1,"to_stop_id":98,"geometry":"MULTILINESTRING((-7078656.47219 -1838348.789522,3363811.852496 1444062.609719))","attributes":{}},{"from_stop_id":1,"to_stop_id":99,"geometry":"MULTILINESTRING((-7078656.47219 -1838348.789522,-7810470.582026 2123842.626161))","attributes":{}},{"from_stop_id":1,"to_stop_id":100,"geometry":"MULTILINESTRING((-7078656.47219 -1838348.789522,-7078656.47219 -1838348.789522))","attributes":{}},{"from_stop_id":1,"to_stop_id":101,"geometry":"MULTILINESTRING((-7078656.47219 -1838348.789522,10681797.882806 2501198.83421))","attributes":{}},{"from_stop_id":1,"to_stop_id":102,"geometry":"MULTILINESTRING((-7078656.47219 -1838348.789522,4341105.588359 4137016.351319))","attributes":{}},{"from_stop_id":1,"to_stop_id":103,"geometry":"MULTILINESTRING((-7078656.47219 -1838348.789522,4034041.793636 3578991.172208))","attributes":{}},{"from_stop_id":1,"to_stop_id":104,"geometry":"MULTILINESTRING((-7078656.47219 -1838348.789522,5400819.607289 1752983.407652))","attributes":{}},{"from_stop_id":1,"to_stop_id":105,"geometry":"MULTILINESTRING((-7078656.47219 -1838348.789522,-9600404.949642 1712260.140507))","attributes":{}},{"from_stop_id":1,"to_stop_id":106,"geometry":"MULTILINESTRING((-7078656.47219 -1838348.789522,16025058.522866 -704409.432655))","attributes":{}},{"from_stop_id":1,"to_stop_id":107,"geometry":"MULTILINESTRING((-7078656.47219 -1838348.789522,-8658559.903747 2454202.390949))","attributes":{}},{"from_stop_id":1,"to_stop_id":108,"geometry":"MULTILINESTRING((-7078656.47219 -1838348.789522,2747906.71342 -2551008.420793))","attributes":{}},{"from_stop_id":1,"to_stop_id":109,"geometry":"MULTILINESTRING((-7078656.47219 -1838348.789522,1968025.738016 5452434.561675))","attributes":{}},{"from_stop_id":1,"to_stop_id":110,"geometry":"MULTILINESTRING((-7078656.47219 -1838348.789522,4219698.102672 -2622.575957))","attributes":{}},{"from_stop_id":1,"to_stop_id":111,"geometry":"MULTILINESTRING((-7078656.47219 -1838348.789522,1375321.361932 822665.286731))","attributes":{}},{"from_stop_id":1,"to_stop_id":112,"geometry":"MULTILINESTRING((-7078656.47219 -1838348.789522,3992171.304883 4009311.247656))","attributes":{}},{"from_stop_id":1,"to_stop_id":113,"geometry":"MULTILINESTRING((-7078656.47219 -1838348.789522,3883805.899417 -710461.619568))","attributes":{}},{"from_stop_id":1,"to_stop_id":114,"geometry":"MULTILINESTRING((-7078656.47219 -1838348.789522,11687540.539055 1410155.012282))","attributes":{}},{"from_stop_id":1,"to_stop_id":115,"geometry":"MULTILINESTRING((-7078656.47219 -1838348.789522,-9895916.452889 1550614.448509))","attributes":{}},{"from_stop_id":1,"to_stop_id":116,"geometry":"MULTILINESTRING((-7078656.47219 -1838348.789522,-2117389.666663 9598645.705352))","attributes":{}},{"from_stop_id":1,"to_stop_id":117,"geometry":"MULTILINESTRING((-7078656.47219 -1838348.789522,1600263.989061 4292024.32283))","attributes":{}},{"from_stop_id":1,"to_stop_id":118,"geometry":"MULTILINESTRING((-7078656.47219 -1838348.789522,11560156.866504 5919658.729761))","attributes":{}},{"from_stop_id":1,"to_stop_id":119,"geometry":"MULTILINESTRING((-7078656.47219 -1838348.789522,2058343.025759 -2626896.715328))","attributes":{}},{"from_stop_id":1,"to_stop_id":120,"geometry":"MULTILINESTRING((-7078656.47219 -1838348.789522,2420672.94016 5102533.956456))","attributes":{}},{"from_stop_id":1,"to_stop_id":121,"geometry":"MULTILINESTRING((-7078656.47219 -1838348.789522,2085259.744674 1741597.357213))","attributes":{}},{"from_stop_id":1,"to_stop_id":122,"geometry":"MULTILINESTRING((-7078656.47219 -1838348.789522,-9485225.344186 1444360.519557))","attributes":{}},{"from_stop_id":1,"to_stop_id":123,"geometry":"MULTILINESTRING((-7078656.47219 -1838348.789522,3245503.835391 -2156753.573765))","attributes":{}},{"from_stop_id":1,"to_stop_id":124,"geometry":"MULTILINESTRING((-7078656.47219 -1838348.789522,-1217928.181053 2392819.411011))","attributes":{}},{"from_stop_id":1,"to_stop_id":125,"geometry":"MULTILINESTRING((-7078656.47219 -1838348.789522,1063699.2567 5969211.714568))","attributes":{}},{"from_stop_id":1,"to_stop_id":126,"geometry":"MULTILINESTRING((-7078656.47219 -1838348.789522,4507289.780746 1022366.88618))","attributes":{}},{"from_stop_id":1,"to_stop_id":127,"geometry":"MULTILINESTRING((-7078656.47219 -1838348.789522,3955132.749948 -2115616.180098))","attributes":{}},{"from_stop_id":1,"to_stop_id":128,"geometry":"MULTILINESTRING((-7078656.47219 -1838348.789522,6406676.254697 -2314350.159717))","attributes":{}},{"from_stop_id":1,"to_stop_id":129,"geometry":"MULTILINESTRING((-7078656.47219 -1838348.789522,7537437.489596 4020628.914252))","attributes":{}},{"from_stop_id":1,"to_stop_id":130,"geometry":"MULTILINESTRING((-7078656.47219 -1838348.789522,3594536.970575 152893.371044))","attributes":{}},{"from_stop_id":1,"to_stop_id":131,"geometry":"MULTILINESTRING((-7078656.47219 -1838348.789522,14194358.623763 4915452.248367))","attributes":{}},{"from_stop_id":1,"to_stop_id":132,"geometry":"MULTILINESTRING((-7078656.47219 -1838348.789522,1386793.392056 5456526.589077))","attributes":{}},{"from_stop_id":1,"to_stop_id":133,"geometry":"MULTILINESTRING((-7078656.47219 -1838348.789522,-1608829.5786 1631344.630706))","attributes":{}},{"from_stop_id":1,"to_stop_id":134,"geometry":"MULTILINESTRING((-7078656.47219 -1838348.789522,3158121.152064 6009523.467887))","attributes":{}},{"from_stop_id":1,"to_stop_id":135,"geometry":"MULTILINESTRING((-7078656.47219 -1838348.789522,8322923.95796 5042534.567123))","attributes":{}},{"from_stop_id":1,"to_stop_id":136,"geometry":"MULTILINESTRING((-7078656.47219 -1838348.789522,-444851.164245 1987359.399603))","attributes":{}},{"from_stop_id":1,"to_stop_id":137,"geometry":"MULTILINESTRING((-7078656.47219 -1838348.789522,-9229178.715495 3783994.218369))","attributes":{}},{"from_stop_id":1,"to_stop_id":138,"geometry":"MULTILINESTRING((-7078656.47219 -1838348.789522,-173835.737586 1372844.313774))","attributes":{}},{"from_stop_id":1,"to_stop_id":139,"geometry":"MULTILINESTRING((-7078656.47219 -1838348.789522,11409746.423324 2256011.885919))","attributes":{}},{"from_stop_id":1,"to_stop_id":140,"geometry":"MULTILINESTRING((-7078656.47219 -1838348.789522,3502764.180489 -3063940.42616))","attributes":{}},{"from_stop_id":1,"to_stop_id":141,"geometry":"MULTILINESTRING((-7078656.47219 -1838348.789522,2245128.33707 5034984.473549))","attributes":{}},{"from_stop_id":1,"to_stop_id":142,"geometry":"MULTILINESTRING((-7078656.47219 -1838348.789522,257797.461642 1040714.83444))","attributes":{}},{"from_stop_id":1,"to_stop_id":143,"geometry":"MULTILINESTRING((-7078656.47219 -1838348.789522,-1079425.583803 1112739.818908))","attributes":{}},{"from_stop_id":1,"to_stop_id":144,"geometry":"MULTILINESTRING((-7078656.47219 -1838348.789522,-8604719.230149 2050378.802628))","attributes":{}},{"from_stop_id":1,"to_stop_id":145,"geometry":"MULTILINESTRING((-7078656.47219 -1838348.789522,-6236984.273836 436635.68837))","attributes":{}},{"from_stop_id":1,"to_stop_id":146,"geometry":"MULTILINESTRING((-7078656.47219 -1838348.789522,5217445.125175 -2127516.82188))","attributes":{}},{"from_stop_id":1,"to_stop_id":147,"geometry":"MULTILINESTRING((-7078656.47219 -1838348.789522,5013628.265731 4875988.644415))","attributes":{}},{"from_stop_id":1,"to_stop_id":148,"geometry":"MULTILINESTRING((-7078656.47219 -1838348.789522,7934418.378494 4701785.38843))","attributes":{}},{"from_stop_id":1,"to_stop_id":149,"geometry":"MULTILINESTRING((-7078656.47219 -1838348.789522,-6560077.629956 541709.129825))","attributes":{}},{"from_stop_id":1,"to_stop_id":150,"geometry":"MULTILINESTRING((-7078656.47219 -1838348.789522,899646.943881 1991691.558385))","attributes":{}},{"from_stop_id":1,"to_stop_id":151,"geometry":"MULTILINESTRING((-7078656.47219 -1838348.789522,12639646.125056 2535403.729069))","attributes":{}},{"from_stop_id":1,"to_stop_id":152,"geometry":"MULTILINESTRING((-7078656.47219 -1838348.789522,3142950.865817 -3453515.305463))","attributes":{}},{"from_stop_id":1,"to_stop_id":153,"geometry":"MULTILINESTRING((-7078656.47219 -1838348.789522,18436516.101619 -2380471.632631))","attributes":{}},{"from_stop_id":1,"to_stop_id":154,"geometry":"MULTILINESTRING((-7078656.47219 -1838348.789522,3818428.296433 -1488801.355152))","attributes":{}},{"from_stop_id":1,"to_stop_id":155,"geometry":"MULTILINESTRING((-7078656.47219 -1838348.789522,91814.312255 963163.074994))","attributes":{}},{"from_stop_id":1,"to_stop_id":156,"geometry":"MULTILINESTRING((-7078656.47219 -1838348.789522,19822108.690328 -2004026.222226))","attributes":{}},{"from_stop_id":1,"to_stop_id":157,"geometry":"MULTILINESTRING((-7078656.47219 -1838348.789522,9364641.734049 3298848.05185))","attributes":{}},{"from_stop_id":1,"to_stop_id":158,"geometry":"MULTILINESTRING((-7078656.47219 -1838348.789522,-8046753.325682 2151543.94475))","attributes":{}},{"from_stop_id":1,"to_stop_id":159,"geometry":"MULTILINESTRING((-7078656.47219 -1838348.789522,826504.450192 5425050.538922))","attributes":{}},{"from_stop_id":1,"to_stop_id":160,"geometry":"MULTILINESTRING((-7078656.47219 -1838348.789522,-8615714.478894 2879955.737669))","attributes":{}},{"from_stop_id":1,"to_stop_id":161,"geometry":"MULTILINESTRING((-7078656.47219 -1838348.789522,2156747.22923 5267734.268962))","attributes":{}},{"from_stop_id":1,"to_stop_id":162,"geometry":"MULTILINESTRING((-7078656.47219 -1838348.789522,-9851513.334401 1942939.083677))","attributes":{}},{"from_stop_id":1,"to_stop_id":163,"geometry":"MULTILINESTRING((-7078656.47219 -1838348.789522,10067022.413922 3187857.67285))","attributes":{}},{"from_stop_id":1,"to_stop_id":164,"geometry":"MULTILINESTRING((-7078656.47219 -1838348.789522,5142917.727965 574309.098919))","attributes":{}},{"from_stop_id":1,"to_stop_id":165,"geometry":"MULTILINESTRING((-7078656.47219 -1838348.789522,6177338.622752 -521507.915974))","attributes":{}},{"from_stop_id":1,"to_stop_id":166,"geometry":"MULTILINESTRING((-7078656.47219 -1838348.789522,-1311331.245081 945266.170437))","attributes":{}},{"from_stop_id":1,"to_stop_id":167,"geometry":"MULTILINESTRING((-7078656.47219 -1838348.789522,-6628318.481563 1481892.105744))","attributes":{}},{"from_stop_id":1,"to_stop_id":168,"geometry":"MULTILINESTRING((-7078656.47219 -1838348.789522,-1049687.027116 717073.663481))","attributes":{}},{"from_stop_id":1,"to_stop_id":169,"geometry":"MULTILINESTRING((-7078656.47219 -1838348.789522,4428549.163448 1709882.213088))","attributes":{}},{"from_stop_id":1,"to_stop_id":170,"geometry":"MULTILINESTRING((-7078656.47219 -1838348.789522,-4742689.315562 11648433.889385))","attributes":{}},{"from_stop_id":1,"to_stop_id":171,"geometry":"MULTILINESTRING((-7078656.47219 -1838348.789522,3325546.000175 -216032.053352))","attributes":{}},{"from_stop_id":1,"to_stop_id":172,"geometry":"MULTILINESTRING((-7078656.47219 -1838348.789522,-1689875.845192 1323381.864678))","attributes":{}},{"from_stop_id":1,"to_stop_id":173,"geometry":"MULTILINESTRING((-7078656.47219 -1838348.789522,17828505.963469 -1078863.738207))","attributes":{}},{"from_stop_id":1,"to_stop_id":174,"geometry":"MULTILINESTRING((-7078656.47219 -1838348.789522,-6788139.317898 1563829.337287))","attributes":{}},{"from_stop_id":1,"to_stop_id":175,"geometry":"MULTILINESTRING((-7078656.47219 -1838348.789522,-2627705.674978 1703232.952894))","attributes":{}},{"from_stop_id":1,"to_stop_id":176,"geometry":"MULTILINESTRING((-7078656.47219 -1838348.789522,2330968.243574 737584.011323))","attributes":{}},{"from_stop_id":1,"to_stop_id":177,"geometry":"MULTILINESTRING((-7078656.47219 -1838348.789522,-6626138.289336 -6763368.892542))","attributes":{}},{"from_stop_id":1,"to_stop_id":178,"geometry":"MULTILINESTRING((-7078656.47219 -1838348.789522,-1704316.877454 1510410.542924))","attributes":{}},{"from_stop_id":1,"to_stop_id":179,"geometry":"MULTILINESTRING((-7078656.47219 -1838348.789522,3330555.154622 -375703.95736))","attributes":{}},{"from_stop_id":1,"to_stop_id":180,"geometry":"MULTILINESTRING((-7078656.47219 -1838348.789522,4741127.725745 1325814.408765))","attributes":{}},{"from_stop_id":1,"to_stop_id":181,"geometry":"MULTILINESTRING((-7078656.47219 -1838348.789522,-6812335.499777 1488695.624015))","attributes":{}},{"from_stop_id":1,"to_stop_id":182,"geometry":"MULTILINESTRING((-7078656.47219 -1838348.789522,169406.112409 5237122.786598))","attributes":{}},{"from_stop_id":1,"to_stop_id":183,"geometry":"MULTILINESTRING((-7078656.47219 -1838348.789522,-6988971.367835 1962517.709555))","attributes":{}},{"from_stop_id":1,"to_stop_id":184,"geometry":"MULTILINESTRING((-7078656.47219 -1838348.789522,-9045220.696611 2191856.866086))","attributes":{}},{"from_stop_id":1,"to_stop_id":185,"geometry":"MULTILINESTRING((-7078656.47219 -1838348.789522,-6831785.797806 1737074.177907))","attributes":{}},{"from_stop_id":1,"to_stop_id":186,"geometry":"MULTILINESTRING((-7078656.47219 -1838348.789522,-6879146.897803 1927905.530255))","attributes":{}},{"from_stop_id":1,"to_stop_id":187,"geometry":"MULTILINESTRING((-7078656.47219 -1838348.789522,18585808.451834 -1732652.756176))","attributes":{}},{"from_stop_id":1,"to_stop_id":188,"geometry":"MULTILINESTRING((-7078656.47219 -1838348.789522,-400589.543963 4463854.090685))","attributes":{}},{"from_stop_id":1,"to_stop_id":189,"geometry":"MULTILINESTRING((-7078656.47219 -1838348.789522,-19158599.663445 -1546584.978985))","attributes":{}},{"from_stop_id":1,"to_stop_id":190,"geometry":"MULTILINESTRING((-7078656.47219 -1838348.789522,4823840.890392 -1305390.276197))","attributes":{}},{"from_stop_id":1,"to_stop_id":191,"geometry":"MULTILINESTRING((-7078656.47219 -1838348.789522,13995925.620171 -991846.878008))","attributes":{}},{"from_stop_id":1,"to_stop_id":192,"geometry":"MULTILINESTRING((-7078656.47219 -1838348.789522,-17517226.187934 207854.429556))","attributes":{}},{"from_stop_id":1,"to_stop_id":193,"geometry":"MULTILINESTRING((-7078656.47219 -1838348.789522,736164.809495 20745.536883))","attributes":{}},{"from_stop_id":1,"to_stop_id":194,"geometry":"MULTILINESTRING((-7078656.47219 -1838348.789522,-19502979.087317 -2413233.597269))","attributes":{}},{"from_stop_id":1,"to_stop_id":195,"geometry":"MULTILINESTRING((-7078656.47219 -1838348.789522,14981657.596076 838972.716642))","attributes":{}},{"from_stop_id":1,"to_stop_id":196,"geometry":"MULTILINESTRING((-7078656.47219 -1838348.789522,19978804.6995 -1201283.410428))","attributes":{}},{"from_stop_id":1,"to_stop_id":197,"geometry":"MULTILINESTRING((-7078656.47219 -1838348.789522,18582729.911316 -58196.188245))","attributes":{}}]},"editable":false}