{"supplychain":{"category":19,"created":1371224650,"enable_comments":true,"flags":0,"id":6188,"modified":1371228654,"other_perms":1,"passcode":null,"user_featured":false,"usergroup_id":null,"usergroup_perms":0,"user_id":5696,"owner":{"id":5696,"name":"Juseline","avatar":"http:\/\/free.sourcemap.com\/assets\/images\/default-user.png","banner_url":null,"display_name":null},"taxonomy":[{"description":"Test Maps","id":19,"left":35,"name":"test-maps","right":36,"title":"Test Maps "}],"attributes":{"sm:ui:tileset":"terrain","tags":"","description":"Exportaciones de Bolivia hacia los distintos pa\u00edses de destino en el mundo.","title":"Exportaciones pa\u00edses de destino"},"stops":[{"local_stop_id":147,"id":147,"geometry":"POINT(-9851513.334401 1942939.083677)","attributes":{"address":"Belize","placename":"Belize","title":"1","description":""}},{"local_stop_id":146,"id":146,"geometry":"POINT(-8615714.478894 2879955.737669)","attributes":{"address":"Bahamas","placename":"Commonwealth of The Bahamas","title":"1","description":""}},{"local_stop_id":145,"id":145,"geometry":"POINT(9364641.734049 3298848.05185)","attributes":{"address":"Nepal","placename":"Nepal","title":"1","description":""}},{"local_stop_id":144,"id":144,"geometry":"POINT(19822108.690328 -2004026.222226)","attributes":{"address":"Fiji","placename":"Fiji","title":"1","description":""}},{"local_stop_id":143,"id":143,"geometry":"POINT(91814.312255 963163.074994)","attributes":{"address":"Togo","placename":"Togo","title":"1","description":""}},{"local_stop_id":142,"id":142,"geometry":"POINT(3818428.296433 -1488801.355152)","attributes":{"address":"Malawi","placename":"Malawi","title":"1","description":""}},{"local_stop_id":141,"id":141,"geometry":"POINT(3142950.865817 -3453515.305463)","attributes":{"address":"Lesotho","placename":"Lesotho","title":"1","description":""}},{"local_stop_id":140,"id":140,"geometry":"POINT(899646.943881 1991691.558385)","attributes":{"address":"Niger","placename":"Niger","title":"1","description":""}},{"local_stop_id":139,"id":139,"geometry":"POINT(-6560077.629956 541709.129825)","attributes":{"address":"Guyana","placename":"Guyana","title":"1","description":""}},{"local_stop_id":138,"id":138,"geometry":"POINT(7934418.378494 4701785.38843)","attributes":{"address":"Tajikistan","placename":"Tajikistan","title":"1","description":""}},{"local_stop_id":137,"id":137,"geometry":"POINT(5013628.265731 4875988.644415)","attributes":{"address":"Armenia","placename":"Armenia","title":"1","description":""}},{"local_stop_id":136,"id":136,"geometry":"POINT(5217445.125175 -2127516.82188)","attributes":{"address":"Madagascar","placename":"Madagascar","title":"1","description":""}},{"local_stop_id":135,"id":135,"geometry":"POINT(-6236984.273836 436635.68837)","attributes":{"address":"Surinam","placename":"Suriname","title":"2","description":""}},{"local_stop_id":134,"id":134,"geometry":"POINT(-8604719.230149 2050378.802628)","attributes":{"address":"Jamaica","placename":"Jamaica","title":"2","description":""}},{"local_stop_id":133,"id":133,"geometry":"POINT(-1079425.583803 1112739.818908)","attributes":{"address":"Guinea","placename":"Guinea","title":"2","description":""}},{"local_stop_id":132,"id":132,"geometry":"POINT(257797.461642 1040714.83444)","attributes":{"address":"Benin","placename":"Benin","title":"2","description":""}},{"local_stop_id":131,"id":131,"geometry":"POINT(2245128.33707 5034984.473549)","attributes":{"address":"Albania","placename":"Albania","title":"2","description":""}},{"local_stop_id":130,"id":130,"geometry":"POINT(3502764.180489 -3063940.42616)","attributes":{"address":"Swaziland","placename":"Swaziland","title":"2","description":""}},{"local_stop_id":129,"id":129,"geometry":"POINT(11409746.423324 2256011.885919)","attributes":{"address":"Laos","placename":"Laos","title":"2","description":""}},{"local_stop_id":128,"id":128,"geometry":"POINT(-173835.737586 1372844.313774)","attributes":{"address":"Burkina Faso","placename":"Burkina Faso","title":"2","description":""}},{"local_stop_id":127,"id":127,"geometry":"POINT(8322923.95796 5042534.567123)","attributes":{"address":"Kyrgyzstan","placename":"Kyrgyzstan","title":"2","description":""}},{"local_stop_id":126,"id":126,"geometry":"POINT(-1608829.5786 1631344.630706)","attributes":{"address":"Senegal","placename":"Senegal","title":"2","description":""}},{"local_stop_id":125,"id":125,"geometry":"POINT(3594536.970575 152893.371044)","attributes":{"address":"Uganda","placename":"Uganda","title":"3","description":""}},{"local_stop_id":124,"id":124,"geometry":"POINT(6406676.254697 -2314350.159717)","attributes":{"address":"Mauricio","placename":"Mauritius","title":"3","description":""}},{"local_stop_id":123,"id":123,"geometry":"POINT(4507289.780746 1022366.88618)","attributes":{"address":"Ethiopia","placename":"Ethiopia","title":"3","description":""}},{"local_stop_id":122,"id":122,"geometry":"POINT(-1217928.181053 2392819.411011)","attributes":{"address":"Mauritania","placename":"Mauritania","title":"3","description":""}},{"local_stop_id":121,"id":121,"geometry":"POINT(3245503.835391 -2156753.573765)","attributes":{"address":"Zimbabwe","placename":"Zimbabwe","title":"3","description":""}},{"local_stop_id":120,"id":120,"geometry":"POINT(-9485225.344186 1444360.519557)","attributes":{"address":"Nicaragua","placename":"Nicaragua","title":"4","description":""}},{"local_stop_id":119,"id":119,"geometry":"POINT(2085259.744674 1741597.357213)","attributes":{"address":"Chad","placename":"Chad","title":"4","description":""}},{"local_stop_id":118,"id":118,"geometry":"POINT(2420672.94016 5102533.956456)","attributes":{"address":"Macedonia","placename":"Macedonia (FYROM)","title":"4","description":""}},{"local_stop_id":117,"id":117,"geometry":"POINT(2058343.025759 -2626896.715328)","attributes":{"address":"Namibia","placename":"Namibia","title":"4","description":""}},{"local_stop_id":116,"id":116,"geometry":"POINT(11560156.866504 5919658.729761)","attributes":{"address":"Mongolia","placename":"Mongolia","title":"5","description":""}},{"local_stop_id":115,"id":115,"geometry":"POINT(1600263.989061 4292024.32283)","attributes":{"address":"Malta","placename":"Malta","title":"5","description":""}},{"local_stop_id":114,"id":114,"geometry":"POINT(-2117389.666663 9598645.705352)","attributes":{"address":"Iceland","placename":"Iceland","title":"5","description":""}},{"local_stop_id":113,"id":113,"geometry":"POINT(-9895916.452889 1550614.448509)","attributes":{"address":"El Salvador","placename":"El Salvador","title":"5","description":""}},{"local_stop_id":112,"id":112,"geometry":"POINT(11687540.539055 1410155.012282)","attributes":{"address":"Cambodia","placename":"Cambodia","title":"5","description":""}},{"local_stop_id":111,"id":111,"geometry":"POINT(3883805.899417 -710461.619568)","attributes":{"address":"Tanzania","placename":"Tanzania","title":"5","description":""}},{"local_stop_id":110,"id":110,"geometry":"POINT(3992171.304883 4009311.247656)","attributes":{"address":"Lebanon","placename":"Lebanon","title":"5","description":""}},{"local_stop_id":109,"id":109,"geometry":"POINT(1375321.361932 822665.286731)","attributes":{"address":"Cameroon","placename":"Cameroon","title":"6","description":""}},{"local_stop_id":108,"id":108,"geometry":"POINT(4219698.102672 -2622.575957)","attributes":{"address":"Kenya","placename":"Kenya","title":"6","description":""}},{"local_stop_id":107,"id":107,"geometry":"POINT(1968025.738016 5452434.561675)","attributes":{"address":"Bosnia and Herzegovina","placename":"Bosnia and Herzegovina","title":"6","description":""}},{"local_stop_id":106,"id":106,"geometry":"POINT(2747906.71342 -2551008.420793)","attributes":{"address":"Botswana","placename":"Botswana","title":"6","description":""}},{"local_stop_id":105,"id":105,"geometry":"POINT(-8658559.903747 2454202.390949)","attributes":{"address":"Cuba","placename":"Cuba","title":"6","description":""}},{"local_stop_id":104,"id":104,"geometry":"POINT(16025058.522866 -704409.432655)","attributes":{"address":"Papua New Guinea","placename":"Papua New Guinea","title":"7","description":""}},{"local_stop_id":103,"id":103,"geometry":"POINT(-9600404.949642 1712260.140507)","attributes":{"address":"Honduras","placename":"Honduras","title":"7","description":""}},{"local_stop_id":102,"id":102,"geometry":"POINT(5400819.607289 1752983.407652)","attributes":{"address":"Yemen","placename":"Yemen","title":"8","description":""}},{"local_stop_id":101,"id":101,"geometry":"POINT(4034041.793636 3578991.172208)","attributes":{"address":"Jordan","placename":"Jordan","title":"8","description":""}},{"local_stop_id":100,"id":100,"geometry":"POINT(4341105.588359 4137016.351319)","attributes":{"address":"Syria","placename":"Syria","title":"8","description":""}},{"local_stop_id":99,"id":99,"geometry":"POINT(10681797.882806 2501198.83421)","attributes":{"address":"Burma, Myanmar","placename":"Burma","title":"8","description":""}},{"local_stop_id":98,"id":98,"geometry":"POINT(-7078656.47219 -1838348.789522)","attributes":{"address":"Bolivia","placename":"Bolivia","title":"8","description":""}},{"local_stop_id":97,"id":97,"geometry":"POINT(-7810470.582026 2123842.626161)","attributes":{"address":"Dominican Republic","placename":"Dominican Republic","title":"9","description":""}},{"local_stop_id":96,"id":96,"geometry":"POINT(3363811.852496 1444062.609719)","attributes":{"address":"Sudan","placename":"Sudan","title":"9","description":""}},{"local_stop_id":95,"id":95,"geometry":"POINT(3100173.457173 -1475033.831658)","attributes":{"address":"Zambia","placename":"Zambia","title":"9","description":""}},{"local_stop_id":94,"id":94,"geometry":"POINT(-6207824.355862 -3832130.824994)","attributes":{"address":"Uruguay","placename":"Uruguay","title":"9","description":""}},{"local_stop_id":93,"id":93,"geometry":"POINT(8991475.312498 879195.517639)","attributes":{"address":"Sri Lanka","placename":"Sri Lanka","title":"10","description":""}},{"local_stop_id":92,"id":92,"geometry":"POINT(-6505937.618248 -2685620.33203)","attributes":{"address":"Paraguay","placename":"Paraguay","title":"10","description":""}},{"local_stop_id":91,"id":91,"geometry":"POINT(-9323388.957151 1090519.231591)","attributes":{"address":"Costa Rica","placename":"Costa Rica","title":"10","description":""}},{"local_stop_id":90,"id":90,"geometry":"POINT(1292357.394473 -89469.184236)","attributes":{"address":"Gabon","placename":"Gabon","title":"11","description":""}},{"local_stop_id":89,"id":89,"geometry":"POINT(2422163.396822 -449917.840172)","attributes":{"address":"DRC","placename":"Democratic Republic of the Congo","title":"11","description":""}},{"local_stop_id":88,"id":88,"geometry":"POINT(-617498.12099 841780.906412)","attributes":{"address":"Ivory Coast","placename":"C\u00f4te d'Ivoire","title":"11","description":""}},{"local_stop_id":87,"id":87,"geometry":"POINT(2338361.527555 5467999.202178)","attributes":{"address":"Serbia","placename":"Serbia","title":"12","description":""}},{"local_stop_id":86,"id":86,"geometry":"POINT(2738814.471371 7735556.799888)","attributes":{"address":"Latvia","placename":"Latvia","title":"12","description":""}},{"local_stop_id":85,"id":85,"geometry":"POINT(1692056.260058 5637278.201891)","attributes":{"address":"Croatia","placename":"Croatia","title":"12","description":""}},{"local_stop_id":84,"id":84,"geometry":"POINT(1761926.94033 -25383.248614)","attributes":{"address":"Congo","placename":"Congo","title":"12","description":""}},{"local_stop_id":83,"id":83,"geometry":"POINT(7189598.47859 5068181.963819)","attributes":{"address":"Uzbekistan","placename":"Uzbekistan","title":"13","description":""}},{"local_stop_id":82,"id":82,"geometry":"POINT(-113901.435063 887453.057712)","attributes":{"address":"Ghana","placename":"Ghana","title":"13","description":""}},{"local_stop_id":81,"id":81,"geometry":"POINT(-6815257.85905 1197174.420926)","attributes":{"address":"Trinidad and Tobago","placename":"Trinidad and Tobago","title":"15","description":""}},{"local_stop_id":80,"id":80,"geometry":"POINT(6629774.540503 4717335.006851)","attributes":{"address":"Turkmenistan","placename":"Turkmenistan","title":"15","description":""}},{"local_stop_id":79,"id":79,"geometry":"POINT(1143016.842919 183791.756876)","attributes":{"address":"Equatorial Guinea","placename":"Equatorial Guinea","title":"16","description":""}},{"local_stop_id":78,"id":78,"geometry":"POINT(1917849.034138 3040644.059011)","attributes":{"address":"Libya","placename":"Libya","title":"16","description":""}},{"local_stop_id":77,"id":77,"geometry":"POINT(2784501.994143 8093419.123256)","attributes":{"address":"Estonia","placename":"Estonia","title":"17","description":""}},{"local_stop_id":76,"id":76,"geometry":"POINT(-8992625.242838 953980.901355)","attributes":{"address":"Panama","placename":"Panama","title":"17","description":""}},{"local_stop_id":75,"id":75,"geometry":"POINT(1061709.532121 4013627.830394)","attributes":{"address":"Tunisia","placename":"Tunisia","title":"18","description":""}},{"local_stop_id":74,"id":74,"geometry":"POINT(682342.058335 6414345.6274)","attributes":{"address":"Luxembourg","placename":"Luxembourg","title":"20","description":""}},{"local_stop_id":73,"id":73,"geometry":"POINT(5628057.419679 3007344.372065)","attributes":{"address":"Bahrain","placename":"Bahrain","title":"20","description":""}},{"local_stop_id":72,"id":72,"geometry":"POINT(-789546.84679 3735999.22766)","attributes":{"address":"Morocco","placename":"Morocco","title":"21","description":""}},{"local_stop_id":71,"id":71,"geometry":"POINT(-8703336.944404 -203887.308284)","attributes":{"address":"Ecuador","placename":"Ecuador","title":"22","description":""}},{"local_stop_id":70,"id":70,"geometry":"POINT(10058420.756868 2715069.967281)","attributes":{"address":"Bangladesh","placename":"Bangladesh","title":"24","description":""}},{"local_stop_id":69,"id":69,"geometry":"POINT(7719463.00212 3551885.664913)","attributes":{"address":"Pakistan","placename":"Pakistan","title":"25","description":""}},{"local_stop_id":68,"id":68,"geometry":"POINT(3428918.392521 3101070.050794)","attributes":{"address":"Egypt","placename":"Egypt","title":"28","description":""}},{"local_stop_id":67,"id":67,"geometry":"POINT(2837069.618044 5271553.447419)","attributes":{"address":"Bulgaria","placename":"Bulgaria","title":"28","description":""}},{"local_stop_id":66,"id":66,"geometry":"POINT(2429471.298754 4732306.812978)","attributes":{"address":"Greece","placename":"Greece","title":"28","description":""}},{"local_stop_id":65,"id":65,"geometry":"POINT(2658451.372494 7394820.260241)","attributes":{"address":"Lithuania","placename":"Lithuania","title":"29","description":""}},{"local_stop_id":64,"id":64,"geometry":"POINT(1669287.305369 5804618.909739)","attributes":{"address":"Slovenia","placename":"Slovenia","title":"29","description":""}},{"local_stop_id":63,"id":63,"geometry":"POINT(5296239.287149 4886759.751808)","attributes":{"address":"Azerbaijan","placename":"Azerbaijan","title":"34","description":""}},{"local_stop_id":62,"id":62,"geometry":"POINT(19468217.238607 -4997684.890551)","attributes":{"address":"NZ","placename":"New Zealand","title":"38","description":""}},{"local_stop_id":61,"id":61,"geometry":"POINT(3111757.029426 7115387.658402)","attributes":{"address":"Belarus","placename":"Belarus","title":"40","description":""}},{"local_stop_id":60,"id":60,"geometry":"POINT(6225348.270102 2453104.641232)","attributes":{"address":"Oman","placename":"Oman","title":"46","description":""}},{"local_stop_id":59,"id":59,"geometry":"POINT(-8350648.52242 -1027437.355768)","attributes":{"address":"Peru","placename":"Peru","title":"46","description":""}},{"local_stop_id":58,"id":58,"geometry":"POINT(13555821.564291 1445993.997497)","attributes":{"address":"Philippines","placename":"Philippines","title":"47","description":""}},{"local_stop_id":57,"id":57,"geometry":"POINT(-915542.031333 4779112.741647)","attributes":{"address":"Portugal","placename":"Portugal","title":"56","description":""}},{"local_stop_id":56,"id":56,"geometry":"POINT(-8270741.276858 509367.281339)","attributes":{"address":"Colombia","placename":"Colombia","title":"56","description":""}},{"local_stop_id":55,"id":55,"geometry":"POINT(-7412781.478528 2063412.921355)","attributes":{"address":"Puerto Rico","placename":"Puerto Rico","title":"60","description":""}},{"local_stop_id":54,"id":54,"geometry":"POINT(2779287.009958 5771245.404432)","attributes":{"address":"Romania","placename":"Romania","title":"63","description":""}},{"local_stop_id":53,"id":53,"geometry":"POINT(3879663.701165 3638731.187583)","attributes":{"address":"Israel","placename":"Israel","title":"63","description":""}},{"local_stop_id":52,"id":52,"geometry":"POINT(1989711.999337 -1255100.642297)","attributes":{"address":"Angola","placename":"Angola","title":"66","description":""}},{"local_stop_id":51,"id":51,"geometry":"POINT(3469336.495877 6170212.711441)","attributes":{"address":"Ukraine","placename":"Ukraine","title":"69","description":""}},{"local_stop_id":50,"id":50,"geometry":"POINT(184748.721227 3253246.71111)","attributes":{"address":"Algeria","placename":"Algeria","title":"73","description":""}},{"local_stop_id":49,"id":49,"geometry":"POINT(2866271.058188 8841170.394214)","attributes":{"address":"Finland","placename":"Finland","title":"79","description":""}},{"local_stop_id":48,"id":48,"geometry":"POINT(-7964126.878919 -4256013.675159)","attributes":{"address":"Chile","placename":"Chile","title":"82","description":""}},{"local_stop_id":47,"id":47,"geometry":"POINT(4862356.432331 3924966.445386)","attributes":{"address":"Iraq","placename":"Iraq","title":"83","description":""}},{"local_stop_id":46,"id":46,"geometry":"POINT(-7081775.533003 -4638374.275084)","attributes":{"address":"Argentina","placename":"Argentina","title":"84","description":""}},{"local_stop_id":45,"id":45,"geometry":"POINT(2192885.320804 6218887.493883)","attributes":{"address":"Slovakia","placename":"Slovakia","title":"87","description":""}},{"local_stop_id":44,"id":44,"geometry":"POINT(7449910.42489 6110111.702601)","attributes":{"address":"Kazakhstan","placename":"Kazakhstan","title":"89","description":""}},{"local_stop_id":43,"id":43,"geometry":"POINT(-7412734.835662 716591.403237)","attributes":{"address":"Venezuela","placename":"Venezuela","title":"93","description":""}},{"local_stop_id":42,"id":42,"geometry":"POINT(12053362.657202 1580908.758572)","attributes":{"address":"Vietnam","placename":"Vietnam","title":"95","description":""}},{"local_stop_id":41,"id":41,"geometry":"POINT(2171097.870066 5968637.679129)","attributes":{"address":"Hungary","placename":"Hungary","title":"103","description":""}},{"local_stop_id":40,"id":40,"geometry":"POINT(965727.418131 1015263.983184)","attributes":{"address":"Nigeria","placename":"Nigeria","title":"104","description":""}},{"local_stop_id":39,"id":39,"geometry":"POINT(5285646.013085 3415373.48796)","attributes":{"address":"Kuwait","placename":"Kuwait","title":"104","description":""}},{"local_stop_id":38,"id":38,"geometry":"POINT(2553391.487988 -3575670.675527)","attributes":{"address":"South Africa","placename":"South Africa","title":"105","description":""}},{"local_stop_id":37,"id":37,"geometry":"POINT(5697763.903702 2919390.332888)","attributes":{"address":"Qatar","placename":"Qatar","title":"107","description":""}},{"local_stop_id":36,"id":36,"geometry":"POINT(1057733.867827 7611135.068229)","attributes":{"address":"Denmark","placename":"Denmark","title":"112","description":""}},{"local_stop_id":35,"id":35,"geometry":"POINT(-917705.636956 7059743.327002)","attributes":{"address":"Ireland","placename":"Ireland","title":"119","description":""}},{"local_stop_id":34,"id":34,"geometry":"POINT(5976525.942406 3819612.201442)","attributes":{"address":"Iran","placename":"Iran","title":"132","description":""}},{"local_stop_id":33,"id":33,"geometry":"POINT(1722442.250904 6414728.45895)","attributes":{"address":"Czech Republic","placename":"Czech Republic","title":"139","description":""}},{"local_stop_id":32,"id":32,"geometry":"POINT(3923268.658903 4716479.684629)","attributes":{"address":"Turkey","placename":"Turkey","title":"144","description":""}},{"local_stop_id":31,"id":31,"geometry":"POINT(942758.756276 8505587.038689)","attributes":{"address":"Norway","placename":"Norway","title":"162","description":""}},{"local_stop_id":30,"id":30,"geometry":"POINT(1619706.606045 6026746.974644)","attributes":{"address":"Austria","placename":"Austria","title":"174","description":""}},{"local_stop_id":29,"id":29,"geometry":"POINT(2075385.037924 8428326.96544)","attributes":{"address":"Sweden","placename":"Sweden","title":"193","description":""}},{"local_stop_id":28,"id":28,"geometry":"POINT(2131226.790688 6785571.898792)","attributes":{"address":"Poland","placename":"Poland","title":"194","description":""}},{"local_stop_id":27,"id":27,"geometry":"POINT(12681664.112134 -87864.470043)","attributes":{"address":"Indonesia","placename":"Indonesia","title":"202","description":""}},{"local_stop_id":26,"id":26,"geometry":"POINT(11242438.238039 1789676.623494)","attributes":{"address":"Thailand","placename":"Thailand","title":"222","description":""}},{"local_stop_id":25,"id":25,"geometry":"POINT(11351890.344374 469131.367658)","attributes":{"address":"Malaysia","placename":"Malaysia","title":"226","description":""}},{"local_stop_id":24,"id":24,"geometry":"POINT(5994311.680089 2683384.657664)","attributes":{"address":"United Arab Emirates","placename":"United Arab Emirates","title":"253","description":""}},{"local_stop_id":23,"id":23,"geometry":"POINT(-5780295.728898 -1601191.813438)","attributes":{"address":"Brazil","placename":"Brazil","title":"256","description":""}},{"local_stop_id":22,"id":22,"geometry":"POINT(14891780.020321 -2909486.054997)","attributes":{"address":"Australia","placename":"Australia","title":"272","description":""}},{"local_stop_id":21,"id":21,"geometry":"POINT(8790107.59317 2343495.165705)","attributes":{"address":"India","placename":"India","title":"299","description":""}},{"local_stop_id":20,"id":20,"geometry":"POINT(-417361.261272 4933551.652462)","attributes":{"address":"Spain","placename":"Spain","title":"304","description":""}},{"local_stop_id":19,"id":19,"geometry":"POINT(13465262.935892 2716627.939237)","attributes":{"address":"Taiwan","placename":"Taiwan","title":"307","description":""}},{"local_stop_id":18,"id":18,"geometry":"POINT(915882.446336 5912448.054871)","attributes":{"address":"Switzerland","placename":"Switzerland","title":"313","description":""}},{"local_stop_id":17,"id":17,"geometry":"POINT(497590.999399 6534001.856289)","attributes":{"address":"Belgium","placename":"Belgium","title":"345","description":""}},{"local_stop_id":16,"id":16,"geometry":"POINT(-11416123.694313 2708933.292233)","attributes":{"address":"Mexico","placename":"Mexico","title":"350","description":""}},{"local_stop_id":15,"id":15,"geometry":"POINT(5018189.359227 2739515.791932)","attributes":{"address":"Saudi Arabia","placename":"Saudi Arabia","title":"360","description":""}},{"local_stop_id":14,"id":14,"geometry":"POINT(11557171.277761 150527.162641)","attributes":{"address":"Singapore","placename":"Singapore","title":"415","description":""}},{"local_stop_id":13,"id":13,"geometry":"POINT(12702611.100717 2559188.1802)","attributes":{"address":"Hong Kong","placename":"Hong Kong","title":"428","description":""}},{"local_stop_id":12,"id":12,"geometry":"POINT(-11838468.395229 7584411.732747)","attributes":{"address":"Canada","placename":"Canada","title":"462","description":""}},{"local_stop_id":11,"id":11,"geometry":"POINT(-382490.764739 7435586.530983)","attributes":{"address":"UK","placename":"United Kingdom","title":"480","description":""}},{"local_stop_id":10,"id":10,"geometry":"POINT(11724030.288901 8747149.04879)","attributes":{"address":"Russia","placename":"Russia","title":"521","description":""}},{"local_stop_id":9,"id":9,"geometry":"POINT(1398994.342206 5141815.937641)","attributes":{"address":"Italy","placename":"Italy","title":"524","description":""}},{"local_stop_id":8,"id":8,"geometry":"POINT(589021.036772 6824142.821624)","attributes":{"address":"Netherlands","placename":"The Netherlands","title":"552","description":""}},{"local_stop_id":7,"id":7,"geometry":"POINT(14222948.697264 4287936.289399)","attributes":{"address":"South Korea","placename":"South Korea","title":"557","description":""}},{"local_stop_id":6,"id":6,"geometry":"POINT(246433.411424 5816903.713427)","attributes":{"address":"France","placename":"France","title":"587","description":""}},{"local_stop_id":5,"id":5,"geometry":"POINT(15390245.100361 4328841.562513)","attributes":{"address":"Japan","placename":"Japan","title":"788","description":""}},{"local_stop_id":4,"id":4,"geometry":"POINT(1163458.552333 6650655.041174)","attributes":{"address":"Germany","placename":"Germany","title":"1.408","description":""}},{"local_stop_id":3,"id":3,"geometry":"POINT(-10654710.288472 4451692.554811)","attributes":{"address":"U.S.","placename":"United States","title":"1.497","description":""}},{"local_stop_id":2,"id":2,"geometry":"POINT(11598978.537043 4281602.659627)","attributes":{"address":"China","placename":"China","title":"1.904","description":""}},{"local_stop_id":1,"id":1,"geometry":"POINT(-7078656.47219 -1838348.789522)","attributes":{"address":"Bolivia","placename":"Bolivia","title":"Exportaciones 2011","description":""}}],"hops":[{"from_stop_id":1,"to_stop_id":2,"geometry":"MULTILINESTRING((-7078656.47219 -1838348.789522,11598978.537043 4281602.659627))","attributes":{"title":"Exportaciones 2011 to 1.904","distance":"17525.394169"}},{"from_stop_id":1,"to_stop_id":3,"geometry":"MULTILINESTRING((-7078656.47219 -1838348.789522,-10654710.288472 4451692.554811))","attributes":{"title":"Exportaciones 2011 to 1.497","distance":"6823.140654"}},{"from_stop_id":1,"to_stop_id":4,"geometry":"MULTILINESTRING((-7078656.47219 -1838348.789522,1163458.552333 6650655.041174))","attributes":{"title":"Exportaciones 2011 to 1.408","distance":"10345.372490"}},{"from_stop_id":1,"to_stop_id":5,"geometry":"MULTILINESTRING((-7078656.47219 -1838348.789522,15390245.100361 4328841.562513))","attributes":{"title":"Exportaciones 2011 to 788","distance":"16924.171002"}},{"from_stop_id":1,"to_stop_id":6,"geometry":"MULTILINESTRING((-7078656.47219 -1838348.789522,246433.411424 5816903.713427))","attributes":{"distance":"9563.611080","title":"Exportaciones 2011 to 587"}},{"from_stop_id":1,"to_stop_id":7,"geometry":"MULTILINESTRING((-7078656.47219 -1838348.789522,14222948.697264 4287936.289399))","attributes":{"distance":"17561.179129","title":"Exportaciones 2011 to 557"}},{"from_stop_id":1,"to_stop_id":8,"geometry":"MULTILINESTRING((-7078656.47219 -1838348.789522,589021.036772 6824142.821624))","attributes":{"distance":"10065.759757","title":"Exportaciones 2011 to 552"}},{"from_stop_id":1,"to_stop_id":9,"geometry":"MULTILINESTRING((-7078656.47219 -1838348.789522,1398994.342206 5141815.937641))","attributes":{"title":"Exportaciones 2011 to 524","distance":"10110.777346"}},{"from_stop_id":1,"to_stop_id":10,"geometry":"MULTILINESTRING((-7078656.47219 -1838348.789522,11724030.288901 8747149.04879))","attributes":{"title":"Exportaciones 2011 to 521","distance":"14909.039869","co2e":"0"}},{"from_stop_id":1,"to_stop_id":11,"geometry":"MULTILINESTRING((-7078656.47219 -1838348.789522,-382490.764739 7435586.530983))","attributes":{"distance":"9748.905019","title":"Exportaciones 2011 to 480"}},{"from_stop_id":1,"to_stop_id":12,"geometry":"MULTILINESTRING((-7078656.47219 -1838348.789522,-11838468.395229 7584411.732747))","attributes":{"title":"Exportaciones 2011 to 462","distance":"8984.700761"}},{"from_stop_id":1,"to_stop_id":13,"geometry":"MULTILINESTRING((-7078656.47219 -1838348.789522,12702611.100717 2559188.1802))","attributes":{"distance":"19294.481905","title":"Exportaciones 2011 to 428"}},{"from_stop_id":1,"to_stop_id":14,"geometry":"MULTILINESTRING((-7078656.47219 -1838348.789522,11557171.277761 150527.162641))","attributes":{"co2e":"0","distance":"17856.053384","title":"Exportaciones 2011 to 415"}},{"from_stop_id":1,"to_stop_id":15,"geometry":"MULTILINESTRING((-7078656.47219 -1838348.789522,5018189.359227 2739515.791932))","attributes":{"title":"Exportaciones 2011 to 360","distance":"12591.116954"}},{"from_stop_id":1,"to_stop_id":16,"geometry":"MULTILINESTRING((-7078656.47219 -1838348.789522,-11416123.694313 2708933.292233))","attributes":{"distance":"6133.639048","title":"Exportaciones 2011 to 350"}},{"from_stop_id":1,"to_stop_id":17,"geometry":"MULTILINESTRING((-7078656.47219 -1838348.789522,497590.999399 6534001.856289))","attributes":{"distance":"9933.248807","title":"Exportaciones 2011 to 345"}},{"from_stop_id":1,"to_stop_id":18,"geometry":"MULTILINESTRING((-7078656.47219 -1838348.789522,915882.446336 5912448.054871))","attributes":{"title":"Exportaciones 2011 to 313","distance":"10004.734073"}},{"from_stop_id":1,"to_stop_id":19,"geometry":"MULTILINESTRING((-7078656.47219 -1838348.789522,13465262.935892 2716627.939237))","attributes":{"title":"Exportaciones 2011 to 307","distance":"19064.307549"}},{"from_stop_id":1,"to_stop_id":20,"geometry":"MULTILINESTRING((-7078656.47219 -1838348.789522,-417361.261272 4933551.652462))","attributes":{"distance":"8822.911777","title":"Exportaciones 2011 to 304"}},{"from_stop_id":1,"to_stop_id":21,"geometry":"MULTILINESTRING((-7078656.47219 -1838348.789522,8790107.59317 2343495.165705))","attributes":{"distance":"16044.478987","title":"Exportaciones 2011 to 299"}},{"from_stop_id":1,"to_stop_id":22,"geometry":"MULTILINESTRING((-7078656.47219 -1838348.789522,14891780.020321 -2909486.054997))","attributes":{"distance":"15025.275830","title":"Exportaciones 2011 to 272"}},{"from_stop_id":1,"to_stop_id":23,"geometry":"MULTILINESTRING((-7078656.47219 -1838348.789522,-5780295.728898 -1601191.813438))","attributes":{"title":"Exportaciones 2011 to 256","distance":"1271.635055"}},{"from_stop_id":1,"to_stop_id":24,"geometry":"MULTILINESTRING((-7078656.47219 -1838348.789522,5994311.680089 2683384.657664))","attributes":{"distance":"13471.615089","title":"Exportaciones 2011 to 253"}},{"from_stop_id":1,"to_stop_id":25,"geometry":"MULTILINESTRING((-7078656.47219 -1838348.789522,11351890.344374 469131.367658))","attributes":{"distance":"17944.205259","title":"Exportaciones 2011 to 226"}},{"from_stop_id":1,"to_stop_id":26,"geometry":"MULTILINESTRING((-7078656.47219 -1838348.789522,11242438.238039 1789676.623494))","attributes":{"title":"Exportaciones 2011 to 222","distance":"18367.398724"}},{"from_stop_id":1,"to_stop_id":27,"geometry":"MULTILINESTRING((-7078656.47219 -1838348.789522,12681664.112134 -87864.470043))","attributes":{"title":"Exportaciones 2011 to 202","distance":"18096.380893"}},{"from_stop_id":1,"to_stop_id":28,"geometry":"MULTILINESTRING((-7078656.47219 -1838348.789522,2131226.790688 6785571.898792))","attributes":{"distance":"10940.520851","title":"Exportaciones 2011 to 194"}},{"from_stop_id":1,"to_stop_id":29,"geometry":"MULTILINESTRING((-7078656.47219 -1838348.789522,2075385.037924 8428326.96544))","attributes":{"title":"Exportaciones 2011 to 193","distance":"11151.668386"}},{"from_stop_id":1,"to_stop_id":30,"geometry":"MULTILINESTRING((-7078656.47219 -1838348.789522,1619706.606045 6026746.974644))","attributes":{"distance":"10476.966897","title":"Exportaciones 2011 to 174"}},{"from_stop_id":1,"to_stop_id":31,"geometry":"MULTILINESTRING((-7078656.47219 -1838348.789522,942758.756276 8505587.038689))","attributes":{"distance":"10635.061946","title":"Exportaciones 2011 to 162"}},{"from_stop_id":1,"to_stop_id":32,"geometry":"MULTILINESTRING((-7078656.47219 -1838348.789522,3923268.658903 4716479.684629))","attributes":{"title":"Exportaciones 2011 to 144","distance":"11888.565944"}},{"from_stop_id":1,"to_stop_id":33,"geometry":"MULTILINESTRING((-7078656.47219 -1838348.789522,1722442.250904 6414728.45895))","attributes":{"title":"Exportaciones 2011 to 139","distance":"10625.116036"}},{"from_stop_id":1,"to_stop_id":34,"geometry":"MULTILINESTRING((-7078656.47219 -1838348.789522,5976525.942406 3819612.201442))","attributes":{"distance":"13504.306616","title":"Exportaciones 2011 to 132"}},{"from_stop_id":1,"to_stop_id":35,"geometry":"MULTILINESTRING((-7078656.47219 -1838348.789522,-917705.636956 7059743.327002))","attributes":{"co2e":"0","title":"Exportaciones 2011 to 119","distance":"9368.759998"}},{"from_stop_id":1,"to_stop_id":36,"geometry":"MULTILINESTRING((-7078656.47219 -1838348.789522,1057733.867827 7611135.068229))","attributes":{"title":"Exportaciones 2011 to 112","distance":"10506.368269"}},{"from_stop_id":1,"to_stop_id":37,"geometry":"MULTILINESTRING((-7078656.47219 -1838348.789522,5697763.903702 2919390.332888))","attributes":{"distance":"13223.169759","title":"Exportaciones 2011 to 107"}},{"from_stop_id":1,"to_stop_id":38,"geometry":"MULTILINESTRING((-7078656.47219 -1838348.789522,2553391.487988 -3575670.675527))","attributes":{"title":"Exportaciones 2011 to 105","distance":"8772.136000"}},{"from_stop_id":1,"to_stop_id":39,"geometry":"MULTILINESTRING((-7078656.47219 -1838348.789522,5285646.013085 3415373.48796))","attributes":{"distance":"12897.563530","title":"Exportaciones 2011 to 104"}},{"from_stop_id":1,"to_stop_id":40,"geometry":"MULTILINESTRING((-7078656.47219 -1838348.789522,965727.418131 1015263.983184))","attributes":{"title":"Exportaciones 2011 to 104","distance":"8434.140498"}},{"from_stop_id":1,"to_stop_id":41,"geometry":"MULTILINESTRING((-7078656.47219 -1838348.789522,2171097.870066 5968637.679129))","attributes":{"distance":"10820.087623","title":"Exportaciones 2011 to 103"}},{"from_stop_id":1,"to_stop_id":42,"geometry":"MULTILINESTRING((-7078656.47219 -1838348.789522,12053362.657202 1580908.758572))","attributes":{"title":"Exportaciones 2011 to 95","distance":"19107.668740"}},{"from_stop_id":1,"to_stop_id":43,"geometry":"MULTILINESTRING((-7078656.47219 -1838348.789522,-7412734.835662 716591.403237))","attributes":{"distance":"2547.167875","title":"Exportaciones 2011 to 93"}},{"from_stop_id":1,"to_stop_id":44,"geometry":"MULTILINESTRING((-7078656.47219 -1838348.789522,7449910.42489 6110111.702601))","attributes":{"distance":"14313.571287","title":"Exportaciones 2011 to 89"}},{"from_stop_id":1,"to_stop_id":45,"geometry":"MULTILINESTRING((-7078656.47219 -1838348.789522,2192885.320804 6218887.493883))","attributes":{"title":"Exportaciones 2011 to 87","distance":"10880.155605"}},{"from_stop_id":1,"to_stop_id":46,"geometry":"MULTILINESTRING((-7078656.47219 -1838348.789522,-7081775.533003 -4638374.275084))","attributes":{"distance":"2460.294130","title":"Exportaciones 2011 to 84"}},{"from_stop_id":1,"to_stop_id":47,"geometry":"MULTILINESTRING((-7078656.47219 -1838348.789522,4862356.432331 3924966.445386))","attributes":{"distance":"12574.075454","title":"Exportaciones 2011 to 83"}},{"from_stop_id":1,"to_stop_id":48,"geometry":"MULTILINESTRING((-7078656.47219 -1838348.789522,-7964126.878919 -4256013.675159))","attributes":{"distance":"2295.171596","title":"Exportaciones 2011 to 82"}},{"from_stop_id":1,"to_stop_id":49,"geometry":"MULTILINESTRING((-7078656.47219 -1838348.789522,2866271.058188 8841170.394214))","attributes":{"title":"Exportaciones 2011 to 79","distance":"11566.524621"}},{"from_stop_id":1,"to_stop_id":50,"geometry":"MULTILINESTRING((-7078656.47219 -1838348.789522,184748.721227 3253246.71111))","attributes":{"distance":"8575.471420","title":"Exportaciones 2011 to 73"}},{"from_stop_id":1,"to_stop_id":51,"geometry":"MULTILINESTRING((-7078656.47219 -1838348.789522,3469336.495877 6170212.711441))","attributes":{"distance":"11699.965970","title":"Exportaciones 2011 to 69"}},{"from_stop_id":1,"to_stop_id":52,"geometry":"MULTILINESTRING((-7078656.47219 -1838348.789522,1989711.999337 -1255100.642297))","attributes":{"distance":"8761.883860","title":"Exportaciones 2011 to 66"}},{"from_stop_id":1,"to_stop_id":53,"geometry":"MULTILINESTRING((-7078656.47219 -1838348.789522,3879663.701165 3638731.187583))","attributes":{"distance":"11718.691900","title":"Exportaciones 2011 to 63"}},{"from_stop_id":1,"to_stop_id":54,"geometry":"MULTILINESTRING((-7078656.47219 -1838348.789522,2779287.009958 5771245.404432))","attributes":{"title":"Exportaciones 2011 to 63","distance":"11191.425848"}},{"from_stop_id":1,"to_stop_id":55,"geometry":"MULTILINESTRING((-7078656.47219 -1838348.789522,-7412781.478528 2063412.921355))","attributes":{"title":"Exportaciones 2011 to 60","distance":"3851.488639"}},{"from_stop_id":1,"to_stop_id":56,"geometry":"MULTILINESTRING((-7078656.47219 -1838348.789522,-8270741.276858 509367.281339))","attributes":{"title":"Exportaciones 2011 to 56","distance":"2601.491099"}},{"from_stop_id":1,"to_stop_id":57,"geometry":"MULTILINESTRING((-7078656.47219 -1838348.789522,-915542.031333 4779112.741647))","attributes":{"title":"Exportaciones 2011 to 56","distance":"8440.347941"}},{"from_stop_id":1,"to_stop_id":58,"geometry":"MULTILINESTRING((-7078656.47219 -1838348.789522,13555821.564291 1445993.997497))","attributes":{"title":"Exportaciones 2011 to 47","distance":"19324.648822"}},{"from_stop_id":1,"to_stop_id":59,"geometry":"MULTILINESTRING((-7078656.47219 -1838348.789522,-8350648.52242 -1027437.355768))","attributes":{"distance":"1468.548489","title":"Exportaciones 2011 to 46"}},{"from_stop_id":1,"to_stop_id":60,"geometry":"MULTILINESTRING((-7078656.47219 -1838348.789522,6225348.270102 2453104.641232))","attributes":{"distance":"13662.644323","title":"Exportaciones 2011 to 46"}},{"from_stop_id":1,"to_stop_id":61,"geometry":"MULTILINESTRING((-7078656.47219 -1838348.789522,3111757.029426 7115387.658402))","attributes":{"distance":"11560.720578","title":"Exportaciones 2011 to 40"}},{"from_stop_id":1,"to_stop_id":62,"geometry":"MULTILINESTRING((-7078656.47219 -1838348.789522,19468217.238607 -4997684.890551))","attributes":{"distance":"11262.381502","title":"Exportaciones 2011 to 38"}},{"from_stop_id":1,"to_stop_id":63,"geometry":"MULTILINESTRING((-7078656.47219 -1838348.789522,5296239.287149 4886759.751808))","attributes":{"distance":"12951.157845","title":"Exportaciones 2011 to 34"}},{"from_stop_id":1,"to_stop_id":64,"geometry":"MULTILINESTRING((-7078656.47219 -1838348.789522,1669287.305369 5804618.909739))","attributes":{"title":"Exportaciones 2011 to 29","distance":"10458.206706"}},{"from_stop_id":1,"to_stop_id":65,"geometry":"MULTILINESTRING((-7078656.47219 -1838348.789522,2658451.372494 7394820.260241))","attributes":{"title":"Exportaciones 2011 to 29","distance":"11329.744977"}},{"from_stop_id":1,"to_stop_id":66,"geometry":"MULTILINESTRING((-7078656.47219 -1838348.789522,2429471.298754 4732306.812978))","attributes":{"distance":"10756.037335","title":"Exportaciones 2011 to 28"}},{"from_stop_id":1,"to_stop_id":67,"geometry":"MULTILINESTRING((-7078656.47219 -1838348.789522,2837069.618044 5271553.447419))","attributes":{"distance":"11153.865471","title":"Exportaciones 2011 to 28"}},{"from_stop_id":1,"to_stop_id":68,"geometry":"MULTILINESTRING((-7078656.47219 -1838348.789522,3428918.392521 3101070.050794))","attributes":{"distance":"11239.373256","title":"Exportaciones 2011 to 28"}},{"from_stop_id":1,"to_stop_id":69,"geometry":"MULTILINESTRING((-7078656.47219 -1838348.789522,7719463.00212 3551885.664913))","attributes":{"distance":"15000.439964","title":"Exportaciones 2011 to 25"}},{"from_stop_id":1,"to_stop_id":70,"geometry":"MULTILINESTRING((-7078656.47219 -1838348.789522,10058420.756868 2715069.967281))","attributes":{"distance":"17176.166745","title":"Exportaciones 2011 to 24"}},{"from_stop_id":1,"to_stop_id":71,"geometry":"MULTILINESTRING((-7078656.47219 -1838348.789522,-8703336.944404 -203887.308284))","attributes":{"distance":"2266.759372","title":"Exportaciones 2011 to 22"}},{"from_stop_id":1,"to_stop_id":72,"geometry":"MULTILINESTRING((-7078656.47219 -1838348.789522,-789546.84679 3735999.22766))","attributes":{"distance":"8049.208358","title":"Exportaciones 2011 to 21"}},{"from_stop_id":1,"to_stop_id":73,"geometry":"MULTILINESTRING((-7078656.47219 -1838348.789522,5628057.419679 3007344.372065))","attributes":{"title":"Exportaciones 2011 to 20","distance":"13167.945579"}},{"from_stop_id":1,"to_stop_id":74,"geometry":"MULTILINESTRING((-7078656.47219 -1838348.789522,682342.058335 6414345.6274))","attributes":{"distance":"10005.026234","title":"Exportaciones 2011 to 20"}},{"from_stop_id":1,"to_stop_id":75,"geometry":"MULTILINESTRING((-7078656.47219 -1838348.789522,1061709.532121 4013627.830394))","attributes":{"distance":"9529.960682","title":"Exportaciones 2011 to 18"}},{"from_stop_id":1,"to_stop_id":76,"geometry":"MULTILINESTRING((-7078656.47219 -1838348.789522,-8992625.242838 953980.901355))","attributes":{"distance":"3346.948950","title":"Exportaciones 2011 to 17"}},{"from_stop_id":1,"to_stop_id":77,"geometry":"MULTILINESTRING((-7078656.47219 -1838348.789522,2784501.994143 8093419.123256))","attributes":{"title":"Exportaciones 2011 to 17","distance":"11467.852751"}},{"from_stop_id":1,"to_stop_id":78,"geometry":"MULTILINESTRING((-7078656.47219 -1838348.789522,1917849.034138 3040644.059011))","attributes":{"distance":"9925.690464","title":"Exportaciones 2011 to 16"}},{"from_stop_id":1,"to_stop_id":79,"geometry":"MULTILINESTRING((-7078656.47219 -1838348.789522,1143016.842919 183791.756876))","attributes":{"distance":"8340.475175","title":"Exportaciones 2011 to 16"}},{"from_stop_id":1,"to_stop_id":80,"geometry":"MULTILINESTRING((-7078656.47219 -1838348.789522,6629774.540503 4717335.006851))","attributes":{"distance":"13984.235730","title":"Exportaciones 2011 to 15"}},{"from_stop_id":1,"to_stop_id":81,"geometry":"MULTILINESTRING((-7078656.47219 -1838348.789522,-6815257.85905 1197174.420926))","attributes":{"distance":"3011.529282","title":"Exportaciones 2011 to 15","co2e":"0"}},{"from_stop_id":1,"to_stop_id":82,"geometry":"MULTILINESTRING((-7078656.47219 -1838348.789522,-113901.435063 887453.057712))","attributes":{"distance":"7391.243350","title":"Exportaciones 2011 to 13"}},{"from_stop_id":1,"to_stop_id":83,"geometry":"MULTILINESTRING((-7078656.47219 -1838348.789522,7189598.47859 5068181.963819))","attributes":{"distance":"14354.354975","title":"Exportaciones 2011 to 13"}},{"from_stop_id":1,"to_stop_id":84,"geometry":"MULTILINESTRING((-7078656.47219 -1838348.789522,1761926.94033 -25383.248614))","attributes":{"distance":"8871.232387","title":"Exportaciones 2011 to 12"}},{"from_stop_id":1,"to_stop_id":85,"geometry":"MULTILINESTRING((-7078656.47219 -1838348.789522,1692056.260058 5637278.201891))","attributes":{"distance":"10434.456768","title":"Exportaciones 2011 to 12"}},{"from_stop_id":1,"to_stop_id":86,"geometry":"MULTILINESTRING((-7078656.47219 -1838348.789522,2738814.471371 7735556.799888))","attributes":{"distance":"11410.136505","title":"Exportaciones 2011 to 12"}},{"from_stop_id":1,"to_stop_id":87,"geometry":"MULTILINESTRING((-7078656.47219 -1838348.789522,2338361.527555 5467999.202178))","attributes":{"distance":"10837.386797","title":"Exportaciones 2011 to 12"}},{"from_stop_id":1,"to_stop_id":88,"geometry":"MULTILINESTRING((-7078656.47219 -1838348.789522,-617498.12099 841780.906412))","attributes":{"distance":"6912.955704","title":"Exportaciones 2011 to 11"}},{"from_stop_id":1,"to_stop_id":89,"geometry":"MULTILINESTRING((-7078656.47219 -1838348.789522,2422163.396822 -449917.840172))","attributes":{"title":"Exportaciones 2011 to 11","distance":"9385.896994"}},{"from_stop_id":1,"to_stop_id":90,"geometry":"MULTILINESTRING((-7078656.47219 -1838348.789522,1292357.394473 -89469.184236))","attributes":{"title":"Exportaciones 2011 to 11","distance":"8403.430327"}},{"from_stop_id":1,"to_stop_id":91,"geometry":"MULTILINESTRING((-7078656.47219 -1838348.789522,-9323388.957151 1090519.231591))","attributes":{"distance":"3647.854334","title":"Exportaciones 2011 to 10"}},{"from_stop_id":1,"to_stop_id":92,"geometry":"MULTILINESTRING((-7078656.47219 -1838348.789522,-6505937.618248 -2685620.33203))","attributes":{"distance":"959.918157","title":"Exportaciones 2011 to 10"}},{"from_stop_id":1,"to_stop_id":93,"geometry":"MULTILINESTRING((-7078656.47219 -1838348.789522,8991475.312498 879195.517639))","attributes":{"title":"Exportaciones 2011 to 10","distance":"16035.155031"}},{"from_stop_id":1,"to_stop_id":94,"geometry":"MULTILINESTRING((-7078656.47219 -1838348.789522,-6207824.355862 -3832130.824994))","attributes":{"title":"Exportaciones 2011 to 9","distance":"1969.378692"}},{"from_stop_id":1,"to_stop_id":95,"geometry":"MULTILINESTRING((-7078656.47219 -1838348.789522,3100173.457173 -1475033.831658))","attributes":{"title":"Exportaciones 2011 to 9","distance":"9750.847946"}},{"from_stop_id":1,"to_stop_id":96,"geometry":"MULTILINESTRING((-7078656.47219 -1838348.789522,3363811.852496 1444062.609719))","attributes":{"distance":"10803.207092","title":"Exportaciones 2011 to 9"}},{"from_stop_id":1,"to_stop_id":97,"geometry":"MULTILINESTRING((-7078656.47219 -1838348.789522,-7810470.582026 2123842.626161))","attributes":{"title":"Exportaciones 2011 to 9","distance":"3960.556288"}},{"from_stop_id":1,"to_stop_id":98,"geometry":"MULTILINESTRING((-7078656.47219 -1838348.789522,-7078656.47219 -1838348.789522))","attributes":{"distance":"0","title":"Exportaciones 2011 to 8"}},{"from_stop_id":1,"to_stop_id":99,"geometry":"MULTILINESTRING((-7078656.47219 -1838348.789522,10681797.882806 2501198.83421))","attributes":{"title":"Exportaciones 2011 to 8","distance":"17779.014559"}},{"from_stop_id":1,"to_stop_id":100,"geometry":"MULTILINESTRING((-7078656.47219 -1838348.789522,4341105.588359 4137016.351319))","attributes":{"title":"Exportaciones 2011 to 8","distance":"12162.501095"}},{"from_stop_id":1,"to_stop_id":101,"geometry":"MULTILINESTRING((-7078656.47219 -1838348.789522,4034041.793636 3578991.172208))","attributes":{"distance":"11840.532641","title":"Exportaciones 2011 to 8"}},{"from_stop_id":1,"to_stop_id":102,"geometry":"MULTILINESTRING((-7078656.47219 -1838348.789522,5400819.607289 1752983.407652))","attributes":{"distance":"12791.382642","title":"Exportaciones 2011 to 8"}},{"from_stop_id":1,"to_stop_id":103,"geometry":"MULTILINESTRING((-7078656.47219 -1838348.789522,-9600404.949642 1712260.140507))","attributes":{"title":"Exportaciones 2011 to 7","distance":"4294.678013"}},{"from_stop_id":1,"to_stop_id":104,"geometry":"MULTILINESTRING((-7078656.47219 -1838348.789522,16025058.522866 -704409.432655))","attributes":{"title":"Exportaciones 2011 to 7","distance":"16077.827556"}},{"from_stop_id":1,"to_stop_id":105,"geometry":"MULTILINESTRING((-7078656.47219 -1838348.789522,-8658559.903747 2454202.390949))","attributes":{"title":"Exportaciones 2011 to 6","distance":"4480.124421"}},{"from_stop_id":1,"to_stop_id":106,"geometry":"MULTILINESTRING((-7078656.47219 -1838348.789522,2747906.71342 -2551008.420793))","attributes":{"distance":"9155.641437","title":"Exportaciones 2011 to 6"}},{"from_stop_id":1,"to_stop_id":107,"geometry":"MULTILINESTRING((-7078656.47219 -1838348.789522,1968025.738016 5452434.561675))","attributes":{"title":"Exportaciones 2011 to 6","distance":"10579.048598"}},{"from_stop_id":1,"to_stop_id":108,"geometry":"MULTILINESTRING((-7078656.47219 -1838348.789522,4219698.102672 -2622.575957))","attributes":{"title":"Exportaciones 2011 to 6","distance":"11232.992049"}},{"from_stop_id":1,"to_stop_id":109,"geometry":"MULTILINESTRING((-7078656.47219 -1838348.789522,1375321.361932 822665.286731))","attributes":{"distance":"8755.734399","title":"Exportaciones 2011 to 6"}},{"from_stop_id":1,"to_stop_id":110,"geometry":"MULTILINESTRING((-7078656.47219 -1838348.789522,3992171.304883 4009311.247656))","attributes":{"title":"Exportaciones 2011 to 5","distance":"11863.117039"}},{"from_stop_id":1,"to_stop_id":111,"geometry":"MULTILINESTRING((-7078656.47219 -1838348.789522,3883805.899417 -710461.619568))","attributes":{"title":"Exportaciones 2011 to 5","distance":"10706.648252"}},{"from_stop_id":1,"to_stop_id":112,"geometry":"MULTILINESTRING((-7078656.47219 -1838348.789522,11687540.539055 1410155.012282))","attributes":{"title":"Exportaciones 2011 to 5","distance":"18717.756148"}},{"from_stop_id":1,"to_stop_id":113,"geometry":"MULTILINESTRING((-7078656.47219 -1838348.789522,-9895916.452889 1550614.448509))","attributes":{"distance":"4349.984679","title":"Exportaciones 2011 to 5"}},{"from_stop_id":1,"to_stop_id":114,"geometry":"MULTILINESTRING((-7078656.47219 -1838348.789522,-2117389.666663 9598645.705352))","attributes":{"distance":"9782.921481","title":"Exportaciones 2011 to 5"}},{"from_stop_id":1,"to_stop_id":115,"geometry":"MULTILINESTRING((-7078656.47219 -1838348.789522,1600263.989061 4292024.32283))","attributes":{"title":"Exportaciones 2011 to 5","distance":"10023.925222"}},{"from_stop_id":1,"to_stop_id":116,"geometry":"MULTILINESTRING((-7078656.47219 -1838348.789522,11560156.866504 5919658.729761))","attributes":{"distance":"16423.586822","co2e":"0","title":"Exportaciones 2011 to 5"}},{"from_stop_id":1,"to_stop_id":117,"geometry":"MULTILINESTRING((-7078656.47219 -1838348.789522,2058343.025759 -2626896.715328))","attributes":{"distance":"8521.074201","title":"Exportaciones 2011 to 4"}},{"from_stop_id":1,"to_stop_id":118,"geometry":"MULTILINESTRING((-7078656.47219 -1838348.789522,2420672.94016 5102533.956456))","attributes":{"title":"Exportaciones 2011 to 4","distance":"10824.516606"}},{"from_stop_id":1,"to_stop_id":119,"geometry":"MULTILINESTRING((-7078656.47219 -1838348.789522,2085259.744674 1741597.357213))","attributes":{"title":"Exportaciones 2011 to 4","distance":"9696.012424"}},{"from_stop_id":1,"to_stop_id":120,"geometry":"MULTILINESTRING((-7078656.47219 -1838348.789522,-9485225.344186 1444360.519557))","attributes":{"distance":"4019.687556","title":"Exportaciones 2011 to 4"}},{"from_stop_id":1,"to_stop_id":121,"geometry":"MULTILINESTRING((-7078656.47219 -1838348.789522,3245503.835391 -2156753.573765))","attributes":{"title":"Exportaciones 2011 to 3","distance":"9701.888174"}},{"from_stop_id":1,"to_stop_id":122,"geometry":"MULTILINESTRING((-7078656.47219 -1838348.789522,-1217928.181053 2392819.411011))","attributes":{"title":"Exportaciones 2011 to 3","distance":"7082.998741"}},{"from_stop_id":1,"to_stop_id":123,"geometry":"MULTILINESTRING((-7078656.47219 -1838348.789522,4507289.780746 1022366.88618))","attributes":{"title":"Exportaciones 2011 to 3","distance":"11783.074260"}},{"from_stop_id":1,"to_stop_id":124,"geometry":"MULTILINESTRING((-7078656.47219 -1838348.789522,6406676.254697 -2314350.159717))","attributes":{"distance":"12407.587870","title":"Exportaciones 2011 to 3","co2e":"0"}},{"from_stop_id":1,"to_stop_id":125,"geometry":"MULTILINESTRING((-7078656.47219 -1838348.789522,3594536.970575 152893.371044))","attributes":{"title":"Exportaciones 2011 to 3","distance":"10677.792319"}},{"from_stop_id":1,"to_stop_id":126,"geometry":"MULTILINESTRING((-7078656.47219 -1838348.789522,-1608829.5786 1631344.630706))","attributes":{"distance":"6390.079631","title":"Exportaciones 2011 to 2"}},{"from_stop_id":1,"to_stop_id":127,"geometry":"MULTILINESTRING((-7078656.47219 -1838348.789522,8322923.95796 5042534.567123))","attributes":{"distance":"15169.378416","title":"Exportaciones 2011 to 2"}},{"from_stop_id":1,"to_stop_id":128,"geometry":"MULTILINESTRING((-7078656.47219 -1838348.789522,-173835.737586 1372844.313774))","attributes":{"title":"Exportaciones 2011 to 2","distance":"7520.489483"}},{"from_stop_id":1,"to_stop_id":129,"geometry":"MULTILINESTRING((-7078656.47219 -1838348.789522,11409746.423324 2256011.885919))","attributes":{"title":"Exportaciones 2011 to 2","distance":"18492.193244"}},{"from_stop_id":1,"to_stop_id":130,"geometry":"MULTILINESTRING((-7078656.47219 -1838348.789522,3502764.180489 -3063940.42616))","attributes":{"distance":"9691.468496","title":"Exportaciones 2011 to 2"}},{"from_stop_id":1,"to_stop_id":131,"geometry":"MULTILINESTRING((-7078656.47219 -1838348.789522,2245128.33707 5034984.473549))","attributes":{"distance":"10684.131452","title":"Exportaciones 2011 to 2"}},{"from_stop_id":1,"to_stop_id":132,"geometry":"MULTILINESTRING((-7078656.47219 -1838348.789522,257797.461642 1040714.83444))","attributes":{"title":"Exportaciones 2011 to 2","distance":"7788.240909"}},{"from_stop_id":1,"to_stop_id":133,"geometry":"MULTILINESTRING((-7078656.47219 -1838348.789522,-1079425.583803 1112739.818908))","attributes":{"distance":"6607.478498","title":"Exportaciones 2011 to 2"}},{"from_stop_id":1,"to_stop_id":134,"geometry":"MULTILINESTRING((-7078656.47219 -1838348.789522,-8604719.230149 2050378.802628))","attributes":{"distance":"4109.008523","title":"Exportaciones 2011 to 2"}},{"from_stop_id":1,"to_stop_id":135,"geometry":"MULTILINESTRING((-7078656.47219 -1838348.789522,-6236984.273836 436635.68837))","attributes":{"distance":"2396.028263","title":"Exportaciones 2011 to 2"}},{"from_stop_id":1,"to_stop_id":136,"geometry":"MULTILINESTRING((-7078656.47219 -1838348.789522,5217445.125175 -2127516.82188))","attributes":{"title":"Exportaciones 2011 to 1","distance":"11469.133529"}},{"from_stop_id":1,"to_stop_id":137,"geometry":"MULTILINESTRING((-7078656.47219 -1838348.789522,5013628.265731 4875988.644415))","attributes":{"distance":"12735.216456","title":"Exportaciones 2011 to 1"}},{"from_stop_id":1,"to_stop_id":138,"geometry":"MULTILINESTRING((-7078656.47219 -1838348.789522,7934418.378494 4701785.38843))","attributes":{"distance":"14976.617432","title":"Exportaciones 2011 to 1"}},{"from_stop_id":1,"to_stop_id":139,"geometry":"MULTILINESTRING((-7078656.47219 -1838348.789522,-6560077.629956 541709.129825))","attributes":{"distance":"2407.005954","title":"Exportaciones 2011 to 1"}},{"from_stop_id":1,"to_stop_id":140,"geometry":"MULTILINESTRING((-7078656.47219 -1838348.789522,899646.943881 1991691.558385))","attributes":{"distance":"8706.057507","title":"Exportaciones 2011 to 1"}},{"from_stop_id":1,"to_stop_id":141,"geometry":"MULTILINESTRING((-7078656.47219 -1838348.789522,3142950.865817 -3453515.305463))","attributes":{"distance":"9292.121976","title":"Exportaciones 2011 to 1"}},{"from_stop_id":1,"to_stop_id":142,"geometry":"MULTILINESTRING((-7078656.47219 -1838348.789522,3818428.296433 -1488801.355152))","attributes":{"distance":"10415.196532","title":"Exportaciones 2011 to 1"}},{"from_stop_id":1,"to_stop_id":143,"geometry":"MULTILINESTRING((-7078656.47219 -1838348.789522,91814.312255 963163.074994))","attributes":{"distance":"7607.857685","title":"Exportaciones 2011 to 1"}},{"from_stop_id":1,"to_stop_id":144,"geometry":"MULTILINESTRING((-7078656.47219 -1838348.789522,19822108.690328 -2004026.222226))","attributes":{"distance":"12277.386171","title":"Exportaciones 2011 to 1"}},{"from_stop_id":1,"to_stop_id":145,"geometry":"MULTILINESTRING((-7078656.47219 -1838348.789522,9364641.734049 3298848.05185))","attributes":{"distance":"16446.770341","title":"Exportaciones 2011 to 1"}},{"from_stop_id":1,"to_stop_id":146,"geometry":"MULTILINESTRING((-7078656.47219 -1838348.789522,-8615714.478894 2879955.737669))","attributes":{"distance":"4832.565863","title":"Exportaciones 2011 to 1"}},{"from_stop_id":1,"to_stop_id":147,"geometry":"MULTILINESTRING((-7078656.47219 -1838348.789522,-9851513.334401 1942939.083677))","attributes":{"distance":"4616.288734","title":"Exportaciones 2011 to 1"}}]},"editable":false}