{"type":"FeatureCollection","features":[{"type":"Feature","geometry":{"type":"Point","coordinates":[-88.497649999997,17.189876999996]},"properties":{"address":"Belize","placename":"Belize","title":"1","description":""}},{"type":"Feature","geometry":{"type":"Point","coordinates":[-77.396280000003,25.034279999999]},"properties":{"address":"Bahamas","placename":"Commonwealth of The Bahamas","title":"1","description":""}},{"type":"Feature","geometry":{"type":"Point","coordinates":[84.124007999998,28.394856999998]},"properties":{"address":"Nepal","placename":"Nepal","title":"1","description":""}},{"type":"Feature","geometry":{"type":"Point","coordinates":[178.065032,-17.713371000002]},"properties":{"address":"Fiji","placename":"Fiji","title":"1","description":""}},{"type":"Feature","geometry":{"type":"Point","coordinates":[0.82478199999589,8.6195430000029]},"properties":{"address":"Togo","placename":"Togo","title":"1","description":""}},{"type":"Feature","geometry":{"type":"Point","coordinates":[34.301525000002,-13.254308]},"properties":{"address":"Malawi","placename":"Malawi","title":"1","description":""}},{"type":"Feature","geometry":{"type":"Point","coordinates":[28.233608000001,-29.609988000003]},"properties":{"address":"Lesotho","placename":"Lesotho","title":"1","description":""}},{"type":"Feature","geometry":{"type":"Point","coordinates":[8.0816659999972,17.607788999999]},"properties":{"address":"Niger","placename":"Niger","title":"1","description":""}},{"type":"Feature","geometry":{"type":"Point","coordinates":[-58.93018,4.8604159999962]},"properties":{"address":"Guyana","placename":"Guyana","title":"1","description":""}},{"type":"Feature","geometry":{"type":"Point","coordinates":[71.276093,38.861034000001]},"properties":{"address":"Tajikistan","placename":"Tajikistan","title":"1","description":""}},{"type":"Feature","geometry":{"type":"Point","coordinates":[45.038188999998,40.069099000001]},"properties":{"address":"Armenia","placename":"Armenia","title":"1","description":""}},{"type":"Feature","geometry":{"type":"Point","coordinates":[46.869106999996,-18.766946999998]},"properties":{"address":"Madagascar","placename":"Madagascar","title":"1","description":""}},{"type":"Feature","geometry":{"type":"Point","coordinates":[-56.027783,3.9193050000025]},"properties":{"address":"Surinam","placename":"Suriname","title":"2","description":""}},{"type":"Feature","geometry":{"type":"Point","coordinates":[-77.297508,18.109580999997]},"properties":{"address":"Jamaica","placename":"Jamaica","title":"2","description":""}},{"type":"Feature","geometry":{"type":"Point","coordinates":[-9.6966449999987,9.9455870000035]},"properties":{"address":"Guinea","placename":"Guinea","title":"2","description":""}},{"type":"Feature","geometry":{"type":"Point","coordinates":[2.3158340000022,9.3076899999976]},"properties":{"address":"Benin","placename":"Benin","title":"2","description":""}},{"type":"Feature","geometry":{"type":"Point","coordinates":[20.168330999998,41.153331999997]},"properties":{"address":"Albania","placename":"Albania","title":"2","description":""}},{"type":"Feature","geometry":{"type":"Point","coordinates":[31.465865999997,-26.522503000001]},"properties":{"address":"Swaziland","placename":"Swaziland","title":"2","description":""}},{"type":"Feature","geometry":{"type":"Point","coordinates":[102.495496,19.856269999998]},"properties":{"address":"Laos","placename":"Laos","title":"2","description":""}},{"type":"Feature","geometry":{"type":"Point","coordinates":[-1.5615929999969,12.238332999997]},"properties":{"address":"Burkina Faso","placename":"Burkina Faso","title":"2","description":""}},{"type":"Feature","geometry":{"type":"Point","coordinates":[74.766098,41.204379999997]},"properties":{"address":"Kyrgyzstan","placename":"Kyrgyzstan","title":"2","description":""}},{"type":"Feature","geometry":{"type":"Point","coordinates":[-14.452361999999,14.497400999997]},"properties":{"address":"Senegal","placename":"Senegal","title":"2","description":""}},{"type":"Feature","geometry":{"type":"Point","coordinates":[32.290275000002,1.3733329999983]},"properties":{"address":"Uganda","placename":"Uganda","title":"3","description":""}},{"type":"Feature","geometry":{"type":"Point","coordinates":[57.552151999999,-20.348403999997]},"properties":{"address":"Mauricio","placename":"Mauritius","title":"3","description":""}},{"type":"Feature","geometry":{"type":"Point","coordinates":[40.489672999999,9.1449999999959]},"properties":{"address":"Ethiopia","placename":"Ethiopia","title":"3","description":""}},{"type":"Feature","geometry":{"type":"Point","coordinates":[-10.940834999998,21.007889999999]},"properties":{"address":"Mauritania","placename":"Mauritania","title":"3","description":""}},{"type":"Feature","geometry":{"type":"Point","coordinates":[29.154857000003,-19.015437999997]},"properties":{"address":"Zimbabwe","placename":"Zimbabwe","title":"3","description":""}},{"type":"Feature","geometry":{"type":"Point","coordinates":[-85.207229000001,12.865416000002]},"properties":{"address":"Nicaragua","placename":"Nicaragua","title":"4","description":""}},{"type":"Feature","geometry":{"type":"Point","coordinates":[18.732206999998,15.454166000003]},"properties":{"address":"Chad","placename":"Chad","title":"4","description":""}},{"type":"Feature","geometry":{"type":"Point","coordinates":[21.745275000003,41.608635000001]},"properties":{"address":"Macedonia","placename":"Macedonia (FYROM)","title":"4","description":""}},{"type":"Feature","geometry":{"type":"Point","coordinates":[18.490410000001,-22.957640000003]},"properties":{"address":"Namibia","placename":"Namibia","title":"4","description":""}},{"type":"Feature","geometry":{"type":"Point","coordinates":[103.846656,46.862495999999]},"properties":{"address":"Mongolia","placename":"Mongolia","title":"5","description":""}},{"type":"Feature","geometry":{"type":"Point","coordinates":[14.375415999996,35.937496000002]},"properties":{"address":"Malta","placename":"Malta","title":"5","description":""}},{"type":"Feature","geometry":{"type":"Point","coordinates":[-19.020835000001,64.963051000002]},"properties":{"address":"Iceland","placename":"Iceland","title":"5","description":""}},{"type":"Feature","geometry":{"type":"Point","coordinates":[-88.89653,13.794185]},"properties":{"address":"El Salvador","placename":"El Salvador","title":"5","description":""}},{"type":"Feature","geometry":{"type":"Point","coordinates":[104.990963,12.565679000004]},"properties":{"address":"Cambodia","placename":"Cambodia","title":"5","description":""}},{"type":"Feature","geometry":{"type":"Point","coordinates":[34.888821999999,-6.3690280000008]},"properties":{"address":"Tanzania","placename":"Tanzania","title":"5","description":""}},{"type":"Feature","geometry":{"type":"Point","coordinates":[35.862284999998,33.854721000002]},"properties":{"address":"Lebanon","placename":"Lebanon","title":"5","description":""}},{"type":"Feature","geometry":{"type":"Point","coordinates":[12.354721999996,7.3697219999967]},"properties":{"address":"Cameroon","placename":"Cameroon","title":"6","description":""}},{"type":"Feature","geometry":{"type":"Point","coordinates":[37.906193000004,-0.023558999995522]},"properties":{"address":"Kenya","placename":"Kenya","title":"6","description":""}},{"type":"Feature","geometry":{"type":"Point","coordinates":[17.679076000004,43.915885999999]},"properties":{"address":"Bosnia and Herzegovina","placename":"Bosnia and Herzegovina","title":"6","description":""}},{"type":"Feature","geometry":{"type":"Point","coordinates":[24.684865999998,-22.328474000003]},"properties":{"address":"Botswana","placename":"Botswana","title":"6","description":""}},{"type":"Feature","geometry":{"type":"Point","coordinates":[-77.781167000004,21.521757]},"properties":{"address":"Cuba","placename":"Cuba","title":"6","description":""}},{"type":"Feature","geometry":{"type":"Point","coordinates":[143.95555,-6.3149930000017]},"properties":{"address":"Papua New Guinea","placename":"Papua New Guinea","title":"7","description":""}},{"type":"Feature","geometry":{"type":"Point","coordinates":[-86.241905000001,15.199999000004]},"properties":{"address":"Honduras","placename":"Honduras","title":"7","description":""}},{"type":"Feature","geometry":{"type":"Point","coordinates":[48.516388000001,15.552727]},"properties":{"address":"Yemen","placename":"Yemen","title":"8","description":""}},{"type":"Feature","geometry":{"type":"Point","coordinates":[36.238414000001,30.585164000002]},"properties":{"address":"Jordan","placename":"Jordan","title":"8","description":""}},{"type":"Feature","geometry":{"type":"Point","coordinates":[38.996814999996,34.802074999999]},"properties":{"address":"Syria","placename":"Syria","title":"8","description":""}},{"type":"Feature","geometry":{"type":"Point","coordinates":[95.956223000002,21.913964999999]},"properties":{"address":"Burma, Myanmar","placename":"Burma","title":"8","description":""}},{"type":"Feature","geometry":{"type":"Point","coordinates":[-63.588652999998,-16.290154000002]},"properties":{"address":"Bolivia","placename":"Bolivia","title":"8","description":""}},{"type":"Feature","geometry":{"type":"Point","coordinates":[-70.162650999999,18.735693]},"properties":{"address":"Dominican Republic","placename":"Dominican Republic","title":"9","description":""}},{"type":"Feature","geometry":{"type":"Point","coordinates":[30.217635999996,12.862807000002]},"properties":{"address":"Sudan","placename":"Sudan","title":"9","description":""}},{"type":"Feature","geometry":{"type":"Point","coordinates":[27.849332000002,-13.133896999997]},"properties":{"address":"Zambia","placename":"Zambia","title":"9","description":""}},{"type":"Feature","geometry":{"type":"Point","coordinates":[-55.765835000003,-32.522779000001]},"properties":{"address":"Uruguay","placename":"Uruguay","title":"9","description":""}},{"type":"Feature","geometry":{"type":"Point","coordinates":[80.771797000003,7.8730540000028]},"properties":{"address":"Sri Lanka","placename":"Sri Lanka","title":"10","description":""}},{"type":"Feature","geometry":{"type":"Point","coordinates":[-58.443832000003,-23.442502999998]},"properties":{"address":"Paraguay","placename":"Paraguay","title":"10","description":""}},{"type":"Feature","geometry":{"type":"Point","coordinates":[-83.753427999999,9.7489169999974]},"properties":{"address":"Costa Rica","placename":"Costa Rica","title":"10","description":""}},{"type":"Feature","geometry":{"type":"Point","coordinates":[11.609444,-0.80368899999725]},"properties":{"address":"Gabon","placename":"Gabon","title":"11","description":""}},{"type":"Feature","geometry":{"type":"Point","coordinates":[21.758664000001,-4.0383329999964]},"properties":{"address":"DRC","placename":"Democratic Republic of the Congo","title":"11","description":""}},{"type":"Feature","geometry":{"type":"Point","coordinates":[-5.547080000004,7.5399890000007]},"properties":{"address":"Ivory Coast","placename":"C\u00f4te d'Ivoire","title":"11","description":""}},{"type":"Feature","geometry":{"type":"Point","coordinates":[21.005858999997,44.016521000002]},"properties":{"address":"Serbia","placename":"Serbia","title":"12","description":""}},{"type":"Feature","geometry":{"type":"Point","coordinates":[24.603189000003,56.879635000001]},"properties":{"address":"Latvia","placename":"Latvia","title":"12","description":""}},{"type":"Feature","geometry":{"type":"Point","coordinates":[15.200000000002,45.100000000003]},"properties":{"address":"Croatia","placename":"Croatia","title":"12","description":""}},{"type":"Feature","geometry":{"type":"Point","coordinates":[15.827659000004,-0.22802099999814]},"properties":{"address":"Congo","placename":"Congo","title":"12","description":""}},{"type":"Feature","geometry":{"type":"Point","coordinates":[64.585261999999,41.377491000002]},"properties":{"address":"Uzbekistan","placename":"Uzbekistan","title":"13","description":""}},{"type":"Feature","geometry":{"type":"Point","coordinates":[-1.0231940000024,7.9465270000027]},"properties":{"address":"Ghana","placename":"Ghana","title":"13","description":""}},{"type":"Feature","geometry":{"type":"Point","coordinates":[-61.222503000003,10.691803000003]},"properties":{"address":"Trinidad and Tobago","placename":"Trinidad and Tobago","title":"15","description":""}},{"type":"Feature","geometry":{"type":"Point","coordinates":[59.556278000003,38.969718999999]},"properties":{"address":"Turkmenistan","placename":"Turkmenistan","title":"15","description":""}},{"type":"Feature","geometry":{"type":"Point","coordinates":[10.267895000002,1.6508009999994]},"properties":{"address":"Equatorial Guinea","placename":"Equatorial Guinea","title":"16","description":""}},{"type":"Feature","geometry":{"type":"Point","coordinates":[17.228331,26.3351]},"properties":{"address":"Libya","placename":"Libya","title":"16","description":""}},{"type":"Feature","geometry":{"type":"Point","coordinates":[25.013606999999,58.595272000001]},"properties":{"address":"Estonia","placename":"Estonia","title":"17","description":""}},{"type":"Feature","geometry":{"type":"Point","coordinates":[-80.782127000004,8.5379810000007]},"properties":{"address":"Panama","placename":"Panama","title":"17","description":""}},{"type":"Feature","geometry":{"type":"Point","coordinates":[9.5374989999968,33.886917000001]},"properties":{"address":"Tunisia","placename":"Tunisia","title":"18","description":""}},{"type":"Feature","geometry":{"type":"Point","coordinates":[6.129582999999,49.815273000002]},"properties":{"address":"Luxembourg","placename":"Luxembourg","title":"20","description":""}},{"type":"Feature","geometry":{"type":"Point","coordinates":[50.557699999999,26.066700000004]},"properties":{"address":"Bahrain","placename":"Bahrain","title":"20","description":""}},{"type":"Feature","geometry":{"type":"Point","coordinates":[-7.0926199999983,31.791702]},"properties":{"address":"Morocco","placename":"Morocco","title":"21","description":""}},{"type":"Feature","geometry":{"type":"Point","coordinates":[-78.183406000002,-1.8312390000011]},"properties":{"address":"Ecuador","placename":"Ecuador","title":"22","description":""}},{"type":"Feature","geometry":{"type":"Point","coordinates":[90.356330999996,23.684993999998]},"properties":{"address":"Bangladesh","placename":"Bangladesh","title":"24","description":""}},{"type":"Feature","geometry":{"type":"Point","coordinates":[69.345115999996,30.375321000001]},"properties":{"address":"Pakistan","placename":"Pakistan","title":"25","description":""}},{"type":"Feature","geometry":{"type":"Point","coordinates":[30.802498000002,26.820553000001]},"properties":{"address":"Egypt","placename":"Egypt","title":"28","description":""}},{"type":"Feature","geometry":{"type":"Point","coordinates":[25.485830000001,42.733883000002]},"properties":{"address":"Bulgaria","placename":"Bulgaria","title":"28","description":""}},{"type":"Feature","geometry":{"type":"Point","coordinates":[21.824312000004,39.074207999997]},"properties":{"address":"Greece","placename":"Greece","title":"28","description":""}},{"type":"Feature","geometry":{"type":"Point","coordinates":[23.881274999999,55.169437999999]},"properties":{"address":"Lithuania","placename":"Lithuania","title":"29","description":""}},{"type":"Feature","geometry":{"type":"Point","coordinates":[14.995462999997,46.151240999997]},"properties":{"address":"Slovenia","placename":"Slovenia","title":"29","description":""}},{"type":"Feature","geometry":{"type":"Point","coordinates":[47.576927000002,40.143105000001]},"properties":{"address":"Azerbaijan","placename":"Azerbaijan","title":"34","description":""}},{"type":"Feature","geometry":{"type":"Point","coordinates":[174.885971,-40.900556999999]},"properties":{"address":"NZ","placename":"New Zealand","title":"38","description":""}},{"type":"Feature","geometry":{"type":"Point","coordinates":[27.953388999997,53.709807000002]},"properties":{"address":"Belarus","placename":"Belarus","title":"40","description":""}},{"type":"Feature","geometry":{"type":"Point","coordinates":[55.923254999996,21.512583000003]},"properties":{"address":"Oman","placename":"Oman","title":"46","description":""}},{"type":"Feature","geometry":{"type":"Point","coordinates":[-75.015152,-9.1899670000004]},"properties":{"address":"Peru","placename":"Peru","title":"46","description":""}},{"type":"Feature","geometry":{"type":"Point","coordinates":[121.774017,12.879720999999]},"properties":{"address":"Philippines","placename":"Philippines","title":"47","description":""}},{"type":"Feature","geometry":{"type":"Point","coordinates":[-8.2244540000027,39.399871999999]},"properties":{"address":"Portugal","placename":"Portugal","title":"56","description":""}},{"type":"Feature","geometry":{"type":"Point","coordinates":[-74.297332999997,4.5708679999982]},"properties":{"address":"Colombia","placename":"Colombia","title":"56","description":""}},{"type":"Feature","geometry":{"type":"Point","coordinates":[-66.590148999998,18.220833000001]},"properties":{"address":"Puerto Rico","placename":"Puerto Rico","title":"60","description":""}},{"type":"Feature","geometry":{"type":"Point","coordinates":[24.966760000001,45.943161000003]},"properties":{"address":"Romania","placename":"Romania","title":"63","description":""}},{"type":"Feature","geometry":{"type":"Point","coordinates":[34.851612000002,31.046051]},"properties":{"address":"Israel","placename":"Israel","title":"63","description":""}},{"type":"Feature","geometry":{"type":"Point","coordinates":[17.873887000004,-11.202692000003]},"properties":{"address":"Angola","placename":"Angola","title":"66","description":""}},{"type":"Feature","geometry":{"type":"Point","coordinates":[31.16558,48.379433000003]},"properties":{"address":"Ukraine","placename":"Ukraine","title":"69","description":""}},{"type":"Feature","geometry":{"type":"Point","coordinates":[1.6596259999975,28.033885999997]},"properties":{"address":"Algeria","placename":"Algeria","title":"73","description":""}},{"type":"Feature","geometry":{"type":"Point","coordinates":[25.748150999997,61.924109999999]},"properties":{"address":"Finland","placename":"Finland","title":"79","description":""}},{"type":"Feature","geometry":{"type":"Point","coordinates":[-71.542969,-35.675146999998]},"properties":{"address":"Chile","placename":"Chile","title":"82","description":""}},{"type":"Feature","geometry":{"type":"Point","coordinates":[43.679290999998,33.223191000003]},"properties":{"address":"Iraq","placename":"Iraq","title":"83","description":""}},{"type":"Feature","geometry":{"type":"Point","coordinates":[-63.616672000003,-38.416096999997]},"properties":{"address":"Argentina","placename":"Argentina","title":"84","description":""}},{"type":"Feature","geometry":{"type":"Point","coordinates":[19.699023999996,48.669026]},"properties":{"address":"Slovakia","placename":"Slovakia","title":"87","description":""}},{"type":"Feature","geometry":{"type":"Point","coordinates":[66.923684,48.019573000002]},"properties":{"address":"Kazakhstan","placename":"Kazakhstan","title":"89","description":""}},{"type":"Feature","geometry":{"type":"Point","coordinates":[-66.589730000004,6.4237500000005]},"properties":{"address":"Venezuela","placename":"Venezuela","title":"93","description":""}},{"type":"Feature","geometry":{"type":"Point","coordinates":[108.277199,14.058324000001]},"properties":{"address":"Vietnam","placename":"Vietnam","title":"95","description":""}},{"type":"Feature","geometry":{"type":"Point","coordinates":[19.503303999996,47.162493999998]},"properties":{"address":"Hungary","placename":"Hungary","title":"103","description":""}},{"type":"Feature","geometry":{"type":"Point","coordinates":[8.6752770000036,9.0819989999966]},"properties":{"address":"Nigeria","placename":"Nigeria","title":"104","description":""}},{"type":"Feature","geometry":{"type":"Point","coordinates":[47.481765999997,29.311660000002]},"properties":{"address":"Kuwait","placename":"Kuwait","title":"104","description":""}},{"type":"Feature","geometry":{"type":"Point","coordinates":[22.937506000003,-30.559481999999]},"properties":{"address":"South Africa","placename":"South Africa","title":"105","description":""}},{"type":"Feature","geometry":{"type":"Point","coordinates":[51.183884,25.354825999999]},"properties":{"address":"Qatar","placename":"Qatar","title":"107","description":""}},{"type":"Feature","geometry":{"type":"Point","coordinates":[9.5017849999985,56.263920000001]},"properties":{"address":"Denmark","placename":"Denmark","title":"112","description":""}},{"type":"Feature","geometry":{"type":"Point","coordinates":[-8.2438900000022,53.412910000001]},"properties":{"address":"Ireland","placename":"Ireland","title":"119","description":""}},{"type":"Feature","geometry":{"type":"Point","coordinates":[53.688046000001,32.427908000001]},"properties":{"address":"Iran","placename":"Iran","title":"132","description":""}},{"type":"Feature","geometry":{"type":"Point","coordinates":[15.472962000003,49.817492]},"properties":{"address":"Czech Republic","placename":"Czech Republic","title":"139","description":""}},{"type":"Feature","geometry":{"type":"Point","coordinates":[35.243321999997,38.963745000001]},"properties":{"address":"Turkey","placename":"Turkey","title":"144","description":""}},{"type":"Feature","geometry":{"type":"Point","coordinates":[8.4689460000024,60.472024]},"properties":{"address":"Norway","placename":"Norway","title":"162","description":""}},{"type":"Feature","geometry":{"type":"Point","coordinates":[14.550071999996,47.516230999997]},"properties":{"address":"Austria","placename":"Austria","title":"174","description":""}},{"type":"Feature","geometry":{"type":"Point","coordinates":[18.643501000001,60.128160999999]},"properties":{"address":"Sweden","placename":"Sweden","title":"193","description":""}},{"type":"Feature","geometry":{"type":"Point","coordinates":[19.145136,51.919437999998]},"properties":{"address":"Poland","placename":"Poland","title":"194","description":""}},{"type":"Feature","geometry":{"type":"Point","coordinates":[113.921327,-0.78927499999687]},"properties":{"address":"Indonesia","placename":"Indonesia","title":"202","description":""}},{"type":"Feature","geometry":{"type":"Point","coordinates":[100.992541,15.870032]},"properties":{"address":"Thailand","placename":"Thailand","title":"222","description":""}},{"type":"Feature","geometry":{"type":"Point","coordinates":[101.975766,4.2104840000023]},"properties":{"address":"Malaysia","placename":"Malaysia","title":"226","description":""}},{"type":"Feature","geometry":{"type":"Point","coordinates":[53.847818000001,23.424076000003]},"properties":{"address":"United Arab Emirates","placename":"United Arab Emirates","title":"253","description":""}},{"type":"Feature","geometry":{"type":"Point","coordinates":[-51.925279999999,-14.235004]},"properties":{"address":"Brazil","placename":"Brazil","title":"256","description":""}},{"type":"Feature","geometry":{"type":"Point","coordinates":[133.775136,-25.274397999999]},"properties":{"address":"Australia","placename":"Australia","title":"272","description":""}},{"type":"Feature","geometry":{"type":"Point","coordinates":[78.962879999997,20.593684000004]},"properties":{"address":"India","placename":"India","title":"299","description":""}},{"type":"Feature","geometry":{"type":"Point","coordinates":[-3.7492200000004,40.463667000002]},"properties":{"address":"Spain","placename":"Spain","title":"304","description":""}},{"type":"Feature","geometry":{"type":"Point","coordinates":[120.960515,23.697810000004]},"properties":{"address":"Taiwan","placename":"Taiwan","title":"307","description":""}},{"type":"Feature","geometry":{"type":"Point","coordinates":[8.2275120000041,46.818187999999]},"properties":{"address":"Switzerland","placename":"Switzerland","title":"313","description":""}},{"type":"Feature","geometry":{"type":"Point","coordinates":[4.4699360000043,50.503887000001]},"properties":{"address":"Belgium","placename":"Belgium","title":"345","description":""}},{"type":"Feature","geometry":{"type":"Point","coordinates":[-102.552784,23.634501000001]},"properties":{"address":"Mexico","placename":"Mexico","title":"350","description":""}},{"type":"Feature","geometry":{"type":"Point","coordinates":[45.079161999996,23.885942]},"properties":{"address":"Saudi Arabia","placename":"Saudi Arabia","title":"360","description":""}},{"type":"Feature","geometry":{"type":"Point","coordinates":[103.819836,1.3520830000039]},"properties":{"address":"Singapore","placename":"Singapore","title":"415","description":""}},{"type":"Feature","geometry":{"type":"Point","coordinates":[114.109497,22.396428000004]},"properties":{"address":"Hong Kong","placename":"Hong Kong","title":"428","description":""}},{"type":"Feature","geometry":{"type":"Point","coordinates":[-106.346771,56.130366000001]},"properties":{"address":"Canada","placename":"Canada","title":"462","description":""}},{"type":"Feature","geometry":{"type":"Point","coordinates":[-3.4359729999961,55.378051000001]},"properties":{"address":"UK","placename":"United Kingdom","title":"480","description":""}},{"type":"Feature","geometry":{"type":"Point","coordinates":[105.318756,61.52401]},"properties":{"address":"Russia","placename":"Russia","title":"521","description":""}},{"type":"Feature","geometry":{"type":"Point","coordinates":[12.567380000004,41.871939999999]},"properties":{"address":"Italy","placename":"Italy","title":"524","description":""}},{"type":"Feature","geometry":{"type":"Point","coordinates":[5.2912660000021,52.132633000001]},"properties":{"address":"Netherlands","placename":"The Netherlands","title":"552","description":""}},{"type":"Feature","geometry":{"type":"Point","coordinates":[127.766922,35.907756999999]},"properties":{"address":"South Korea","placename":"South Korea","title":"557","description":""}},{"type":"Feature","geometry":{"type":"Point","coordinates":[2.2137489999989,46.227638]},"properties":{"address":"France","placename":"France","title":"587","description":""}},{"type":"Feature","geometry":{"type":"Point","coordinates":[138.252924,36.204824000001]},"properties":{"address":"Japan","placename":"Japan","title":"788","description":""}},{"type":"Feature","geometry":{"type":"Point","coordinates":[10.451526000003,51.165690999999]},"properties":{"address":"Germany","placename":"Germany","title":"1.408","description":""}},{"type":"Feature","geometry":{"type":"Point","coordinates":[-95.712890999999,37.090240000003]},"properties":{"address":"U.S.","placename":"United States","title":"1.497","description":""}},{"type":"Feature","geometry":{"type":"Point","coordinates":[104.195397,35.861660000001]},"properties":{"address":"China","placename":"China","title":"1.904","description":""}},{"type":"Feature","geometry":{"type":"Point","coordinates":[-63.588652999998,-16.290154000002]},"properties":{"address":"Bolivia","placename":"Bolivia","title":"Exportaciones 2011","description":""}},{"type":"Feature","geometry":{"type":"LineString","coordinates":[[-63.588652999998,-16.290154000002],[104.195397,35.861660000001]]},"properties":{"title":"Exportaciones 2011 to 1.904","distance":"17525.394169"}},{"type":"Feature","geometry":{"type":"LineString","coordinates":[[-63.588652999998,-16.290154000002],[-95.712890999999,37.090240000003]]},"properties":{"title":"Exportaciones 2011 to 1.497","distance":"6823.140654"}},{"type":"Feature","geometry":{"type":"LineString","coordinates":[[-63.588652999998,-16.290154000002],[10.451526000003,51.165690999999]]},"properties":{"title":"Exportaciones 2011 to 1.408","distance":"10345.372490"}},{"type":"Feature","geometry":{"type":"LineString","coordinates":[[-63.588652999998,-16.290154000002],[138.252924,36.204824000001]]},"properties":{"title":"Exportaciones 2011 to 788","distance":"16924.171002"}},{"type":"Feature","geometry":{"type":"LineString","coordinates":[[-63.588652999998,-16.290154000002],[2.2137489999989,46.227638]]},"properties":{"distance":"9563.611080","title":"Exportaciones 2011 to 587"}},{"type":"Feature","geometry":{"type":"LineString","coordinates":[[-63.588652999998,-16.290154000002],[127.766922,35.907756999999]]},"properties":{"distance":"17561.179129","title":"Exportaciones 2011 to 557"}},{"type":"Feature","geometry":{"type":"LineString","coordinates":[[-63.588652999998,-16.290154000002],[5.2912660000021,52.132633000001]]},"properties":{"distance":"10065.759757","title":"Exportaciones 2011 to 552"}},{"type":"Feature","geometry":{"type":"LineString","coordinates":[[-63.588652999998,-16.290154000002],[12.567380000004,41.871939999999]]},"properties":{"title":"Exportaciones 2011 to 524","distance":"10110.777346"}},{"type":"Feature","geometry":{"type":"LineString","coordinates":[[-63.588652999998,-16.290154000002],[105.318756,61.52401]]},"properties":{"title":"Exportaciones 2011 to 521","distance":"14909.039869","co2e":"0"}},{"type":"Feature","geometry":{"type":"LineString","coordinates":[[-63.588652999998,-16.290154000002],[-3.4359729999961,55.378051000001]]},"properties":{"distance":"9748.905019","title":"Exportaciones 2011 to 480"}},{"type":"Feature","geometry":{"type":"LineString","coordinates":[[-63.588652999998,-16.290154000002],[-106.346771,56.130366000001]]},"properties":{"title":"Exportaciones 2011 to 462","distance":"8984.700761"}},{"type":"Feature","geometry":{"type":"LineString","coordinates":[[-63.588652999998,-16.290154000002],[114.109497,22.396428000004]]},"properties":{"distance":"19294.481905","title":"Exportaciones 2011 to 428"}},{"type":"Feature","geometry":{"type":"LineString","coordinates":[[-63.588652999998,-16.290154000002],[103.819836,1.3520830000039]]},"properties":{"co2e":"0","distance":"17856.053384","title":"Exportaciones 2011 to 415"}},{"type":"Feature","geometry":{"type":"LineString","coordinates":[[-63.588652999998,-16.290154000002],[45.079161999996,23.885942]]},"properties":{"title":"Exportaciones 2011 to 360","distance":"12591.116954"}},{"type":"Feature","geometry":{"type":"LineString","coordinates":[[-63.588652999998,-16.290154000002],[-102.552784,23.634501000001]]},"properties":{"distance":"6133.639048","title":"Exportaciones 2011 to 350"}},{"type":"Feature","geometry":{"type":"LineString","coordinates":[[-63.588652999998,-16.290154000002],[4.4699360000043,50.503887000001]]},"properties":{"distance":"9933.248807","title":"Exportaciones 2011 to 345"}},{"type":"Feature","geometry":{"type":"LineString","coordinates":[[-63.588652999998,-16.290154000002],[8.2275120000041,46.818187999999]]},"properties":{"title":"Exportaciones 2011 to 313","distance":"10004.734073"}},{"type":"Feature","geometry":{"type":"LineString","coordinates":[[-63.588652999998,-16.290154000002],[120.960515,23.697810000004]]},"properties":{"title":"Exportaciones 2011 to 307","distance":"19064.307549"}},{"type":"Feature","geometry":{"type":"LineString","coordinates":[[-63.588652999998,-16.290154000002],[-3.7492200000004,40.463667000002]]},"properties":{"distance":"8822.911777","title":"Exportaciones 2011 to 304"}},{"type":"Feature","geometry":{"type":"LineString","coordinates":[[-63.588652999998,-16.290154000002],[78.962879999997,20.593684000004]]},"properties":{"distance":"16044.478987","title":"Exportaciones 2011 to 299"}},{"type":"Feature","geometry":{"type":"LineString","coordinates":[[-63.588652999998,-16.290154000002],[133.775136,-25.274397999999]]},"properties":{"distance":"15025.275830","title":"Exportaciones 2011 to 272"}},{"type":"Feature","geometry":{"type":"LineString","coordinates":[[-63.588652999998,-16.290154000002],[-51.925279999999,-14.235004]]},"properties":{"title":"Exportaciones 2011 to 256","distance":"1271.635055"}},{"type":"Feature","geometry":{"type":"LineString","coordinates":[[-63.588652999998,-16.290154000002],[53.847818000001,23.424076000003]]},"properties":{"distance":"13471.615089","title":"Exportaciones 2011 to 253"}},{"type":"Feature","geometry":{"type":"LineString","coordinates":[[-63.588652999998,-16.290154000002],[101.975766,4.2104840000023]]},"properties":{"distance":"17944.205259","title":"Exportaciones 2011 to 226"}},{"type":"Feature","geometry":{"type":"LineString","coordinates":[[-63.588652999998,-16.290154000002],[100.992541,15.870032]]},"properties":{"title":"Exportaciones 2011 to 222","distance":"18367.398724"}},{"type":"Feature","geometry":{"type":"LineString","coordinates":[[-63.588652999998,-16.290154000002],[113.921327,-0.78927499999687]]},"properties":{"title":"Exportaciones 2011 to 202","distance":"18096.380893"}},{"type":"Feature","geometry":{"type":"LineString","coordinates":[[-63.588652999998,-16.290154000002],[19.145136,51.919437999998]]},"properties":{"distance":"10940.520851","title":"Exportaciones 2011 to 194"}},{"type":"Feature","geometry":{"type":"LineString","coordinates":[[-63.588652999998,-16.290154000002],[18.643501000001,60.128160999999]]},"properties":{"title":"Exportaciones 2011 to 193","distance":"11151.668386"}},{"type":"Feature","geometry":{"type":"LineString","coordinates":[[-63.588652999998,-16.290154000002],[14.550071999996,47.516230999997]]},"properties":{"distance":"10476.966897","title":"Exportaciones 2011 to 174"}},{"type":"Feature","geometry":{"type":"LineString","coordinates":[[-63.588652999998,-16.290154000002],[8.4689460000024,60.472024]]},"properties":{"distance":"10635.061946","title":"Exportaciones 2011 to 162"}},{"type":"Feature","geometry":{"type":"LineString","coordinates":[[-63.588652999998,-16.290154000002],[35.243321999997,38.963745000001]]},"properties":{"title":"Exportaciones 2011 to 144","distance":"11888.565944"}},{"type":"Feature","geometry":{"type":"LineString","coordinates":[[-63.588652999998,-16.290154000002],[15.472962000003,49.817492]]},"properties":{"title":"Exportaciones 2011 to 139","distance":"10625.116036"}},{"type":"Feature","geometry":{"type":"LineString","coordinates":[[-63.588652999998,-16.290154000002],[53.688046000001,32.427908000001]]},"properties":{"distance":"13504.306616","title":"Exportaciones 2011 to 132"}},{"type":"Feature","geometry":{"type":"LineString","coordinates":[[-63.588652999998,-16.290154000002],[-8.2438900000022,53.412910000001]]},"properties":{"co2e":"0","title":"Exportaciones 2011 to 119","distance":"9368.759998"}},{"type":"Feature","geometry":{"type":"LineString","coordinates":[[-63.588652999998,-16.290154000002],[9.5017849999985,56.263920000001]]},"properties":{"title":"Exportaciones 2011 to 112","distance":"10506.368269"}},{"type":"Feature","geometry":{"type":"LineString","coordinates":[[-63.588652999998,-16.290154000002],[51.183884,25.354825999999]]},"properties":{"distance":"13223.169759","title":"Exportaciones 2011 to 107"}},{"type":"Feature","geometry":{"type":"LineString","coordinates":[[-63.588652999998,-16.290154000002],[22.937506000003,-30.559481999999]]},"properties":{"title":"Exportaciones 2011 to 105","distance":"8772.136000"}},{"type":"Feature","geometry":{"type":"LineString","coordinates":[[-63.588652999998,-16.290154000002],[47.481765999997,29.311660000002]]},"properties":{"distance":"12897.563530","title":"Exportaciones 2011 to 104"}},{"type":"Feature","geometry":{"type":"LineString","coordinates":[[-63.588652999998,-16.290154000002],[8.6752770000036,9.0819989999966]]},"properties":{"title":"Exportaciones 2011 to 104","distance":"8434.140498"}},{"type":"Feature","geometry":{"type":"LineString","coordinates":[[-63.588652999998,-16.290154000002],[19.503303999996,47.162493999998]]},"properties":{"distance":"10820.087623","title":"Exportaciones 2011 to 103"}},{"type":"Feature","geometry":{"type":"LineString","coordinates":[[-63.588652999998,-16.290154000002],[108.277199,14.058324000001]]},"properties":{"title":"Exportaciones 2011 to 95","distance":"19107.668740"}},{"type":"Feature","geometry":{"type":"LineString","coordinates":[[-63.588652999998,-16.290154000002],[-66.589730000004,6.4237500000005]]},"properties":{"distance":"2547.167875","title":"Exportaciones 2011 to 93"}},{"type":"Feature","geometry":{"type":"LineString","coordinates":[[-63.588652999998,-16.290154000002],[66.923684,48.019573000002]]},"properties":{"distance":"14313.571287","title":"Exportaciones 2011 to 89"}},{"type":"Feature","geometry":{"type":"LineString","coordinates":[[-63.588652999998,-16.290154000002],[19.699023999996,48.669026]]},"properties":{"title":"Exportaciones 2011 to 87","distance":"10880.155605"}},{"type":"Feature","geometry":{"type":"LineString","coordinates":[[-63.588652999998,-16.290154000002],[-63.616672000003,-38.416096999997]]},"properties":{"distance":"2460.294130","title":"Exportaciones 2011 to 84"}},{"type":"Feature","geometry":{"type":"LineString","coordinates":[[-63.588652999998,-16.290154000002],[43.679290999998,33.223191000003]]},"properties":{"distance":"12574.075454","title":"Exportaciones 2011 to 83"}},{"type":"Feature","geometry":{"type":"LineString","coordinates":[[-63.588652999998,-16.290154000002],[-71.542969,-35.675146999998]]},"properties":{"distance":"2295.171596","title":"Exportaciones 2011 to 82"}},{"type":"Feature","geometry":{"type":"LineString","coordinates":[[-63.588652999998,-16.290154000002],[25.748150999997,61.924109999999]]},"properties":{"title":"Exportaciones 2011 to 79","distance":"11566.524621"}},{"type":"Feature","geometry":{"type":"LineString","coordinates":[[-63.588652999998,-16.290154000002],[1.6596259999975,28.033885999997]]},"properties":{"distance":"8575.471420","title":"Exportaciones 2011 to 73"}},{"type":"Feature","geometry":{"type":"LineString","coordinates":[[-63.588652999998,-16.290154000002],[31.16558,48.379433000003]]},"properties":{"distance":"11699.965970","title":"Exportaciones 2011 to 69"}},{"type":"Feature","geometry":{"type":"LineString","coordinates":[[-63.588652999998,-16.290154000002],[17.873887000004,-11.202692000003]]},"properties":{"distance":"8761.883860","title":"Exportaciones 2011 to 66"}},{"type":"Feature","geometry":{"type":"LineString","coordinates":[[-63.588652999998,-16.290154000002],[34.851612000002,31.046051]]},"properties":{"distance":"11718.691900","title":"Exportaciones 2011 to 63"}},{"type":"Feature","geometry":{"type":"LineString","coordinates":[[-63.588652999998,-16.290154000002],[24.966760000001,45.943161000003]]},"properties":{"title":"Exportaciones 2011 to 63","distance":"11191.425848"}},{"type":"Feature","geometry":{"type":"LineString","coordinates":[[-63.588652999998,-16.290154000002],[-66.590148999998,18.220833000001]]},"properties":{"title":"Exportaciones 2011 to 60","distance":"3851.488639"}},{"type":"Feature","geometry":{"type":"LineString","coordinates":[[-63.588652999998,-16.290154000002],[-74.297332999997,4.5708679999982]]},"properties":{"title":"Exportaciones 2011 to 56","distance":"2601.491099"}},{"type":"Feature","geometry":{"type":"LineString","coordinates":[[-63.588652999998,-16.290154000002],[-8.2244540000027,39.399871999999]]},"properties":{"title":"Exportaciones 2011 to 56","distance":"8440.347941"}},{"type":"Feature","geometry":{"type":"LineString","coordinates":[[-63.588652999998,-16.290154000002],[121.774017,12.879720999999]]},"properties":{"title":"Exportaciones 2011 to 47","distance":"19324.648822"}},{"type":"Feature","geometry":{"type":"LineString","coordinates":[[-63.588652999998,-16.290154000002],[-75.015152,-9.1899670000004]]},"properties":{"distance":"1468.548489","title":"Exportaciones 2011 to 46"}},{"type":"Feature","geometry":{"type":"LineString","coordinates":[[-63.588652999998,-16.290154000002],[55.923254999996,21.512583000003]]},"properties":{"distance":"13662.644323","title":"Exportaciones 2011 to 46"}},{"type":"Feature","geometry":{"type":"LineString","coordinates":[[-63.588652999998,-16.290154000002],[27.953388999997,53.709807000002]]},"properties":{"distance":"11560.720578","title":"Exportaciones 2011 to 40"}},{"type":"Feature","geometry":{"type":"LineString","coordinates":[[-63.588652999998,-16.290154000002],[174.885971,-40.900556999999]]},"properties":{"distance":"11262.381502","title":"Exportaciones 2011 to 38"}},{"type":"Feature","geometry":{"type":"LineString","coordinates":[[-63.588652999998,-16.290154000002],[47.576927000002,40.143105000001]]},"properties":{"distance":"12951.157845","title":"Exportaciones 2011 to 34"}},{"type":"Feature","geometry":{"type":"LineString","coordinates":[[-63.588652999998,-16.290154000002],[14.995462999997,46.151240999997]]},"properties":{"title":"Exportaciones 2011 to 29","distance":"10458.206706"}},{"type":"Feature","geometry":{"type":"LineString","coordinates":[[-63.588652999998,-16.290154000002],[23.881274999999,55.169437999999]]},"properties":{"title":"Exportaciones 2011 to 29","distance":"11329.744977"}},{"type":"Feature","geometry":{"type":"LineString","coordinates":[[-63.588652999998,-16.290154000002],[21.824312000004,39.074207999997]]},"properties":{"distance":"10756.037335","title":"Exportaciones 2011 to 28"}},{"type":"Feature","geometry":{"type":"LineString","coordinates":[[-63.588652999998,-16.290154000002],[25.485830000001,42.733883000002]]},"properties":{"distance":"11153.865471","title":"Exportaciones 2011 to 28"}},{"type":"Feature","geometry":{"type":"LineString","coordinates":[[-63.588652999998,-16.290154000002],[30.802498000002,26.820553000001]]},"properties":{"distance":"11239.373256","title":"Exportaciones 2011 to 28"}},{"type":"Feature","geometry":{"type":"LineString","coordinates":[[-63.588652999998,-16.290154000002],[69.345115999996,30.375321000001]]},"properties":{"distance":"15000.439964","title":"Exportaciones 2011 to 25"}},{"type":"Feature","geometry":{"type":"LineString","coordinates":[[-63.588652999998,-16.290154000002],[90.356330999996,23.684993999998]]},"properties":{"distance":"17176.166745","title":"Exportaciones 2011 to 24"}},{"type":"Feature","geometry":{"type":"LineString","coordinates":[[-63.588652999998,-16.290154000002],[-78.183406000002,-1.8312390000011]]},"properties":{"distance":"2266.759372","title":"Exportaciones 2011 to 22"}},{"type":"Feature","geometry":{"type":"LineString","coordinates":[[-63.588652999998,-16.290154000002],[-7.0926199999983,31.791702]]},"properties":{"distance":"8049.208358","title":"Exportaciones 2011 to 21"}},{"type":"Feature","geometry":{"type":"LineString","coordinates":[[-63.588652999998,-16.290154000002],[50.557699999999,26.066700000004]]},"properties":{"title":"Exportaciones 2011 to 20","distance":"13167.945579"}},{"type":"Feature","geometry":{"type":"LineString","coordinates":[[-63.588652999998,-16.290154000002],[6.129582999999,49.815273000002]]},"properties":{"distance":"10005.026234","title":"Exportaciones 2011 to 20"}},{"type":"Feature","geometry":{"type":"LineString","coordinates":[[-63.588652999998,-16.290154000002],[9.5374989999968,33.886917000001]]},"properties":{"distance":"9529.960682","title":"Exportaciones 2011 to 18"}},{"type":"Feature","geometry":{"type":"LineString","coordinates":[[-63.588652999998,-16.290154000002],[-80.782127000004,8.5379810000007]]},"properties":{"distance":"3346.948950","title":"Exportaciones 2011 to 17"}},{"type":"Feature","geometry":{"type":"LineString","coordinates":[[-63.588652999998,-16.290154000002],[25.013606999999,58.595272000001]]},"properties":{"title":"Exportaciones 2011 to 17","distance":"11467.852751"}},{"type":"Feature","geometry":{"type":"LineString","coordinates":[[-63.588652999998,-16.290154000002],[17.228331,26.3351]]},"properties":{"distance":"9925.690464","title":"Exportaciones 2011 to 16"}},{"type":"Feature","geometry":{"type":"LineString","coordinates":[[-63.588652999998,-16.290154000002],[10.267895000002,1.6508009999994]]},"properties":{"distance":"8340.475175","title":"Exportaciones 2011 to 16"}},{"type":"Feature","geometry":{"type":"LineString","coordinates":[[-63.588652999998,-16.290154000002],[59.556278000003,38.969718999999]]},"properties":{"distance":"13984.235730","title":"Exportaciones 2011 to 15"}},{"type":"Feature","geometry":{"type":"LineString","coordinates":[[-63.588652999998,-16.290154000002],[-61.222503000003,10.691803000003]]},"properties":{"distance":"3011.529282","title":"Exportaciones 2011 to 15","co2e":"0"}},{"type":"Feature","geometry":{"type":"LineString","coordinates":[[-63.588652999998,-16.290154000002],[-1.0231940000024,7.9465270000027]]},"properties":{"distance":"7391.243350","title":"Exportaciones 2011 to 13"}},{"type":"Feature","geometry":{"type":"LineString","coordinates":[[-63.588652999998,-16.290154000002],[64.585261999999,41.377491000002]]},"properties":{"distance":"14354.354975","title":"Exportaciones 2011 to 13"}},{"type":"Feature","geometry":{"type":"LineString","coordinates":[[-63.588652999998,-16.290154000002],[15.827659000004,-0.22802099999814]]},"properties":{"distance":"8871.232387","title":"Exportaciones 2011 to 12"}},{"type":"Feature","geometry":{"type":"LineString","coordinates":[[-63.588652999998,-16.290154000002],[15.200000000002,45.100000000003]]},"properties":{"distance":"10434.456768","title":"Exportaciones 2011 to 12"}},{"type":"Feature","geometry":{"type":"LineString","coordinates":[[-63.588652999998,-16.290154000002],[24.603189000003,56.879635000001]]},"properties":{"distance":"11410.136505","title":"Exportaciones 2011 to 12"}},{"type":"Feature","geometry":{"type":"LineString","coordinates":[[-63.588652999998,-16.290154000002],[21.005858999997,44.016521000002]]},"properties":{"distance":"10837.386797","title":"Exportaciones 2011 to 12"}},{"type":"Feature","geometry":{"type":"LineString","coordinates":[[-63.588652999998,-16.290154000002],[-5.547080000004,7.5399890000007]]},"properties":{"distance":"6912.955704","title":"Exportaciones 2011 to 11"}},{"type":"Feature","geometry":{"type":"LineString","coordinates":[[-63.588652999998,-16.290154000002],[21.758664000001,-4.0383329999964]]},"properties":{"title":"Exportaciones 2011 to 11","distance":"9385.896994"}},{"type":"Feature","geometry":{"type":"LineString","coordinates":[[-63.588652999998,-16.290154000002],[11.609444,-0.80368899999725]]},"properties":{"title":"Exportaciones 2011 to 11","distance":"8403.430327"}},{"type":"Feature","geometry":{"type":"LineString","coordinates":[[-63.588652999998,-16.290154000002],[-83.753427999999,9.7489169999974]]},"properties":{"distance":"3647.854334","title":"Exportaciones 2011 to 10"}},{"type":"Feature","geometry":{"type":"LineString","coordinates":[[-63.588652999998,-16.290154000002],[-58.443832000003,-23.442502999998]]},"properties":{"distance":"959.918157","title":"Exportaciones 2011 to 10"}},{"type":"Feature","geometry":{"type":"LineString","coordinates":[[-63.588652999998,-16.290154000002],[80.771797000003,7.8730540000028]]},"properties":{"title":"Exportaciones 2011 to 10","distance":"16035.155031"}},{"type":"Feature","geometry":{"type":"LineString","coordinates":[[-63.588652999998,-16.290154000002],[-55.765835000003,-32.522779000001]]},"properties":{"title":"Exportaciones 2011 to 9","distance":"1969.378692"}},{"type":"Feature","geometry":{"type":"LineString","coordinates":[[-63.588652999998,-16.290154000002],[27.849332000002,-13.133896999997]]},"properties":{"title":"Exportaciones 2011 to 9","distance":"9750.847946"}},{"type":"Feature","geometry":{"type":"LineString","coordinates":[[-63.588652999998,-16.290154000002],[30.217635999996,12.862807000002]]},"properties":{"distance":"10803.207092","title":"Exportaciones 2011 to 9"}},{"type":"Feature","geometry":{"type":"LineString","coordinates":[[-63.588652999998,-16.290154000002],[-70.162650999999,18.735693]]},"properties":{"title":"Exportaciones 2011 to 9","distance":"3960.556288"}},{"type":"Feature","geometry":{"type":"LineString","coordinates":[[-63.588652999998,-16.290154000002],[-63.588652999998,-16.290154000002]]},"properties":{"distance":"0","title":"Exportaciones 2011 to 8"}},{"type":"Feature","geometry":{"type":"LineString","coordinates":[[-63.588652999998,-16.290154000002],[95.956223000002,21.913964999999]]},"properties":{"title":"Exportaciones 2011 to 8","distance":"17779.014559"}},{"type":"Feature","geometry":{"type":"LineString","coordinates":[[-63.588652999998,-16.290154000002],[38.996814999996,34.802074999999]]},"properties":{"title":"Exportaciones 2011 to 8","distance":"12162.501095"}},{"type":"Feature","geometry":{"type":"LineString","coordinates":[[-63.588652999998,-16.290154000002],[36.238414000001,30.585164000002]]},"properties":{"distance":"11840.532641","title":"Exportaciones 2011 to 8"}},{"type":"Feature","geometry":{"type":"LineString","coordinates":[[-63.588652999998,-16.290154000002],[48.516388000001,15.552727]]},"properties":{"distance":"12791.382642","title":"Exportaciones 2011 to 8"}},{"type":"Feature","geometry":{"type":"LineString","coordinates":[[-63.588652999998,-16.290154000002],[-86.241905000001,15.199999000004]]},"properties":{"title":"Exportaciones 2011 to 7","distance":"4294.678013"}},{"type":"Feature","geometry":{"type":"LineString","coordinates":[[-63.588652999998,-16.290154000002],[143.95555,-6.3149930000017]]},"properties":{"title":"Exportaciones 2011 to 7","distance":"16077.827556"}},{"type":"Feature","geometry":{"type":"LineString","coordinates":[[-63.588652999998,-16.290154000002],[-77.781167000004,21.521757]]},"properties":{"title":"Exportaciones 2011 to 6","distance":"4480.124421"}},{"type":"Feature","geometry":{"type":"LineString","coordinates":[[-63.588652999998,-16.290154000002],[24.684865999998,-22.328474000003]]},"properties":{"distance":"9155.641437","title":"Exportaciones 2011 to 6"}},{"type":"Feature","geometry":{"type":"LineString","coordinates":[[-63.588652999998,-16.290154000002],[17.679076000004,43.915885999999]]},"properties":{"title":"Exportaciones 2011 to 6","distance":"10579.048598"}},{"type":"Feature","geometry":{"type":"LineString","coordinates":[[-63.588652999998,-16.290154000002],[37.906193000004,-0.023558999995522]]},"properties":{"title":"Exportaciones 2011 to 6","distance":"11232.992049"}},{"type":"Feature","geometry":{"type":"LineString","coordinates":[[-63.588652999998,-16.290154000002],[12.354721999996,7.3697219999967]]},"properties":{"distance":"8755.734399","title":"Exportaciones 2011 to 6"}},{"type":"Feature","geometry":{"type":"LineString","coordinates":[[-63.588652999998,-16.290154000002],[35.862284999998,33.854721000002]]},"properties":{"title":"Exportaciones 2011 to 5","distance":"11863.117039"}},{"type":"Feature","geometry":{"type":"LineString","coordinates":[[-63.588652999998,-16.290154000002],[34.888821999999,-6.3690280000008]]},"properties":{"title":"Exportaciones 2011 to 5","distance":"10706.648252"}},{"type":"Feature","geometry":{"type":"LineString","coordinates":[[-63.588652999998,-16.290154000002],[104.990963,12.565679000004]]},"properties":{"title":"Exportaciones 2011 to 5","distance":"18717.756148"}},{"type":"Feature","geometry":{"type":"LineString","coordinates":[[-63.588652999998,-16.290154000002],[-88.89653,13.794185]]},"properties":{"distance":"4349.984679","title":"Exportaciones 2011 to 5"}},{"type":"Feature","geometry":{"type":"LineString","coordinates":[[-63.588652999998,-16.290154000002],[-19.020835000001,64.963051000002]]},"properties":{"distance":"9782.921481","title":"Exportaciones 2011 to 5"}},{"type":"Feature","geometry":{"type":"LineString","coordinates":[[-63.588652999998,-16.290154000002],[14.375415999996,35.937496000002]]},"properties":{"title":"Exportaciones 2011 to 5","distance":"10023.925222"}},{"type":"Feature","geometry":{"type":"LineString","coordinates":[[-63.588652999998,-16.290154000002],[103.846656,46.862495999999]]},"properties":{"distance":"16423.586822","co2e":"0","title":"Exportaciones 2011 to 5"}},{"type":"Feature","geometry":{"type":"LineString","coordinates":[[-63.588652999998,-16.290154000002],[18.490410000001,-22.957640000003]]},"properties":{"distance":"8521.074201","title":"Exportaciones 2011 to 4"}},{"type":"Feature","geometry":{"type":"LineString","coordinates":[[-63.588652999998,-16.290154000002],[21.745275000003,41.608635000001]]},"properties":{"title":"Exportaciones 2011 to 4","distance":"10824.516606"}},{"type":"Feature","geometry":{"type":"LineString","coordinates":[[-63.588652999998,-16.290154000002],[18.732206999998,15.454166000003]]},"properties":{"title":"Exportaciones 2011 to 4","distance":"9696.012424"}},{"type":"Feature","geometry":{"type":"LineString","coordinates":[[-63.588652999998,-16.290154000002],[-85.207229000001,12.865416000002]]},"properties":{"distance":"4019.687556","title":"Exportaciones 2011 to 4"}},{"type":"Feature","geometry":{"type":"LineString","coordinates":[[-63.588652999998,-16.290154000002],[29.154857000003,-19.015437999997]]},"properties":{"title":"Exportaciones 2011 to 3","distance":"9701.888174"}},{"type":"Feature","geometry":{"type":"LineString","coordinates":[[-63.588652999998,-16.290154000002],[-10.940834999998,21.007889999999]]},"properties":{"title":"Exportaciones 2011 to 3","distance":"7082.998741"}},{"type":"Feature","geometry":{"type":"LineString","coordinates":[[-63.588652999998,-16.290154000002],[40.489672999999,9.1449999999959]]},"properties":{"title":"Exportaciones 2011 to 3","distance":"11783.074260"}},{"type":"Feature","geometry":{"type":"LineString","coordinates":[[-63.588652999998,-16.290154000002],[57.552151999999,-20.348403999997]]},"properties":{"distance":"12407.587870","title":"Exportaciones 2011 to 3","co2e":"0"}},{"type":"Feature","geometry":{"type":"LineString","coordinates":[[-63.588652999998,-16.290154000002],[32.290275000002,1.3733329999983]]},"properties":{"title":"Exportaciones 2011 to 3","distance":"10677.792319"}},{"type":"Feature","geometry":{"type":"LineString","coordinates":[[-63.588652999998,-16.290154000002],[-14.452361999999,14.497400999997]]},"properties":{"distance":"6390.079631","title":"Exportaciones 2011 to 2"}},{"type":"Feature","geometry":{"type":"LineString","coordinates":[[-63.588652999998,-16.290154000002],[74.766098,41.204379999997]]},"properties":{"distance":"15169.378416","title":"Exportaciones 2011 to 2"}},{"type":"Feature","geometry":{"type":"LineString","coordinates":[[-63.588652999998,-16.290154000002],[-1.5615929999969,12.238332999997]]},"properties":{"title":"Exportaciones 2011 to 2","distance":"7520.489483"}},{"type":"Feature","geometry":{"type":"LineString","coordinates":[[-63.588652999998,-16.290154000002],[102.495496,19.856269999998]]},"properties":{"title":"Exportaciones 2011 to 2","distance":"18492.193244"}},{"type":"Feature","geometry":{"type":"LineString","coordinates":[[-63.588652999998,-16.290154000002],[31.465865999997,-26.522503000001]]},"properties":{"distance":"9691.468496","title":"Exportaciones 2011 to 2"}},{"type":"Feature","geometry":{"type":"LineString","coordinates":[[-63.588652999998,-16.290154000002],[20.168330999998,41.153331999997]]},"properties":{"distance":"10684.131452","title":"Exportaciones 2011 to 2"}},{"type":"Feature","geometry":{"type":"LineString","coordinates":[[-63.588652999998,-16.290154000002],[2.3158340000022,9.3076899999976]]},"properties":{"title":"Exportaciones 2011 to 2","distance":"7788.240909"}},{"type":"Feature","geometry":{"type":"LineString","coordinates":[[-63.588652999998,-16.290154000002],[-9.6966449999987,9.9455870000035]]},"properties":{"distance":"6607.478498","title":"Exportaciones 2011 to 2"}},{"type":"Feature","geometry":{"type":"LineString","coordinates":[[-63.588652999998,-16.290154000002],[-77.297508,18.109580999997]]},"properties":{"distance":"4109.008523","title":"Exportaciones 2011 to 2"}},{"type":"Feature","geometry":{"type":"LineString","coordinates":[[-63.588652999998,-16.290154000002],[-56.027783,3.9193050000025]]},"properties":{"distance":"2396.028263","title":"Exportaciones 2011 to 2"}},{"type":"Feature","geometry":{"type":"LineString","coordinates":[[-63.588652999998,-16.290154000002],[46.869106999996,-18.766946999998]]},"properties":{"title":"Exportaciones 2011 to 1","distance":"11469.133529"}},{"type":"Feature","geometry":{"type":"LineString","coordinates":[[-63.588652999998,-16.290154000002],[45.038188999998,40.069099000001]]},"properties":{"distance":"12735.216456","title":"Exportaciones 2011 to 1"}},{"type":"Feature","geometry":{"type":"LineString","coordinates":[[-63.588652999998,-16.290154000002],[71.276093,38.861034000001]]},"properties":{"distance":"14976.617432","title":"Exportaciones 2011 to 1"}},{"type":"Feature","geometry":{"type":"LineString","coordinates":[[-63.588652999998,-16.290154000002],[-58.93018,4.8604159999962]]},"properties":{"distance":"2407.005954","title":"Exportaciones 2011 to 1"}},{"type":"Feature","geometry":{"type":"LineString","coordinates":[[-63.588652999998,-16.290154000002],[8.0816659999972,17.607788999999]]},"properties":{"distance":"8706.057507","title":"Exportaciones 2011 to 1"}},{"type":"Feature","geometry":{"type":"LineString","coordinates":[[-63.588652999998,-16.290154000002],[28.233608000001,-29.609988000003]]},"properties":{"distance":"9292.121976","title":"Exportaciones 2011 to 1"}},{"type":"Feature","geometry":{"type":"LineString","coordinates":[[-63.588652999998,-16.290154000002],[34.301525000002,-13.254308]]},"properties":{"distance":"10415.196532","title":"Exportaciones 2011 to 1"}},{"type":"Feature","geometry":{"type":"LineString","coordinates":[[-63.588652999998,-16.290154000002],[0.82478199999589,8.6195430000029]]},"properties":{"distance":"7607.857685","title":"Exportaciones 2011 to 1"}},{"type":"Feature","geometry":{"type":"LineString","coordinates":[[-63.588652999998,-16.290154000002],[178.065032,-17.713371000002]]},"properties":{"distance":"12277.386171","title":"Exportaciones 2011 to 1"}},{"type":"Feature","geometry":{"type":"LineString","coordinates":[[-63.588652999998,-16.290154000002],[84.124007999998,28.394856999998]]},"properties":{"distance":"16446.770341","title":"Exportaciones 2011 to 1"}},{"type":"Feature","geometry":{"type":"LineString","coordinates":[[-63.588652999998,-16.290154000002],[-77.396280000003,25.034279999999]]},"properties":{"distance":"4832.565863","title":"Exportaciones 2011 to 1"}},{"type":"Feature","geometry":{"type":"LineString","coordinates":[[-63.588652999998,-16.290154000002],[-88.497649999997,17.189876999996]]},"properties":{"distance":"4616.288734","title":"Exportaciones 2011 to 1"}}],"properties":{"sm:ui:tileset":"terrain","tags":"","description":"Exportaciones de Bolivia hacia los distintos pa\u00edses de destino en el mundo.","title":"Exportaciones pa\u00edses de destino"}}