{"supplychain":{"category":null,"created":1371235807,"enable_comments":true,"flags":0,"id":6198,"modified":1371236239,"other_perms":1,"passcode":null,"user_featured":false,"usergroup_id":null,"usergroup_perms":0,"user_id":3803,"owner":{"id":3803,"name":"marianet","avatar":"http:\/\/free.sourcemap.com\/assets\/images\/default-user.png","banner_url":null,"display_name":null},"taxonomy":null,"attributes":{"sm:ui:co2e":"1","title":"Exportaciones Bolivia reducido","description":"","tags":""},"stops":[{"local_stop_id":130,"id":130,"geometry":"POINT(1163458.552333 6650655.041174)","attributes":{"description":"","title":"50397","placename":"Germany","address":"Alemania"}},{"local_stop_id":129,"id":129,"geometry":"POINT(-7078656.47219 -1838348.789522)","attributes":{"description":"","title":"50397","placename":"Bolivia","address":"Bolivia"}},{"local_stop_id":128,"id":128,"geometry":"POINT(184748.721227 3253246.71111)","attributes":{"description":"","title":"6152","placename":"Algeria","address":"Argelia"}},{"local_stop_id":127,"id":127,"geometry":"POINT(-7078656.47219 -1838348.789522)","attributes":{"description":"","title":"6152","placename":"Bolivia","address":"Bolivia"}},{"local_stop_id":126,"id":126,"geometry":"POINT(-7081775.533003 -4638374.275084)","attributes":{"description":"","title":"1056538","placename":"Argentina","address":"Argentina"}},{"local_stop_id":125,"id":125,"geometry":"POINT(-7078656.47219 -1838348.789522)","attributes":{"description":"","title":"1056538","placename":"Bolivia","address":"Bolivia"}},{"local_stop_id":124,"id":124,"geometry":"POINT(14891780.020321 -2909486.054997)","attributes":{"description":"","title":"125083","placename":"Australia","address":"Australia"}},{"local_stop_id":123,"id":123,"geometry":"POINT(-7078656.47219 -1838348.789522)","attributes":{"description":"","title":"125083","placename":"Bolivia","address":"Bolivia"}},{"local_stop_id":122,"id":122,"geometry":"POINT(1619706.606045 6026746.974644)","attributes":{"description":"","title":"3934","placename":"Austria","address":"Austria"}},{"local_stop_id":121,"id":121,"geometry":"POINT(-7078656.47219 -1838348.789522)","attributes":{"description":"","title":"3934","placename":"Bolivia","address":"Bolivia"}},{"local_stop_id":120,"id":120,"geometry":"POINT(497590.999399 6534001.856289)","attributes":{"description":"","title":"375703","placename":"Belgium","address":"B\u00e9lgica"}},{"local_stop_id":119,"id":119,"geometry":"POINT(-7078656.47219 -1838348.789522)","attributes":{"description":"","title":"375703","placename":"Bolivia","address":"Bolivia"}},{"local_stop_id":118,"id":118,"geometry":"POINT(-5780295.728898 -1601191.813438)","attributes":{"description":"","title":"3030088","placename":"Brazil","address":"Brasil"}},{"local_stop_id":117,"id":117,"geometry":"POINT(-7078656.47219 -1838348.789522)","attributes":{"description":"","title":"3030088","placename":"Bolivia","address":"Bolivia"}},{"local_stop_id":116,"id":116,"geometry":"POINT(2837069.618044 5271553.447419)","attributes":{"description":"","title":"8549","placename":"Bulgaria","address":"Bulgaria"}},{"local_stop_id":115,"id":115,"geometry":"POINT(-7078656.47219 -1838348.789522)","attributes":{"description":"","title":"8549","placename":"Bolivia","address":"Bolivia"}},{"local_stop_id":114,"id":114,"geometry":"POINT(-11838468.395229 7584411.732747)","attributes":{"description":"","title":"194197","placename":"Canada","address":"Canada"}},{"local_stop_id":113,"id":113,"geometry":"POINT(-7078656.47219 -1838348.789522)","attributes":{"description":"","title":"194197","placename":"Bolivia","address":"Bolivia"}},{"local_stop_id":112,"id":112,"geometry":"POINT(-7964126.878919 -4256013.675159)","attributes":{"description":"","title":"149528","placename":"Chile","address":"Chile"}},{"local_stop_id":111,"id":111,"geometry":"POINT(-7078656.47219 -1838348.789522)","attributes":{"description":"","title":"149528","placename":"Bolivia","address":"Bolivia"}},{"local_stop_id":110,"id":110,"geometry":"POINT(11598978.537043 4281602.659627)","attributes":{"description":"","title":"332917","placename":"China","address":"China"}},{"local_stop_id":109,"id":109,"geometry":"POINT(-7078656.47219 -1838348.789522)","attributes":{"description":"","title":"332917","placename":"Bolivia","address":"Bolivia"}},{"local_stop_id":108,"id":108,"geometry":"POINT(-8270741.276858 509367.281339)","attributes":{"description":"","title":"251665","placename":"Colombia","address":"Colombia"}},{"local_stop_id":107,"id":107,"geometry":"POINT(-7078656.47219 -1838348.789522)","attributes":{"description":"","title":"251665","placename":"Bolivia","address":"Bolivia"}},{"local_stop_id":106,"id":106,"geometry":"POINT(14222948.697264 4287936.289399)","attributes":{"description":"","title":"419078","placename":"South Korea","address":"Corea del Sur"}},{"local_stop_id":105,"id":105,"geometry":"POINT(-7078656.47219 -1838348.789522)","attributes":{"description":"","title":"419078","placename":"Bolivia","address":"Bolivia"}},{"local_stop_id":104,"id":104,"geometry":"POINT(-9323388.957151 1090519.231591)","attributes":{"description":"","title":"958","placename":"Costa Rica","address":"Costa Rica"}},{"local_stop_id":103,"id":103,"geometry":"POINT(-7078656.47219 -1838348.789522)","attributes":{"description":"","title":"958","placename":"Bolivia","address":"Bolivia"}},{"local_stop_id":102,"id":102,"geometry":"POINT(1057733.867827 7611135.068229)","attributes":{"description":"","title":"1375","placename":"Denmark","address":"Dinamarca"}},{"local_stop_id":101,"id":101,"geometry":"POINT(-7078656.47219 -1838348.789522)","attributes":{"description":"","title":"1375","placename":"Bolivia","address":"Bolivia"}},{"local_stop_id":100,"id":100,"geometry":"POINT(-8703336.944404 -203887.308284)","attributes":{"description":"","title":"81530","placename":"Ecuador","address":"Ecuador"}},{"local_stop_id":99,"id":99,"geometry":"POINT(-7078656.47219 -1838348.789522)","attributes":{"description":"","title":"81530","placename":"Bolivia","address":"Bolivia"}},{"local_stop_id":98,"id":98,"geometry":"POINT(-417361.261272 4933551.652462)","attributes":{"description":"","title":"93595","placename":"Spain","address":"Espa\u00f1a"}},{"local_stop_id":97,"id":97,"geometry":"POINT(-7078656.47219 -1838348.789522)","attributes":{"description":"","title":"93595","placename":"Bolivia","address":"Bolivia"}},{"local_stop_id":96,"id":96,"geometry":"POINT(-10654710.288472 4451692.554811)","attributes":{"description":"","title":"876510","placename":"United States","address":"Estados Unidos"}},{"local_stop_id":95,"id":95,"geometry":"POINT(-7078656.47219 -1838348.789522)","attributes":{"description":"","title":"876510","placename":"Bolivia","address":"Bolivia"}},{"local_stop_id":94,"id":94,"geometry":"POINT(246433.411424 5816903.713427)","attributes":{"description":"","title":"18326","placename":"France","address":"Francia"}},{"local_stop_id":93,"id":93,"geometry":"POINT(-7078656.47219 -1838348.789522)","attributes":{"description":"","title":"18326","placename":"Bolivia","address":"Bolivia"}},{"local_stop_id":92,"id":92,"geometry":"POINT(12702611.100717 2559188.1802)","attributes":{"description":"","title":"2937","placename":"Hong Kong","address":"Hong Kong"}},{"local_stop_id":91,"id":91,"geometry":"POINT(-7078656.47219 -1838348.789522)","attributes":{"description":"","title":"2937","placename":"Bolivia","address":"Bolivia"}},{"local_stop_id":90,"id":90,"geometry":"POINT(8790107.59317 2343495.165705)","attributes":{"description":"","title":"11317","placename":"India","address":"India"}},{"local_stop_id":89,"id":89,"geometry":"POINT(-7078656.47219 -1838348.789522)","attributes":{"description":"","title":"11317","placename":"Bolivia","address":"Bolivia"}},{"local_stop_id":88,"id":88,"geometry":"POINT(3879663.701165 3638731.187583)","attributes":{"description":"","title":"5021","placename":"Israel","address":"Israel"}},{"local_stop_id":87,"id":87,"geometry":"POINT(-7078656.47219 -1838348.789522)","attributes":{"description":"","title":"5021","placename":"Bolivia","address":"Bolivia"}},{"local_stop_id":86,"id":86,"geometry":"POINT(1398994.342206 5141815.937641)","attributes":{"description":"","title":"39212","placename":"Italy","address":"Italia"}},{"local_stop_id":85,"id":85,"geometry":"POINT(-7078656.47219 -1838348.789522)","attributes":{"description":"","title":"39212","placename":"Bolivia","address":"Bolivia"}},{"local_stop_id":84,"id":84,"geometry":"POINT(15390245.100361 4328841.562513)","attributes":{"description":"","title":"539830","placename":"Japan","address":"Jap\u00f3n"}},{"local_stop_id":83,"id":83,"geometry":"POINT(-7078656.47219 -1838348.789522)","attributes":{"description":"","title":"539830","placename":"Bolivia","address":"Bolivia"}},{"local_stop_id":82,"id":82,"geometry":"POINT(11351890.344374 469131.367658)","attributes":{"description":"","title":"3866","placename":"Malaysia","address":"Malasia"}},{"local_stop_id":81,"id":81,"geometry":"POINT(-7078656.47219 -1838348.789522)","attributes":{"description":"","title":"3866","placename":"Bolivia","address":"Bolivia"}},{"local_stop_id":80,"id":80,"geometry":"POINT(-11416123.694313 2708933.292233)","attributes":{"description":"","title":"52705","placename":"Mexico","address":"M\u00e9xico"}},{"local_stop_id":79,"id":79,"geometry":"POINT(-7078656.47219 -1838348.789522)","attributes":{"description":"","title":"52705","placename":"Bolivia","address":"Bolivia"}},{"local_stop_id":78,"id":78,"geometry":"POINT(0 -0)","attributes":{"description":"","title":"931","address":"No Declarados"}},{"local_stop_id":77,"id":77,"geometry":"POINT(-7078656.47219 -1838348.789522)","attributes":{"description":"","title":"931","placename":"Bolivia","address":"Bolivia"}},{"local_stop_id":76,"id":76,"geometry":"POINT(942758.756276 8505587.038689)","attributes":{"description":"","title":"1438","placename":"Norway","address":"Noruega"}},{"local_stop_id":75,"id":75,"geometry":"POINT(-7078656.47219 -1838348.789522)","attributes":{"description":"","title":"1438","placename":"Bolivia","address":"Bolivia"}},{"local_stop_id":74,"id":74,"geometry":"POINT(19468217.238607 -4997684.890551)","attributes":{"description":"","title":"2781","placename":"New Zealand","address":"Nueva Zelandia"}},{"local_stop_id":73,"id":73,"geometry":"POINT(-7078656.47219 -1838348.789522)","attributes":{"description":"","title":"2781","placename":"Bolivia","address":"Bolivia"}},{"local_stop_id":72,"id":72,"geometry":"POINT(589021.036772 6824142.821624)","attributes":{"description":"","title":"47322","placename":"The Netherlands","address":"Paises Bajos"}},{"local_stop_id":71,"id":71,"geometry":"POINT(-7078656.47219 -1838348.789522)","attributes":{"description":"","title":"47322","placename":"Bolivia","address":"Bolivia"}},{"local_stop_id":70,"id":70,"geometry":"POINT(-8992625.242838 953980.901355)","attributes":{"description":"","title":"47730","placename":"Panama","address":"Panama"}},{"local_stop_id":69,"id":69,"geometry":"POINT(-7078656.47219 -1838348.789522)","attributes":{"description":"","title":"47730","placename":"Bolivia","address":"Bolivia"}},{"local_stop_id":68,"id":68,"geometry":"POINT(-6505937.618248 -2685620.33203)","attributes":{"description":"","title":"26223","placename":"Paraguay","address":"Paraguay"}},{"local_stop_id":67,"id":67,"geometry":"POINT(-7078656.47219 -1838348.789522)","attributes":{"description":"","title":"26223","placename":"Bolivia","address":"Bolivia"}},{"local_stop_id":66,"id":66,"geometry":"POINT(-8350648.52242 -1027437.355768)","attributes":{"description":"","title":"457125","placename":"Peru","address":"Per\u00fa"}},{"local_stop_id":65,"id":65,"geometry":"POINT(-7078656.47219 -1838348.789522)","attributes":{"description":"","title":"457125","placename":"Bolivia","address":"Bolivia"}},{"local_stop_id":64,"id":64,"geometry":"POINT(2131226.790688 6785571.898792)","attributes":{"description":"","title":"5145","placename":"Poland","address":"Polonia"}},{"local_stop_id":63,"id":63,"geometry":"POINT(-7078656.47219 -1838348.789522)","attributes":{"description":"","title":"5145","placename":"Bolivia","address":"Bolivia"}},{"local_stop_id":62,"id":62,"geometry":"POINT(-915542.031333 4779112.741647)","attributes":{"description":"","title":"2051","placename":"Portugal","address":"Portugal"}},{"local_stop_id":61,"id":61,"geometry":"POINT(-7078656.47219 -1838348.789522)","attributes":{"description":"","title":"2051","placename":"Bolivia","address":"Bolivia"}},{"local_stop_id":60,"id":60,"geometry":"POINT(-382490.764739 7435586.530983)","attributes":{"description":"","title":"155697","placename":"United Kingdom","address":"Reino Unido"}},{"local_stop_id":59,"id":59,"geometry":"POINT(-7078656.47219 -1838348.789522)","attributes":{"description":"","title":"155697","placename":"Bolivia","address":"Bolivia"}},{"local_stop_id":58,"id":58,"geometry":"POINT(-7810470.582026 2123842.626161)","attributes":{"description":"","title":"2029","placename":"Dominican Republic","address":"Rep\u00fablica Dominicana"}},{"local_stop_id":57,"id":57,"geometry":"POINT(-7078656.47219 -1838348.789522)","attributes":{"description":"","title":"2029","placename":"Bolivia","address":"Bolivia"}},{"local_stop_id":56,"id":56,"geometry":"POINT(11724030.288901 8747149.04879)","attributes":{"description":"","title":"13235","placename":"Russia","address":"Rusia"}},{"local_stop_id":55,"id":55,"geometry":"POINT(0 -0)","attributes":{"description":"","title":"13235","address":"Federaci\u00e0n de"}},{"local_stop_id":54,"id":54,"geometry":"POINT(-410306.266091 4928730.682294)","attributes":{"description":"","title":"1230","placename":"Embajada Rep\u00fablica de Sud\u00e1frica, Calle de Claudio Coello, 91, 28006 Madrid, Spain","address":"Sud\u00e1frica. Rep\u00fablica de"}},{"local_stop_id":53,"id":53,"geometry":"POINT(-7078656.47219 -1838348.789522)","attributes":{"description":"","title":"1230","placename":"Bolivia","address":"Bolivia"}},{"local_stop_id":52,"id":52,"geometry":"POINT(2075385.037924 8428326.96544)","attributes":{"description":"","title":"939","placename":"Sweden","address":"Suecia"}},{"local_stop_id":51,"id":51,"geometry":"POINT(-7078656.47219 -1838348.789522)","attributes":{"description":"","title":"939","placename":"Bolivia","address":"Bolivia"}},{"local_stop_id":50,"id":50,"geometry":"POINT(915882.446336 5912448.054871)","attributes":{"description":"","title":"306028","placename":"Switzerland","address":"Suiza"}},{"local_stop_id":49,"id":49,"geometry":"POINT(-7078656.47219 -1838348.789522)","attributes":{"description":"","title":"306028","placename":"Bolivia","address":"Bolivia"}},{"local_stop_id":48,"id":48,"geometry":"POINT(11242438.238039 1789676.623494)","attributes":{"description":"","title":"2106","placename":"Thailand","address":"Tailandia"}},{"local_stop_id":47,"id":47,"geometry":"POINT(-7078656.47219 -1838348.789522)","attributes":{"description":"","title":"2106","placename":"Bolivia","address":"Bolivia"}},{"local_stop_id":46,"id":46,"geometry":"POINT(13465262.935892 2716627.939237)","attributes":{"description":"","title":"1539","placename":"Taiwan","address":"Taiw\u00e1n"}},{"local_stop_id":45,"id":45,"geometry":"POINT(-7078656.47219 -1838348.789522)","attributes":{"description":"","title":"1539","placename":"Bolivia","address":"Bolivia"}},{"local_stop_id":44,"id":44,"geometry":"POINT(3923268.658903 4716479.684629)","attributes":{"description":"","title":"740","placename":"Turkey","address":"Turquia"}},{"local_stop_id":43,"id":43,"geometry":"POINT(-7078656.47219 -1838348.789522)","attributes":{"description":"","title":"740","placename":"Bolivia","address":"Bolivia"}},{"local_stop_id":42,"id":42,"geometry":"POINT(-6207824.355862 -3832130.824994)","attributes":{"description":"","title":"6754","placename":"Uruguay","address":"Uruguay"}},{"local_stop_id":41,"id":41,"geometry":"POINT(-7078656.47219 -1838348.789522)","attributes":{"description":"","title":"6754","placename":"Bolivia","address":"Bolivia"}},{"local_stop_id":40,"id":40,"geometry":"POINT(-7412734.835662 716591.403237)","attributes":{"description":"","title":"290321","placename":"Venezuela","address":"Venezuela"}},{"local_stop_id":39,"id":39,"geometry":"POINT(-7078656.47219 -1838348.789522)","attributes":{"description":"","title":"290321","placename":"Bolivia","address":"Bolivia"}},{"local_stop_id":38,"id":38,"geometry":"POINT(-694623.459081 4372391.179934)","attributes":{"description":"","title":"3346","placename":"Calle Bolivia, 11519, C\u00e1diz, Spain","address":"Zona Franca de Bolivia"}},{"local_stop_id":37,"id":37,"geometry":"POINT(-7078656.47219 -1838348.789522)","attributes":{"description":"","title":"3346","placename":"Bolivia","address":"Bolivia"}},{"local_stop_id":36,"id":36,"geometry":"POINT(0 -0)","attributes":{"description":"","title":"67363","address":"REEXPORTACIONES(2)"}},{"local_stop_id":35,"id":35,"geometry":"POINT(-7078656.47219 -1838348.789522)","attributes":{"description":"","title":"67363","placename":"Bolivia","address":"Bolivia"}},{"local_stop_id":34,"id":34,"geometry":"POINT(1163458.552333 6650655.041174)","attributes":{"description":"","title":"793","placename":"Germany","address":"Alemania"}},{"local_stop_id":33,"id":33,"geometry":"POINT(-7078656.47219 -1838348.789522)","attributes":{"description":"","title":"793","placename":"Bolivia","address":"Bolivia"}},{"local_stop_id":32,"id":32,"geometry":"POINT(1989711.999337 -1255100.642297)","attributes":{"description":"","title":"522","placename":"Angola","address":"Angola"}},{"local_stop_id":31,"id":31,"geometry":"POINT(-7078656.47219 -1838348.789522)","attributes":{"description":"","title":"522","placename":"Bolivia","address":"Bolivia"}},{"local_stop_id":30,"id":30,"geometry":"POINT(-7081775.533003 -4638374.275084)","attributes":{"description":"","title":"15076","placename":"Argentina","address":"Argentina"}},{"local_stop_id":29,"id":29,"geometry":"POINT(-7078656.47219 -1838348.789522)","attributes":{"description":"","title":"15076","placename":"Bolivia","address":"Bolivia"}},{"local_stop_id":28,"id":28,"geometry":"POINT(-5780295.728898 -1601191.813438)","attributes":{"description":"","title":"3766","placename":"Brazil","address":"Brasil"}},{"local_stop_id":27,"id":27,"geometry":"POINT(-7078656.47219 -1838348.789522)","attributes":{"description":"","title":"3766","placename":"Bolivia","address":"Bolivia"}},{"local_stop_id":26,"id":26,"geometry":"POINT(-11838468.395229 7584411.732747)","attributes":{"description":"","title":"1038","placename":"Canada","address":"Canada"}},{"local_stop_id":25,"id":25,"geometry":"POINT(-7078656.47219 -1838348.789522)","attributes":{"description":"","title":"1038","placename":"Bolivia","address":"Bolivia"}},{"local_stop_id":24,"id":24,"geometry":"POINT(-7964126.878919 -4256013.675159)","attributes":{"description":"","title":"7615","placename":"Chile","address":"Chile"}},{"local_stop_id":23,"id":23,"geometry":"POINT(-7078656.47219 -1838348.789522)","attributes":{"description":"","title":"7615","placename":"Bolivia","address":"Bolivia"}},{"local_stop_id":22,"id":22,"geometry":"POINT(-8270741.276858 509367.281339)","attributes":{"description":"","title":"1781","placename":"Colombia","address":"Colombia"}},{"local_stop_id":21,"id":21,"geometry":"POINT(-7078656.47219 -1838348.789522)","attributes":{"description":"","title":"1781","placename":"Bolivia","address":"Bolivia"}},{"local_stop_id":20,"id":20,"geometry":"POINT(-8703336.944404 -203887.308284)","attributes":{"description":"","title":"732","placename":"Ecuador","address":"Ecuador"}},{"local_stop_id":19,"id":19,"geometry":"POINT(-7078656.47219 -1838348.789522)","attributes":{"description":"","title":"732","placename":"Bolivia","address":"Bolivia"}},{"local_stop_id":18,"id":18,"geometry":"POINT(-10654710.288472 4451692.554811)","attributes":{"description":"","title":"15077","placename":"United States","address":"Estados Unidos"}},{"local_stop_id":17,"id":17,"geometry":"POINT(-7078656.47219 -1838348.789522)","attributes":{"description":"","title":"15077","placename":"Bolivia","address":"Bolivia"}},{"local_stop_id":16,"id":16,"geometry":"POINT(-11416123.694313 2708933.292233)","attributes":{"description":"","title":"1587","placename":"Mexico","address":"M\u00e9xico"}},{"local_stop_id":15,"id":15,"geometry":"POINT(-7078656.47219 -1838348.789522)","attributes":{"description":"","title":"1587","placename":"Bolivia","address":"Bolivia"}},{"local_stop_id":14,"id":14,"geometry":"POINT(-9485225.344186 1444360.519557)","attributes":{"description":"","title":"910","placename":"Nicaragua","address":"Nicaragua"}},{"local_stop_id":13,"id":13,"geometry":"POINT(-7078656.47219 -1838348.789522)","attributes":{"description":"","title":"910","placename":"Bolivia","address":"Bolivia"}},{"local_stop_id":12,"id":12,"geometry":"POINT(-6505937.618248 -2685620.33203)","attributes":{"description":"","title":"588","placename":"Paraguay","address":"Paraguay"}},{"local_stop_id":11,"id":11,"geometry":"POINT(-7078656.47219 -1838348.789522)","attributes":{"description":"","title":"588","placename":"Bolivia","address":"Bolivia"}},{"local_stop_id":10,"id":10,"geometry":"POINT(-8350648.52242 -1027437.355768)","attributes":{"description":"","title":"8831","placename":"Peru","address":"Per\u00fa"}},{"local_stop_id":9,"id":9,"geometry":"POINT(-7078656.47219 -1838348.789522)","attributes":{"description":"","title":"8831","placename":"Bolivia","address":"Bolivia"}},{"local_stop_id":8,"id":8,"geometry":"POINT(-382490.764739 7435586.530983)","attributes":{"description":"","title":"578","placename":"United Kingdom","address":"Reino Unido"}},{"local_stop_id":7,"id":7,"geometry":"POINT(-7078656.47219 -1838348.789522)","attributes":{"description":"","title":"578","placename":"Bolivia","address":"Bolivia"}},{"local_stop_id":6,"id":6,"geometry":"POINT(-6815257.85905 1197174.420926)","attributes":{"description":"","title":"795","placename":"Trinidad and Tobago","address":"Trinidad y Tobago"}},{"local_stop_id":5,"id":5,"geometry":"POINT(-7078656.47219 -1838348.789522)","attributes":{"description":"","title":"795","placename":"Bolivia","address":"Bolivia"}},{"local_stop_id":4,"id":4,"geometry":"POINT(-7412734.835662 716591.403237)","attributes":{"description":"","title":"970","placename":"Venezuela","address":"Venezuela"}},{"local_stop_id":3,"id":3,"geometry":"POINT(-7078656.47219 -1838348.789522)","attributes":{"description":"","title":"970","placename":"Bolivia","address":"Bolivia"}},{"local_stop_id":2,"id":2,"geometry":"POINT(7537437.489596 4020628.914252)","attributes":{"description":"","title":"70","placename":"Afghanistan","address":"Afganistan"}},{"local_stop_id":1,"id":1,"geometry":"POINT(-7078656.47219 -1838348.789522)","attributes":{"description":"","title":"70","placename":"Bolivia","address":"Bolivia"}}],"hops":[{"from_stop_id":129,"to_stop_id":130,"geometry":"MULTILINESTRING((-7078656.47219 -1838348.789522,1163458.552333 6650655.041174))","attributes":{"distance":"10345.372490","title":"50397 to 50397"}},{"from_stop_id":127,"to_stop_id":128,"geometry":"MULTILINESTRING((-7078656.47219 -1838348.789522,184748.721227 3253246.71111))","attributes":{"distance":"8575.471420","title":"6152 to 6152"}},{"from_stop_id":125,"to_stop_id":126,"geometry":"MULTILINESTRING((-7078656.47219 -1838348.789522,-7081775.533003 -4638374.275084))","attributes":{"title":"1056538 to 1056538","distance":"2460.294130"}},{"from_stop_id":123,"to_stop_id":124,"geometry":"MULTILINESTRING((-7078656.47219 -1838348.789522,14891780.020321 -2909486.054997))","attributes":{"distance":"15025.275830","title":"125083 to 125083"}},{"from_stop_id":121,"to_stop_id":122,"geometry":"MULTILINESTRING((-7078656.47219 -1838348.789522,1619706.606045 6026746.974644))","attributes":{"distance":"10476.966897","title":"3934 to 3934"}},{"from_stop_id":119,"to_stop_id":120,"geometry":"MULTILINESTRING((-7078656.47219 -1838348.789522,497590.999399 6534001.856289))","attributes":{"distance":"9933.248807","title":"375703 to 375703"}},{"from_stop_id":117,"to_stop_id":118,"geometry":"MULTILINESTRING((-7078656.47219 -1838348.789522,-5780295.728898 -1601191.813438))","attributes":{"distance":"1271.635055","title":"3030088 to 3030088"}},{"from_stop_id":115,"to_stop_id":116,"geometry":"MULTILINESTRING((-7078656.47219 -1838348.789522,2837069.618044 5271553.447419))","attributes":{"distance":"11153.865471","title":"8549 to 8549"}},{"from_stop_id":113,"to_stop_id":114,"geometry":"MULTILINESTRING((-7078656.47219 -1838348.789522,-11838468.395229 7584411.732747))","attributes":{"distance":"8984.700761","title":"194197 to 194197"}},{"from_stop_id":111,"to_stop_id":112,"geometry":"MULTILINESTRING((-7078656.47219 -1838348.789522,-7964126.878919 -4256013.675159))","attributes":{"distance":"2295.171596","title":"149528 to 149528"}},{"from_stop_id":109,"to_stop_id":110,"geometry":"MULTILINESTRING((-7078656.47219 -1838348.789522,11598978.537043 4281602.659627))","attributes":{"distance":"17525.394169","title":"332917 to 332917"}},{"from_stop_id":107,"to_stop_id":108,"geometry":"MULTILINESTRING((-7078656.47219 -1838348.789522,-8270741.276858 509367.281339))","attributes":{"distance":"2601.491099","title":"251665 to 251665"}},{"from_stop_id":105,"to_stop_id":106,"geometry":"MULTILINESTRING((-7078656.47219 -1838348.789522,14222948.697264 4287936.289399))","attributes":{"distance":"17561.179129","title":"419078 to 419078"}},{"from_stop_id":103,"to_stop_id":104,"geometry":"MULTILINESTRING((-7078656.47219 -1838348.789522,-9323388.957151 1090519.231591))","attributes":{"distance":"3647.854334","title":"958 to 958"}},{"from_stop_id":101,"to_stop_id":102,"geometry":"MULTILINESTRING((-7078656.47219 -1838348.789522,1057733.867827 7611135.068229))","attributes":{"distance":"10506.368269","title":"1375 to 1375"}},{"from_stop_id":99,"to_stop_id":100,"geometry":"MULTILINESTRING((-7078656.47219 -1838348.789522,-8703336.944404 -203887.308284))","attributes":{"distance":"2266.759372","title":"81530 to 81530"}},{"from_stop_id":97,"to_stop_id":98,"geometry":"MULTILINESTRING((-7078656.47219 -1838348.789522,-417361.261272 4933551.652462))","attributes":{"title":"93595 to 93595","distance":"8822.911777"}},{"from_stop_id":95,"to_stop_id":96,"geometry":"MULTILINESTRING((-7078656.47219 -1838348.789522,-10654710.288472 4451692.554811))","attributes":{"distance":"6823.140654","title":"876510 to 876510"}},{"from_stop_id":93,"to_stop_id":94,"geometry":"MULTILINESTRING((-7078656.47219 -1838348.789522,246433.411424 5816903.713427))","attributes":{"distance":"9563.611080","title":"18326 to 18326"}},{"from_stop_id":91,"to_stop_id":92,"geometry":"MULTILINESTRING((-7078656.47219 -1838348.789522,12702611.100717 2559188.1802))","attributes":{"title":"2937 to 2937","distance":"19294.481905"}},{"from_stop_id":89,"to_stop_id":90,"geometry":"MULTILINESTRING((-7078656.47219 -1838348.789522,8790107.59317 2343495.165705))","attributes":{"distance":"16044.478987","title":"11317 to 11317"}},{"from_stop_id":87,"to_stop_id":88,"geometry":"MULTILINESTRING((-7078656.47219 -1838348.789522,3879663.701165 3638731.187583))","attributes":{"distance":"11718.691900","title":"5021 to 5021"}},{"from_stop_id":85,"to_stop_id":86,"geometry":"MULTILINESTRING((-7078656.47219 -1838348.789522,1398994.342206 5141815.937641))","attributes":{"distance":"10110.777346","title":"39212 to 39212"}},{"from_stop_id":83,"to_stop_id":84,"geometry":"MULTILINESTRING((-7078656.47219 -1838348.789522,15390245.100361 4328841.562513))","attributes":{"title":"539830 to 539830","distance":"16924.171002","co2e":"0"}},{"from_stop_id":81,"to_stop_id":82,"geometry":"MULTILINESTRING((-7078656.47219 -1838348.789522,11351890.344374 469131.367658))","attributes":{"distance":"17944.205259","title":"3866 to 3866"}},{"from_stop_id":79,"to_stop_id":80,"geometry":"MULTILINESTRING((-7078656.47219 -1838348.789522,-11416123.694313 2708933.292233))","attributes":{"distance":"6133.639048","title":"52705 to 52705"}},{"from_stop_id":77,"to_stop_id":78,"geometry":"MULTILINESTRING((-7078656.47219 -1838348.789522,0 0))","attributes":{"distance":"7197.151136","title":"931 to 931"}},{"from_stop_id":75,"to_stop_id":76,"geometry":"MULTILINESTRING((-7078656.47219 -1838348.789522,942758.756276 8505587.038689))","attributes":{"distance":"10635.061946","title":"1438 to 1438"}},{"from_stop_id":73,"to_stop_id":74,"geometry":"MULTILINESTRING((-7078656.47219 -1838348.789522,19468217.238607 -4997684.890551))","attributes":{"distance":"11262.381502","title":"2781 to 2781"}},{"from_stop_id":71,"to_stop_id":72,"geometry":"MULTILINESTRING((-7078656.47219 -1838348.789522,589021.036772 6824142.821624))","attributes":{"distance":"10065.759757","title":"47322 to 47322"}},{"from_stop_id":69,"to_stop_id":70,"geometry":"MULTILINESTRING((-7078656.47219 -1838348.789522,-8992625.242838 953980.901355))","attributes":{"distance":"3346.948950","title":"47730 to 47730"}},{"from_stop_id":67,"to_stop_id":68,"geometry":"MULTILINESTRING((-7078656.47219 -1838348.789522,-6505937.618248 -2685620.33203))","attributes":{"distance":"959.918157","title":"26223 to 26223"}},{"from_stop_id":65,"to_stop_id":66,"geometry":"MULTILINESTRING((-7078656.47219 -1838348.789522,-8350648.52242 -1027437.355768))","attributes":{"distance":"1468.548489","title":"457125 to 457125"}},{"from_stop_id":63,"to_stop_id":64,"geometry":"MULTILINESTRING((-7078656.47219 -1838348.789522,2131226.790688 6785571.898792))","attributes":{"title":"5145 to 5145","distance":"10940.520851"}},{"from_stop_id":61,"to_stop_id":62,"geometry":"MULTILINESTRING((-7078656.47219 -1838348.789522,-915542.031333 4779112.741647))","attributes":{"distance":"8440.347941","title":"2051 to 2051"}},{"from_stop_id":59,"to_stop_id":60,"geometry":"MULTILINESTRING((-7078656.47219 -1838348.789522,-382490.764739 7435586.530983))","attributes":{"distance":"9748.905019","title":"155697 to 155697"}},{"from_stop_id":57,"to_stop_id":58,"geometry":"MULTILINESTRING((-7078656.47219 -1838348.789522,-7810470.582026 2123842.626161))","attributes":{"distance":"3960.556288","title":"2029 to 2029"}},{"from_stop_id":55,"to_stop_id":56,"geometry":"MULTILINESTRING((0 0,11724030.288901 8747149.04879))","attributes":{"title":"13235 to 13235","distance":"10812.189174"}},{"from_stop_id":53,"to_stop_id":54,"geometry":"MULTILINESTRING((-7078656.47219 -1838348.789522,-410306.266091 4928730.682294))","attributes":{"distance":"8825.480370","title":"1230 to 1230"}},{"from_stop_id":51,"to_stop_id":52,"geometry":"MULTILINESTRING((-7078656.47219 -1838348.789522,2075385.037924 8428326.96544))","attributes":{"distance":"11151.668386","title":"939 to 939"}},{"from_stop_id":49,"to_stop_id":50,"geometry":"MULTILINESTRING((-7078656.47219 -1838348.789522,915882.446336 5912448.054871))","attributes":{"distance":"10004.734073","title":"306028 to 306028"}},{"from_stop_id":47,"to_stop_id":48,"geometry":"MULTILINESTRING((-7078656.47219 -1838348.789522,11242438.238039 1789676.623494))","attributes":{"distance":"18367.398724","title":"2106 to 2106"}},{"from_stop_id":45,"to_stop_id":46,"geometry":"MULTILINESTRING((-7078656.47219 -1838348.789522,13465262.935892 2716627.939237))","attributes":{"distance":"19064.307549","title":"1539 to 1539"}},{"from_stop_id":43,"to_stop_id":44,"geometry":"MULTILINESTRING((-7078656.47219 -1838348.789522,3923268.658903 4716479.684629))","attributes":{"distance":"11888.565944","title":"740 to 740"}},{"from_stop_id":41,"to_stop_id":42,"geometry":"MULTILINESTRING((-7078656.47219 -1838348.789522,-6207824.355862 -3832130.824994))","attributes":{"distance":"1969.378692","title":"6754 to 6754"}},{"from_stop_id":39,"to_stop_id":40,"geometry":"MULTILINESTRING((-7078656.47219 -1838348.789522,-7412734.835662 716591.403237))","attributes":{"distance":"2547.167875","title":"290321 to 290321"}},{"from_stop_id":37,"to_stop_id":38,"geometry":"MULTILINESTRING((-7078656.47219 -1838348.789522,-694623.459081 4372391.179934))","attributes":{"distance":"8402.619700","title":"3346 to 3346"}},{"from_stop_id":35,"to_stop_id":36,"geometry":"MULTILINESTRING((-7078656.47219 -1838348.789522,0 0))","attributes":{"title":"67363 to 67363","distance":"7197.151136","co2e":"4.79144e-05","co2e_reference":"http:\/\/footprinted.org\/container-ship9270853","transport":"Container ship","unit":"kg","footprintmethodology":"\nCO2e factor referenced from: \n(2010) Okala Design Guide 2010","description":"","weight":"0","youtube:link":""}},{"from_stop_id":33,"to_stop_id":34,"geometry":"MULTILINESTRING((-7078656.47219 -1838348.789522,1163458.552333 6650655.041174))","attributes":{"distance":"10345.372490","title":"793 to 793"}},{"from_stop_id":31,"to_stop_id":32,"geometry":"MULTILINESTRING((-7078656.47219 -1838348.789522,1989711.999337 -1255100.642297))","attributes":{"distance":"8761.883860","title":"522 to 522"}},{"from_stop_id":29,"to_stop_id":30,"geometry":"MULTILINESTRING((-7078656.47219 -1838348.789522,-7081775.533003 -4638374.275084))","attributes":{"title":"15076 to 15076","distance":"2460.294130"}},{"from_stop_id":27,"to_stop_id":28,"geometry":"MULTILINESTRING((-7078656.47219 -1838348.789522,-5780295.728898 -1601191.813438))","attributes":{"distance":"1271.635055","title":"3766 to 3766"}},{"from_stop_id":25,"to_stop_id":26,"geometry":"MULTILINESTRING((-7078656.47219 -1838348.789522,-11838468.395229 7584411.732747))","attributes":{"distance":"8984.700761","title":"1038 to 1038"}},{"from_stop_id":23,"to_stop_id":24,"geometry":"MULTILINESTRING((-7078656.47219 -1838348.789522,-7964126.878919 -4256013.675159))","attributes":{"distance":"2295.171596","title":"7615 to 7615"}},{"from_stop_id":21,"to_stop_id":22,"geometry":"MULTILINESTRING((-7078656.47219 -1838348.789522,-8270741.276858 509367.281339))","attributes":{"distance":"2601.491099","title":"1781 to 1781"}},{"from_stop_id":19,"to_stop_id":20,"geometry":"MULTILINESTRING((-7078656.47219 -1838348.789522,-8703336.944404 -203887.308284))","attributes":{"distance":"2266.759372","title":"732 to 732"}},{"from_stop_id":17,"to_stop_id":18,"geometry":"MULTILINESTRING((-7078656.47219 -1838348.789522,-10654710.288472 4451692.554811))","attributes":{"distance":"6823.140654","title":"15077 to 15077"}},{"from_stop_id":15,"to_stop_id":16,"geometry":"MULTILINESTRING((-7078656.47219 -1838348.789522,-11416123.694313 2708933.292233))","attributes":{"distance":"6133.639048","title":"1587 to 1587"}},{"from_stop_id":13,"to_stop_id":14,"geometry":"MULTILINESTRING((-7078656.47219 -1838348.789522,-9485225.344186 1444360.519557))","attributes":{"distance":"4019.687556","title":"910 to 910"}},{"from_stop_id":11,"to_stop_id":12,"geometry":"MULTILINESTRING((-7078656.47219 -1838348.789522,-6505937.618248 -2685620.33203))","attributes":{"distance":"959.918157","title":"588 to 588"}},{"from_stop_id":9,"to_stop_id":10,"geometry":"MULTILINESTRING((-7078656.47219 -1838348.789522,-8350648.52242 -1027437.355768))","attributes":{"distance":"1468.548489","title":"8831 to 8831"}},{"from_stop_id":7,"to_stop_id":8,"geometry":"MULTILINESTRING((-7078656.47219 -1838348.789522,-382490.764739 7435586.530983))","attributes":{"title":"578 to 578","distance":"9748.905019"}},{"from_stop_id":5,"to_stop_id":6,"geometry":"MULTILINESTRING((-7078656.47219 -1838348.789522,-6815257.85905 1197174.420926))","attributes":{"distance":"3011.529282","title":"795 to 795"}},{"from_stop_id":3,"to_stop_id":4,"geometry":"MULTILINESTRING((-7078656.47219 -1838348.789522,-7412734.835662 716591.403237))","attributes":{"title":"970 to 970","distance":"2547.167875"}},{"from_stop_id":2,"to_stop_id":1,"geometry":"MULTILINESTRING((7537437.489596 4020628.914252,-7078656.47219 -1838348.789522))","attributes":{"distance":"14790.406447","title":"70 to 70"}}]},"editable":false}