{"type":"FeatureCollection","features":[{"type":"Feature","geometry":{"type":"Point","coordinates":[26.224919999997,-29.11835]},"properties":{"address":"-29.11835, 26.22492","placename":"-29.11835,26.22492","title":"Bloemfontein , Free State"}},{"type":"Feature","geometry":{"type":"Point","coordinates":[25.569949999996,-33.932639999998]},"properties":{"address":"-33.93264, 25.56995","placename":"-33.93264,25.56995","title":"Port Elizabeth, Eastern Cape"}},{"type":"Feature","geometry":{"type":"Point","coordinates":[29.448630000004,-23.896170000003]},"properties":{"address":"-23.89617, 29.44863","placename":"-23.89617,29.44863","title":"Polokwane, Limpopo"}},{"type":"Feature","geometry":{"type":"Point","coordinates":[30.98528,-25.465830000003]},"properties":{"address":"-25.46583, 30.98528","placename":"-25.46583,30.98528","title":"Nelspruit, Mpumalanga"}},{"type":"Feature","geometry":{"type":"Point","coordinates":[18.696250000002,-33.852869999999]},"properties":{"address":"-33.85287, 18.69625","placename":"-33.85287,18.69625","title":"Cape Gate, Western Cape"}},{"type":"Feature","geometry":{"type":"Point","coordinates":[18.525539999996,-33.864659999998]},"properties":{"address":"-33.86466, 18.52554","placename":"-33.86466,18.52554","title":"Montague Gardens, Western Cape"}},{"type":"Feature","geometry":{"type":"Point","coordinates":[18.509210000002,-34.011190000001]},"properties":{"address":"-34.01119, 18.50921","placename":"-34.01119,18.50921","title":"Ottery, Western Cape"}},{"type":"Feature","geometry":{"type":"Point","coordinates":[30.883330000003,-30.050000000003]},"properties":{"address":"-30.05, 30.88333","placename":"-30.05,30.88333","title":"Amanzimtoti, Kwazulu-Natal"}},{"type":"Feature","geometry":{"type":"Point","coordinates":[30.379409999999,-29.600610000002]},"properties":{"address":"-29.60061, 30.37941","placename":"-29.60061,30.37941","title":"Pietermaritzburg, Kwazulu-Natal"}},{"type":"Feature","geometry":{"type":"Point","coordinates":[30.997670000001,-29.820739999998]},"properties":{"address":"-29.82074, 30.99767","placename":"-29.82074,30.99767","title":"Springfield, Kwazulu-Natal"}},{"type":"Feature","geometry":{"type":"Point","coordinates":[30.980459999997,-29.906040000001]},"properties":{"address":"-29.90604, 30.98046","placename":"-29.90604,30.98046","title":"Rossburgh, Kwazulu-Natal"}},{"type":"Feature","geometry":{"type":"Point","coordinates":[28.12194,-26.267220000003]},"properties":{"address":"-26.26722, 28.12194","placename":"-26.26722,28.12194","title":"Alberton, Gauteng"}},{"type":"Feature","geometry":{"type":"Point","coordinates":[27.819130000001,-26.734629999999]},"properties":{"address":"-26.73463, 27.81913","placename":"-26.73463,27.81913","title":"Vaal, Gauteng"}},{"type":"Feature","geometry":{"type":"Point","coordinates":[28.372489999998,-25.769119999998]},"properties":{"address":"-25.76912, 28.37249","placename":"-25.76912,28.37249","title":"Silver Lakes, Gauteng"}},{"type":"Feature","geometry":{"type":"Point","coordinates":[28.202949999999,-25.691079999996]},"properties":{"address":"-25.69108, 28.20295","placename":"-25.69108,28.20295","title":"Wonderboom, Gauteng"}},{"type":"Feature","geometry":{"type":"Point","coordinates":[28.189440000004,-25.860280000004]},"properties":{"address":"-25.86028, 28.18944","placename":"-25.86028,28.18944","title":"Centurion, Gauteng"}},{"type":"Feature","geometry":{"type":"Point","coordinates":[28.080079999997,-26.04741]},"properties":{"address":"-26.04741, 28.08008","placename":"-26.04741,28.08008","title":"Woodmead, Gauteng"}},{"type":"Feature","geometry":{"type":"Point","coordinates":[27.904390000001,-26.12223]},"properties":{"address":"-26.12223, 27.90439","placename":"-26.12223,27.90439","title":"Strubens Valley, Gauteng"}},{"type":"Feature","geometry":{"type":"Point","coordinates":[28.009420000001,-26.215249999996]},"properties":{"address":"-26.21525, 28.00942","placename":"-26.21525,28.00942","title":"Crown Mines, Gauteng"}},{"type":"Feature","geometry":{"type":"Point","coordinates":[28.167219999999,-26.217780000002]},"properties":{"address":"-26.21778, 28.16722","placename":"-26.21778,28.16722","title":"Germiston, Gauteng"}},{"type":"Feature","geometry":{"type":"Point","coordinates":[18.500000000004,-33.866669999999]},"properties":{"address":"-33.86667, 18.5","placename":"-33.86667,18.5","title":"Milnerton (Cape Town), Western Cape"}},{"type":"Feature","geometry":{"type":"Point","coordinates":[28.208799999997,-26.139340000002]},"properties":{"address":"-26.13934, 28.2088","placename":"-26.13934,28.2088","title":"Isando (East Rand), Gauteng"}},{"type":"Feature","geometry":{"type":"Point","coordinates":[28.179550000004,-26.042680000001]},"properties":{"address":"-26.04268, 28.17955","placename":"-26.04268,28.17955","title":"Chloorkop (Midrand), Gauteng"}},{"type":"Feature","geometry":{"type":"Point","coordinates":[30.883330000003,-30.050000000003]},"properties":{"address":"-30.05, 30.88333","placename":"-30.05,30.88333","title":"Makro Product"}}],"properties":{"tags":"","description":"Check","title":"Retail"}}