{"supplychain":{"category":null,"created":1372153488,"enable_comments":true,"flags":0,"id":6232,"modified":1372153489,"other_perms":1,"passcode":null,"user_featured":false,"usergroup_id":null,"usergroup_perms":0,"user_id":5735,"owner":{"id":5735,"name":"willemferreira","avatar":"http:\/\/free.sourcemap.com\/assets\/images\/default-user.png","banner_url":null,"display_name":null},"taxonomy":null,"attributes":{"tags":"","description":"Check","title":"Retail"},"stops":[{"local_stop_id":24,"id":24,"geometry":"POINT(2919344.740494 -3390717.978907)","attributes":{"address":"-29.11835, 26.22492","placename":"-29.11835,26.22492","title":"Bloemfontein , Free State"}},{"local_stop_id":23,"id":23,"geometry":"POINT(2846433.813609 -4019760.806122)","attributes":{"address":"-33.93264, 25.56995","placename":"-33.93264,25.56995","title":"Port Elizabeth, Eastern Cape"}},{"local_stop_id":22,"id":22,"geometry":"POINT(3278206.49616 -2740761.066296)","attributes":{"address":"-23.89617, 29.44863","placename":"-23.89617,29.44863","title":"Polokwane, Limpopo"}},{"local_stop_id":21,"id":21,"geometry":"POINT(3449265.591687 -2933070.712267)","attributes":{"address":"-25.46583, 30.98528","placename":"-25.46583,30.98528","title":"Nelspruit, Mpumalanga"}},{"local_stop_id":20,"id":20,"geometry":"POINT(2081257.029744 -4009063.129826)","attributes":{"address":"-33.85287, 18.69625","placename":"-33.85287,18.69625","title":"Cape Gate, Western Cape"}},{"local_stop_id":19,"id":19,"geometry":"POINT(2062253.67947 -4010643.615747)","attributes":{"address":"-33.86466, 18.52554","placename":"-33.86466,18.52554","title":"Montague Gardens, Western Cape"}},{"local_stop_id":18,"id":18,"geometry":"POINT(2060435.832186 -4030304.668724)","attributes":{"address":"-34.01119, 18.50921","placename":"-34.01119,18.50921","title":"Ottery, Western Cape"}},{"local_stop_id":17,"id":17,"geometry":"POINT(3437916.569601 -3509978.497739)","attributes":{"address":"-30.05, 30.88333","placename":"-30.05,30.88333","title":"Amanzimtoti, Kwazulu-Natal"}},{"local_stop_id":16,"id":16,"geometry":"POINT(3381820.4518 -3452314.59801)","attributes":{"address":"-29.60061, 30.37941","placename":"-29.60061,30.37941","title":"Pietermaritzburg, Kwazulu-Natal"}},{"local_stop_id":15,"id":15,"geometry":"POINT(3450644.840178 -3480528.390454)","attributes":{"address":"-29.82074, 30.99767","placename":"-29.82074,30.99767","title":"Springfield, Kwazulu-Natal"}},{"local_stop_id":14,"id":14,"geometry":"POINT(3448729.031741 -3491477.870173)","attributes":{"address":"-29.90604, 30.98046","placename":"-29.90604,30.98046","title":"Rossburgh, Kwazulu-Natal"}},{"local_stop_id":13,"id":13,"geometry":"POINT(3130520.040919 -3032215.104541)","attributes":{"address":"-26.26722, 28.12194","placename":"-26.26722,28.12194","title":"Alberton, Gauteng"}},{"local_stop_id":12,"id":12,"geometry":"POINT(3096811.385912 -3090356.215524)","attributes":{"address":"-26.73463, 27.81913","placename":"-26.73463,27.81913","title":"Vaal, Gauteng"}},{"local_stop_id":11,"id":11,"geometry":"POINT(3158411.139337 -2970513.453421)","attributes":{"address":"-25.76912, 28.37249","placename":"-25.76912,28.37249","title":"Silver Lakes, Gauteng"}},{"local_stop_id":10,"id":10,"geometry":"POINT(3139538.032868 -2960869.913488)","attributes":{"address":"-25.69108, 28.20295","placename":"-25.69108,28.20295","title":"Wonderboom, Gauteng"}},{"local_stop_id":9,"id":9,"geometry":"POINT(3138034.106548 -2981786.28898)","attributes":{"address":"-25.86028, 28.18944","placename":"-25.86028,28.18944","title":"Centurion, Gauteng"}},{"local_stop_id":8,"id":8,"geometry":"POINT(3125860.207034 -3004954.06084)","attributes":{"address":"-26.04741, 28.08008","placename":"-26.04741,28.08008","title":"Woodmead, Gauteng"}},{"local_stop_id":7,"id":7,"geometry":"POINT(3106302.485697 -3014227.54508)","attributes":{"address":"-26.12223, 27.90439","placename":"-26.12223,27.90439","title":"Strubens Valley, Gauteng"}},{"local_stop_id":6,"id":6,"geometry":"POINT(3117994.371815 -3025765.094834)","attributes":{"address":"-26.21525, 28.00942","placename":"-26.21525,28.00942","title":"Crown Mines, Gauteng"}},{"local_stop_id":5,"id":5,"geometry":"POINT(3135560.587462 -3026079.027013)","attributes":{"address":"-26.21778, 28.16722","placename":"-26.21778,28.16722","title":"Germiston, Gauteng"}},{"local_stop_id":4,"id":4,"geometry":"POINT(2059410.579676 -4010913.08423)","attributes":{"address":"-33.86667, 18.5","placename":"-33.86667,18.5","title":"Milnerton (Cape Town), Western Cape"}},{"local_stop_id":3,"id":3,"geometry":"POINT(3140189.251889 -3016349.059281)","attributes":{"address":"-26.13934, 28.2088","placename":"-26.13934,28.2088","title":"Isando (East Rand), Gauteng"}},{"local_stop_id":2,"id":2,"geometry":"POINT(3136933.156784 -3004368.005186)","attributes":{"address":"-26.04268, 28.17955","placename":"-26.04268,28.17955","title":"Chloorkop (Midrand), Gauteng"}},{"local_stop_id":1,"id":1,"geometry":"POINT(3437916.569601 -3509978.497739)","attributes":{"address":"-30.05, 30.88333","placename":"-30.05,30.88333","title":"Makro Product"}}],"hops":[]},"editable":false}