{"type":"FeatureCollection","features":[{"type":"Feature","geometry":{"type":"Point","coordinates":[-76.723977300003,-11.563868099999]},"properties":{"address":"Lima, Peru 18","placename":"18, Peru","title":"End User"}},{"type":"Feature","geometry":{"type":"Point","coordinates":[-77.0622028,-12.047815800001]},"properties":{"address":"Lima, Peru","placename":"Lima, Peru","title":"End User"}},{"type":"Feature","geometry":{"type":"Point","coordinates":[-76.9257945,-12.003130899998]},"properties":{"address":"Lima, Peru 1","placename":"Avenida 1, Lima, Peru","title":"End User"}},{"type":"Feature","geometry":{"type":"Point","coordinates":[-76.972727799998,-12.102846999998]},"properties":{"address":"Lima, Peru 3245","placename":"Cesar Morillas, El Polo 545, Lima 15023, Peru","title":"End User"}},{"type":"Feature","geometry":{"type":"Point","coordinates":[-76.928999099998,-12.084950299997]},"properties":{"address":"Lima, PERU 11","placename":"Calle 11, Lima 15026, Peru","title":"End User"}},{"type":"Feature","geometry":{"type":"Point","coordinates":[-77.0622028,-12.047815800001]},"properties":{"address":"Lima, Peru -","placename":"Lima, Peru","title":"End User"}},{"type":"Feature","geometry":{"type":"Point","coordinates":[-76.972727799998,-12.102846999998]},"properties":{"address":"Lima, Peru 3245","placename":"Cesar Morillas, El Polo 545, Lima 15023, Peru","title":"End User"}},{"type":"Feature","geometry":{"type":"Point","coordinates":[-77.0622028,-12.047815800001]},"properties":{"address":"Lima, Peru","placename":"Lima, Peru","title":"End User"}},{"type":"Feature","geometry":{"type":"Point","coordinates":[-76.972727799998,-12.102846999998]},"properties":{"address":"Lima, Peru 3245","placename":"Cesar Morillas, El Polo 545, Lima 15023, Peru","title":"End User"}},{"type":"Feature","geometry":{"type":"Point","coordinates":[-76.887257799999,-12.029878199998]},"properties":{"address":"Lima, Peru Lima 27","placename":"Calle 27, Lima, Peru","title":"End User"}},{"type":"Feature","geometry":{"type":"Point","coordinates":[-77.0622028,-12.047815800001]},"properties":{"address":"Lima, Peru Peru","placename":"Lima, Peru","title":"End User"}},{"type":"Feature","geometry":{"type":"Point","coordinates":[-76.928999099998,-12.084950299997]},"properties":{"address":"Lima, PERU 11","placename":"Calle 11, Lima 15026, Peru","title":"End User"}},{"type":"Feature","geometry":{"type":"Point","coordinates":[-77.015023800001,-12.106521500002]},"properties":{"address":"San Isidro, Lima, Peru 27","placename":"Calle 27, Lima 15036, Peru","title":"End User"}},{"type":"Feature","geometry":{"type":"Point","coordinates":[-76.9257945,-12.003130899998]},"properties":{"address":"Lima, Peru 1","placename":"Avenida 1, Lima, Peru","title":"End User"}},{"type":"Feature","geometry":{"type":"Point","coordinates":[-77.0622028,-12.047815800001]},"properties":{"address":"Lima, Peru","placename":"Lima, Peru","title":"End User"}},{"type":"Feature","geometry":{"type":"Point","coordinates":[-76.887257799999,-12.029878199998]},"properties":{"address":"Lima, Peru Lima 27","placename":"Calle 27, Lima, Peru","title":"End User"}},{"type":"Feature","geometry":{"type":"Point","coordinates":[-76.887257799999,-12.029878199998]},"properties":{"address":"Lima, Peru Lima 27","placename":"Calle 27, Lima, Peru","title":"End User"}},{"type":"Feature","geometry":{"type":"Point","coordinates":[-76.887257799999,-12.029878199998]},"properties":{"address":"Lima, Peru 27","placename":"Calle 27, Lima, Peru","title":"End User"}},{"type":"Feature","geometry":{"type":"Point","coordinates":[-76.972727799998,-12.102846999998]},"properties":{"address":"Lima, Peru 00000","placename":"Cesar Morillas, El Polo 545, Lima 15023, Peru","title":"End User"}},{"type":"Feature","geometry":{"type":"Point","coordinates":[-77.0622028,-12.047815800001]},"properties":{"address":"Lima, Peru","placename":"Lima, Peru","title":"End User"}},{"type":"Feature","geometry":{"type":"Point","coordinates":[-76.887257799999,-12.029878199998]},"properties":{"address":"Lima, Peru 27","placename":"Calle 27, Lima, Peru","title":"End User"}},{"type":"Feature","geometry":{"type":"Point","coordinates":[-76.928999099998,-12.084950299997]},"properties":{"address":"Lima, PERU 11","placename":"Calle 11, Lima 15026, Peru","title":"End User"}},{"type":"Feature","geometry":{"type":"Point","coordinates":[-76.9257945,-12.003130899998]},"properties":{"address":"Lima, Peru 1","placename":"Avenida 1, Lima, Peru","title":"End User"}},{"type":"Feature","geometry":{"type":"Point","coordinates":[-77.0622028,-12.047815800001]},"properties":{"description":"PRU Production Facility","address":"Lima, Peru","placename":"Lima, Peru","title":"Printed Material"}},{"type":"Feature","geometry":{"type":"Point","coordinates":[-79.518791999998,8.9942689000002]},"properties":{"address":"Republica de Panama, Panama","placename":"Panama","title":"End User"}},{"type":"Feature","geometry":{"type":"Point","coordinates":[-79.518791999998,8.9942689000002]},"properties":{"address":"Panama City, PANAMA","placename":"Panama","title":"End User"}},{"type":"Feature","geometry":{"type":"Point","coordinates":[-79.518791999998,8.9942689000002]},"properties":{"address":"Panam\u00e1, Panama","placename":"Panama","title":"End User"}},{"type":"Feature","geometry":{"type":"Point","coordinates":[-79.387346499998,9.0670033000026]},"properties":{"address":"Panama City, Panama 0816","placename":"Panama Tourism Autority, Tocumen International Airport (PTY), Avenida Domingo Diaz, Panama","title":"End User"}},{"type":"Feature","geometry":{"type":"Point","coordinates":[-79.518791999998,8.9942689000002]},"properties":{"description":"PMA Production Facility","address":"Panama City, PANAMA","placename":"Panama","title":"Printed Material"}},{"type":"Feature","geometry":{"type":"Point","coordinates":[-87.216700000003,14.083299999999]},"properties":{"address":"Tegucigalpa M.D.C, Honduras FM1100","placename":"Tegucigalpa, Honduras","title":"End User"}},{"type":"Feature","geometry":{"type":"Point","coordinates":[-87.216700000003,14.083299999999]},"properties":{"address":"Tegucigalpa M.D.C, Honduras FM1100","placename":"Tegucigalpa, Honduras","title":"End User"}},{"type":"Feature","geometry":{"type":"Point","coordinates":[-88.027740000003,15.501669999998]},"properties":{"address":"San Pedro Sula, Honduras","placename":"San Pedro Sula, Honduras","title":"End User"}},{"type":"Feature","geometry":{"type":"Point","coordinates":[-88.027740000003,15.501669999998]},"properties":{"address":"San Pedro Sula, Honduras","placename":"San Pedro Sula, Honduras","title":"End User"}},{"type":"Feature","geometry":{"type":"Point","coordinates":[-88.027740000003,15.501669999998]},"properties":{"address":"San Pedro Sula, Honduras","placename":"San Pedro Sula, Honduras","title":"End User"}},{"type":"Feature","geometry":{"type":"Point","coordinates":[-86.251388900004,12.136388900003]},"properties":{"address":"Managua, Nicaragua","placename":"Managua, Nicaragua","title":"End User"}},{"type":"Feature","geometry":{"type":"Point","coordinates":[-90.587500000003,14.526944400002]},"properties":{"address":"Villa Nueva, Guatemala -","placename":"Villa Nueva, Guatemala","title":"End User"}},{"type":"Feature","geometry":{"type":"Point","coordinates":[-90.553811399999,14.604067000003]},"properties":{"address":"No 17-58, Zona 11, GUATEMALA","placename":"Avenida Mariscal, Guatemala City, Guatemala","title":"End User"}},{"type":"Feature","geometry":{"type":"Point","coordinates":[-90.527463000001,14.583263000001]},"properties":{"address":"Guatemala City, Guatemala 01013","placename":"La Aurora International Airport (GUA), 9av. 14-75, Guatemala City 01013, Guatemala","title":"End User"}},{"type":"Feature","geometry":{"type":"Point","coordinates":[-90.527463000001,14.583263000001]},"properties":{"address":"Guatemala City, Guatemala 01013","placename":"La Aurora International Airport (GUA), 9av. 14-75, Guatemala City 01013, Guatemala","title":"End User"}},{"type":"Feature","geometry":{"type":"Point","coordinates":[-90.527463000001,14.583263000001]},"properties":{"description":"GLA Production Facility","address":"Guatemala City, Guatemala 01013","placename":"La Aurora International Airport (GUA), 9av. 14-75, Guatemala City 01013, Guatemala","title":"Printed Material"}},{"type":"Feature","geometry":{"type":"Point","coordinates":[-84.082012000001,9.9271279999987]},"properties":{"address":"San Jose, COSTA RICA -","placename":"San Jose, Costa Rica","title":"End User"}},{"type":"Feature","geometry":{"type":"Point","coordinates":[-56.702935300001,-34.325549]},"properties":{"address":"San Jose, Costa Rica 10303","placename":"Costa Rica, San Jos\u00e9 de Mayo, Uruguay","title":"End User"}},{"type":"Feature","geometry":{"type":"Point","coordinates":[-84.096170599998,9.9965072999986]},"properties":{"address":"San Pablo, Costa Rica 40901","placename":"Iglesia de San Pablo, San Pablo Canton 40901, Costa Rica","title":"End User"}},{"type":"Feature","geometry":{"type":"Point","coordinates":[-56.702935300001,-34.325549]},"properties":{"address":"San Jose, Costa Rica 1000","placename":"Costa Rica, San Jos\u00e9 de Mayo, Uruguay","title":"End User"}},{"type":"Feature","geometry":{"type":"Point","coordinates":[-84.108206000002,9.9620665999991]},"properties":{"address":"Heredia, Costa Rica 40702","placename":"Rem, S.A. (Costa Rica), 3, Heredia, Costa Rica","title":"End User"}},{"type":"Feature","geometry":{"type":"Point","coordinates":[-84.101562500003,9.9164237000031]},"properties":{"address":"San Jose, Costa Rica 298 0000","placename":"Calle Costa Rica, San Jose, Costa Rica","title":"End User"}},{"type":"Feature","geometry":{"type":"Point","coordinates":[-84.8106903,9.9811960000042]},"properties":{"address":"Puntarenas, Costa Rica 5400","placename":"Universidad de Costa Rica, 17, Puntarenas Canton, Costa Rica","title":"End User"}},{"type":"Feature","geometry":{"type":"Point","coordinates":[-56.702935300001,-34.325549]},"properties":{"address":"San Jose, Costa Rica 40701","placename":"Costa Rica, San Jos\u00e9 de Mayo, Uruguay","title":"End User"}},{"type":"Feature","geometry":{"type":"Point","coordinates":[-84.101562500003,9.9164237000031]},"properties":{"address":"San Jose, Costa Rica 0000","placename":"Calle Costa Rica, San Jose, Costa Rica","title":"End User"}},{"type":"Feature","geometry":{"type":"Point","coordinates":[-56.702935300001,-34.325549]},"properties":{"address":"San Jose, Costa Rica 40701","placename":"Costa Rica, San Jos\u00e9 de Mayo, Uruguay","title":"End User"}},{"type":"Feature","geometry":{"type":"Point","coordinates":[-84.108206000002,9.9620665999991]},"properties":{"address":"Heredia, Costa Rica 00000","placename":"Rem, S.A. (Costa Rica), 3, Heredia, Costa Rica","title":"End User"}},{"type":"Feature","geometry":{"type":"Point","coordinates":[-84.082012000001,9.9271279999987]},"properties":{"address":"San Jose, COSTA RICA","placename":"San Jose, Costa Rica","title":"End User"}},{"type":"Feature","geometry":{"type":"Point","coordinates":[-84.101562500003,9.9164237000031]},"properties":{"address":"San Jos\u00e9, Costa Rica 11856-1000","placename":"Calle Costa Rica, San Jose, Costa Rica","title":"End User"}},{"type":"Feature","geometry":{"type":"Point","coordinates":[-84.101562500003,9.9164237000031]},"properties":{"address":"San Jos\u00e9, Costa Rica 11856-1000","placename":"Calle Costa Rica, San Jose, Costa Rica","title":"End User"}},{"type":"Feature","geometry":{"type":"Point","coordinates":[-84.082012000001,9.9271279999987]},"properties":{"address":"San Jose, Costa Rica","placename":"San Jose, Costa Rica","title":"End User"}},{"type":"Feature","geometry":{"type":"Point","coordinates":[-84.082012000001,9.9271279999987]},"properties":{"description":"CR Production Facility","address":"San Jose, Costa Rica","placename":"San Jose, Costa Rica","title":"Printed Material"}},{"type":"Feature","geometry":{"type":"Point","coordinates":[-79.897453000004,-2.2038160000041]},"properties":{"address":"Guayaquil, Ecuador","placename":"Guayaquil, Ecuador","title":"End User"}},{"type":"Feature","geometry":{"type":"Point","coordinates":[-79.897453000004,-2.2038160000041]},"properties":{"address":"Guayaquil, ECUADOR","placename":"Guayaquil, Ecuador","title":"End User"}},{"type":"Feature","geometry":{"type":"Point","coordinates":[-79.897453000004,-2.2038160000041]},"properties":{"address":"Guayaquil, ECUADOR","placename":"Guayaquil, Ecuador","title":"End User"}},{"type":"Feature","geometry":{"type":"Point","coordinates":[-79.897453000004,-2.2038160000041]},"properties":{"address":"Guayaquil, ECUADOR","placename":"Guayaquil, Ecuador","title":"End User"}},{"type":"Feature","geometry":{"type":"Point","coordinates":[-79.897453000004,-2.2038160000041]},"properties":{"address":"Guayaquil, ECUADOR","placename":"Guayaquil, Ecuador","title":"End User"}},{"type":"Feature","geometry":{"type":"Point","coordinates":[-79.897453000004,-2.2038160000041]},"properties":{"address":"Guayaquil, ECUADOR","placename":"Guayaquil, Ecuador","title":"End User"}},{"type":"Feature","geometry":{"type":"Point","coordinates":[-78.5494552,-0.26064060000109]},"properties":{"address":"Quito, Ecuador 0000","placename":"Ecuador, Quito Canton, Ecuador","title":"End User"}},{"type":"Feature","geometry":{"type":"Point","coordinates":[-78.5494552,-0.26064060000109]},"properties":{"address":"Quito, Ecuador 170150","placename":"Ecuador, Quito Canton, Ecuador","title":"End User"}},{"type":"Feature","geometry":{"type":"Point","coordinates":[-78.5494552,-0.26064060000109]},"properties":{"address":"Quito, Ecuador 170150","placename":"Ecuador, Quito Canton, Ecuador","title":"End User"}},{"type":"Feature","geometry":{"type":"Point","coordinates":[-68.000535800002,10.190096100003]},"properties":{"address":"Valencia, Edo. Carabobo, Venezuela 45","placename":"Escuela de Policia, Av. Paseo Cabriales, Valencia 2001, Venezuela","title":"End User"}},{"type":"Feature","geometry":{"type":"Point","coordinates":[-66.816956699998,10.403023700002]},"properties":{"address":"Caracus, Venezuela 1064-A","placename":"Avenida A, Caracas, Venezuela","title":"End User"}},{"type":"Feature","geometry":{"type":"Point","coordinates":[-66.067170899998,18.395812600001]},"properties":{"address":"San Juan, Puerto Rico 00927","placename":"San Juan, 00927, Puerto Rico","title":"End User"}},{"type":"Feature","geometry":{"type":"Point","coordinates":[-66.067170899998,18.440214300001]},"properties":{"address":"SANTURCE, PR 00909","placename":"San Juan, 00909, Puerto Rico","title":"End User"}},{"type":"Feature","geometry":{"type":"Point","coordinates":[-69.258397199997,18.762109600004]},"properties":{"address":"Santo Domingo, Dominican Republic 10109","placename":"Santo Domingo, Hato Mayor del Rey 25000, Dominican Republic","title":"End User"}},{"type":"Feature","geometry":{"type":"Point","coordinates":[-57.560406500001,-25.333177]},"properties":{"address":"Asuncion, PARAGUAY 00000","placename":"25 de Agosto, Fernando De La Mora, Paraguay","title":"End User"}},{"type":"Feature","geometry":{"type":"Point","coordinates":[-57.7090512,-25.2981017]},"properties":{"address":"Asuncion, Paraguay 2069","placename":"Paraguay 2069, Clorinda, Formosa Province, Argentina","title":"End User"}},{"type":"Feature","geometry":{"type":"Point","coordinates":[-67.1121633,-17.956677499998]},"properties":{"address":"La Paz, Bolivien 3165","placename":"La Paz, Oruro, Bolivia","title":"End User"}},{"type":"Feature","geometry":{"type":"Point","coordinates":[-62.999999999998,-17.866666699997]},"properties":{"address":"Santa Cruz, Bolivia","placename":"Santa Cruz de la Sierra, Bolivia","title":"End User"}},{"type":"Feature","geometry":{"type":"Point","coordinates":[-67.1121633,-17.956677499998]},"properties":{"address":"La Paz, Bolivia 3165","placename":"La Paz, Oruro, Bolivia","title":"End User"}},{"type":"Feature","geometry":{"type":"Point","coordinates":[0,0]},"properties":{"address":"Gratamira Campestre, Colombia 000","title":"End User"}},{"type":"Feature","geometry":{"type":"Point","coordinates":[-74.076029999998,4.5981000000031]},"properties":{"address":"Santafe de Bogota, D.C, Colombia -","placename":"Bogot\u00e1, Cundinamarca, Colombia","title":"End User"}},{"type":"Feature","geometry":{"type":"Point","coordinates":[-72.497002300002,7.9086249000031]},"properties":{"address":"Bogota, COLOMBIA 00000","placename":"Bogot\u00e1 # 0, Cucuta, North Santander, Colombia","title":"End User"}},{"type":"Feature","geometry":{"type":"Point","coordinates":[-74.075833299996,4.5980556000042]},"properties":{"address":"Bogota, Colombia -","placename":"Bogot\u00e1, Bogota, Colombia","title":"End User"}},{"type":"Feature","geometry":{"type":"Point","coordinates":[-74.075833299996,4.5980556000042]},"properties":{"address":"Bogota, Colombia none","placename":"Bogot\u00e1, Bogota, Colombia","title":"End User"}},{"type":"Feature","geometry":{"type":"Point","coordinates":[-74.075833299996,4.5980556000042]},"properties":{"address":"Bogot\u00e1, Colombia -","placename":"Bogot\u00e1, Bogota, Colombia","title":"End User"}},{"type":"Feature","geometry":{"type":"Point","coordinates":[-74.075833299996,4.5980556000042]},"properties":{"address":"BOGOTA, COLOMBIA","placename":"Bogot\u00e1, Bogota, Colombia","title":"End User"}},{"type":"Feature","geometry":{"type":"Point","coordinates":[-74.075833299996,4.5980556000042]},"properties":{"address":"Bogota, Colombia -","placename":"Bogot\u00e1, Bogota, Colombia","title":"End User"}},{"type":"Feature","geometry":{"type":"Point","coordinates":[-74.076029999998,4.5981000000031]},"properties":{"address":"Santafe de Bogota, D.C, Colombia -","placename":"Bogot\u00e1, Cundinamarca, Colombia","title":"End User"}},{"type":"Feature","geometry":{"type":"Point","coordinates":[-76.522222200002,3.4205556000013]},"properties":{"address":"Cali, Colombia -","placename":"Cali, Valle del Cauca, Colombia","title":"End User"}},{"type":"Feature","geometry":{"type":"Point","coordinates":[-74.075833299996,4.5980556000042]},"properties":{"address":"BOGOTA, COLOMBIA","placename":"Bogot\u00e1, Bogota, Colombia","title":"End User"}},{"type":"Feature","geometry":{"type":"Point","coordinates":[-74.075833299996,4.5980556000042]},"properties":{"address":"BOGOTA, COLOMBIA","placename":"Bogot\u00e1, Bogota, Colombia","title":"End User"}},{"type":"Feature","geometry":{"type":"Point","coordinates":[-74.075833299996,4.5980556000042]},"properties":{"address":"Bogot\u00e1, Colombia -","placename":"Bogot\u00e1, Bogota, Colombia","title":"End User"}},{"type":"Feature","geometry":{"type":"Point","coordinates":[-72.504783000002,7.8945229999976]},"properties":{"address":"Bogota, Colombia 1","placename":"Bogot\u00e1 # 1, Cucuta, North Santander, Colombia","title":"End User"}},{"type":"Feature","geometry":{"type":"Point","coordinates":[-74.075833299996,4.5980556000042]},"properties":{"address":"Bogota, Colombia","placename":"Bogot\u00e1, Bogota, Colombia","title":"End User"}},{"type":"Feature","geometry":{"type":"Point","coordinates":[-72.500740000004,7.9027499999996]},"properties":{"address":"BOGOTA, COLOMBIA 3644","placename":"Bogot\u00e1, Cucuta, North Santander, Colombia","title":"End User"}},{"type":"Feature","geometry":{"type":"Point","coordinates":[-74.135899899999,4.7135816000037]},"properties":{"address":"BOGOTA, Colombia #69B-53","placename":"Calle 69B # 116A-53, Bogot\u00e1, Cundinamarca, Colombia","title":"End User"}},{"type":"Feature","geometry":{"type":"Point","coordinates":[-74.156109499998,4.4444477999962]},"properties":{"address":"Bogota, Colombia DC 110221","placename":"Asociacion Turismo Rural Comunitario Bogota D.C Ciudad Bolivar, Bogot\u00e1, Bogota, Colombia","title":"End User"}},{"type":"Feature","geometry":{"type":"Point","coordinates":[-74.075833299996,4.5980556000042]},"properties":{"address":"Bogota, Colombia none","placename":"Bogot\u00e1, Bogota, Colombia","title":"End User"}},{"type":"Feature","geometry":{"type":"Point","coordinates":[-74.105640299996,4.6161071999971]},"properties":{"address":"Santafe de Bogota, D.C, Colombia No. 4063","placename":"De Los Comuneros # 40-63, Bogot\u00e1, Cundinamarca, Colombia","title":"End User"}},{"type":"Feature","geometry":{"type":"Point","coordinates":[-74.138359999996,4.6225800000015]},"properties":{"address":"Bogota Cundinamarca, Colombia 0","placename":"Boyac\u00e1, Bogot\u00e1, Cundinamarca, Colombia","title":"End User"}},{"type":"Feature","geometry":{"type":"Point","coordinates":[-74.138359999996,4.6225800000015]},"properties":{"address":"Bogota Cundinamarca, Colombia 0","placename":"Boyac\u00e1, Bogot\u00e1, Cundinamarca, Colombia","title":"End User"}},{"type":"Feature","geometry":{"type":"Point","coordinates":[-75.527100000003,10.428939999999]},"properties":{"address":"Cartagena, Colombia 0","placename":"Calle 0, Cartagena De Indias (Distrito Tur\u00edstico Y Cultural), Bolivar, Colombia","title":"End User"}},{"type":"Feature","geometry":{"type":"Point","coordinates":[-72.500740000004,7.9027499999996]},"properties":{"address":"BOGOTA, COLOMBIA 3644","placename":"Bogot\u00e1, Cucuta, North Santander, Colombia","title":"End User"}},{"type":"Feature","geometry":{"type":"Point","coordinates":[-74.075833299996,4.5980556000042]},"properties":{"address":"Bogota, Colombia No","placename":"Bogot\u00e1, Bogota, Colombia","title":"End User"}},{"type":"Feature","geometry":{"type":"Point","coordinates":[-74.075833299996,4.5980556000042]},"properties":{"address":"Bogota, Colombia No","placename":"Bogot\u00e1, Bogota, Colombia","title":"End User"}},{"type":"Feature","geometry":{"type":"Point","coordinates":[-74.075833299996,4.5980556000042]},"properties":{"description":"COL Production Facility","address":"BOGOTA, COLOMBIA","placename":"Bogot\u00e1, Bogota, Colombia","title":"Printed Material"}},{"type":"Feature","geometry":{"type":"Point","coordinates":[-70.764022600003,-33.503627599999]},"properties":{"address":"Santiago, Chile 7500558","placename":"Chile, Maipu, Santiago Metropolitan Region, Chile","title":"End User"}},{"type":"Feature","geometry":{"type":"Point","coordinates":[-70.532427200003,-33.382536599997]},"properties":{"address":"Las Condes, Santiago, Chile 7591047","placename":"Las Condes, Santiago Metropolitan Region, Chile","title":"End User"}},{"type":"Feature","geometry":{"type":"Point","coordinates":[-70.601476000004,-33.4182488]},"properties":{"address":"Providencia Santi, Chile 2747","placename":"Providencia 2747, Providencia, Santiago Metropolitan Region, Chile","title":"End User"}},{"type":"Feature","geometry":{"type":"Point","coordinates":[-70.641997,-33.469119899999]},"properties":{"address":"Santiago, Chile -","placename":"Santiago, Santiago Metropolitan Region, Chile","title":"End User"}},{"type":"Feature","geometry":{"type":"Point","coordinates":[-70.601476000004,-33.4182488]},"properties":{"address":"Providencia Santi, Chile 2747","placename":"Providencia 2747, Providencia, Santiago Metropolitan Region, Chile","title":"End User"}},{"type":"Feature","geometry":{"type":"Point","coordinates":[-70.601476000004,-33.4182488]},"properties":{"address":"Providencia Santi, Chile 2747","placename":"Providencia 2747, Providencia, Santiago Metropolitan Region, Chile","title":"End User"}},{"type":"Feature","geometry":{"type":"Point","coordinates":[-70.601476000004,-33.4182488]},"properties":{"address":"Providencia Santi, Chile 2747","placename":"Providencia 2747, Providencia, Santiago Metropolitan Region, Chile","title":"End User"}},{"type":"Feature","geometry":{"type":"Point","coordinates":[-70.601476000004,-33.4182488]},"properties":{"address":"Providencia Santi, Chile 2747","placename":"Providencia 2747, Providencia, Santiago Metropolitan Region, Chile","title":"End User"}},{"type":"Feature","geometry":{"type":"Point","coordinates":[-70.641997,-33.469119899999]},"properties":{"address":"Santiago, Chile -","placename":"Santiago, Santiago Metropolitan Region, Chile","title":"End User"}},{"type":"Feature","geometry":{"type":"Point","coordinates":[-70.549999999996,-33.411666699999]},"properties":{"address":"Santiago, Chile Las Condes","placename":"Las Condes, Santiago Metropolitan Region, Chile","title":"End User"}},{"type":"Feature","geometry":{"type":"Point","coordinates":[-70.532427200003,-33.382536599997]},"properties":{"address":"Las Condes, Santiago, Chile 7591047","placename":"Las Condes, Santiago Metropolitan Region, Chile","title":"End User"}},{"type":"Feature","geometry":{"type":"Point","coordinates":[-70.641997,-33.469119899999]},"properties":{"address":"Santiago, Chile Chile","placename":"Santiago, Santiago Metropolitan Region, Chile","title":"End User"}},{"type":"Feature","geometry":{"type":"Point","coordinates":[-70.764022600003,-33.503627599999]},"properties":{"address":"Santigo, Chile 7550162","placename":"Chile, Maipu, Santiago Metropolitan Region, Chile","title":"End User"}},{"type":"Feature","geometry":{"type":"Point","coordinates":[-70.641997,-33.469119899999]},"properties":{"address":"Santiago, Chile -","placename":"Santiago, Santiago Metropolitan Region, Chile","title":"End User"}},{"type":"Feature","geometry":{"type":"Point","coordinates":[-70.764022600003,-33.503627599999]},"properties":{"address":"Santiago, Chile 7850077","placename":"Chile, Maipu, Santiago Metropolitan Region, Chile","title":"End User"}},{"type":"Feature","geometry":{"type":"Point","coordinates":[-70.532427200003,-33.382536599997]},"properties":{"address":"Las Condes, Santiago, Chile 7591047","placename":"Las Condes, Santiago Metropolitan Region, Chile","title":"End User"}},{"type":"Feature","geometry":{"type":"Point","coordinates":[-70.641997,-33.469119899999]},"properties":{"address":"Santiago, Chile","placename":"Santiago, Santiago Metropolitan Region, Chile","title":"End User"}},{"type":"Feature","geometry":{"type":"Point","coordinates":[-70.623621700002,-33.4309526]},"properties":{"address":"Providencia - Santiago, Chile 750-0498","placename":"Providencia 750, Providencia, Santiago Metropolitan Region, Chile","title":"End User"}},{"type":"Feature","geometry":{"type":"Point","coordinates":[-70.623621700002,-33.4309526]},"properties":{"address":"Providencia - Santiago, Chile 750-0498","placename":"Providencia 750, Providencia, Santiago Metropolitan Region, Chile","title":"End User"}},{"type":"Feature","geometry":{"type":"Point","coordinates":[-70.764022600003,-33.503627599999]},"properties":{"address":"Santiago, Chile 7550178","placename":"Chile, Maipu, Santiago Metropolitan Region, Chile","title":"End User"}},{"type":"Feature","geometry":{"type":"Point","coordinates":[-70.764022600003,-33.503627599999]},"properties":{"address":"Santigo, Chile 7550162","placename":"Chile, Maipu, Santiago Metropolitan Region, Chile","title":"End User"}},{"type":"Feature","geometry":{"type":"Point","coordinates":[-70.764022600003,-33.503627599999]},"properties":{"address":"SANTIAGO, Chile 8320000","placename":"Chile, Maipu, Santiago Metropolitan Region, Chile","title":"End User"}},{"type":"Feature","geometry":{"type":"Point","coordinates":[-70.764022600003,-33.503627599999]},"properties":{"address":"Santiago, Chile 7550178","placename":"Chile, Maipu, Santiago Metropolitan Region, Chile","title":"End User"}},{"type":"Feature","geometry":{"type":"Point","coordinates":[-70.561711600002,-33.535776600001]},"properties":{"address":"Centro, Santiago,, Chile -","placename":"Centro, La Florida, Santiago Metropolitan Region, Chile","title":"End User"}},{"type":"Feature","geometry":{"type":"Point","coordinates":[-70.532427200003,-33.382536599997]},"properties":{"address":"Las Condes, Santiago, Chile 7591047","placename":"Las Condes, Santiago Metropolitan Region, Chile","title":"End User"}},{"type":"Feature","geometry":{"type":"Point","coordinates":[-70.764022600003,-33.503627599999]},"properties":{"address":"Santiago, Chile 7500558","placename":"Chile, Maipu, Santiago Metropolitan Region, Chile","title":"End User"}},{"type":"Feature","geometry":{"type":"Point","coordinates":[-70.395019999997,-23.650388000001]},"properties":{"address":"Antofagasta, Chile 1240000","placename":"Santo Tomas Antofagasta, Antofagasta 1240000, Antofagasta Region, Chile","title":"End User"}},{"type":"Feature","geometry":{"type":"Point","coordinates":[-70.395019999997,-23.650388000001]},"properties":{"address":"Antofagasta, Chile 1240000","placename":"Santo Tomas Antofagasta, Antofagasta 1240000, Antofagasta Region, Chile","title":"End User"}},{"type":"Feature","geometry":{"type":"Point","coordinates":[-70.641997,-33.469119899999]},"properties":{"address":"Santiago, Chile","placename":"Santiago, Santiago Metropolitan Region, Chile","title":"End User"}},{"type":"Feature","geometry":{"type":"Point","coordinates":[-70.641997,-33.469119899999]},"properties":{"address":"Santiago, Chile","placename":"Santiago, Santiago Metropolitan Region, Chile","title":"End User"}},{"type":"Feature","geometry":{"type":"Point","coordinates":[-70.641997,-33.469119899999]},"properties":{"address":"Santiago, Chile","placename":"Santiago, Santiago Metropolitan Region, Chile","title":"End User"}},{"type":"Feature","geometry":{"type":"Point","coordinates":[-70.641997,-33.469119899999]},"properties":{"address":"Santiago, Chile","placename":"Santiago, Santiago Metropolitan Region, Chile","title":"End User"}},{"type":"Feature","geometry":{"type":"Point","coordinates":[-70.641997,-33.469119899999]},"properties":{"address":"Santiago, Chile","placename":"Santiago, Santiago Metropolitan Region, Chile","title":"End User"}},{"type":"Feature","geometry":{"type":"Point","coordinates":[-70.641997,-33.469119899999]},"properties":{"address":"Santiago, Chile","placename":"Santiago, Santiago Metropolitan Region, Chile","title":"End User"}},{"type":"Feature","geometry":{"type":"Point","coordinates":[-70.641997,-33.469119899999]},"properties":{"address":"Santiago, Chile","placename":"Santiago, Santiago Metropolitan Region, Chile","title":"End User"}},{"type":"Feature","geometry":{"type":"Point","coordinates":[-70.641997,-33.469119899999]},"properties":{"address":"Santiago, Chile","placename":"Santiago, Santiago Metropolitan Region, Chile","title":"End User"}},{"type":"Feature","geometry":{"type":"Point","coordinates":[-70.641997,-33.469119899999]},"properties":{"address":"Santiago, Chile","placename":"Santiago, Santiago Metropolitan Region, Chile","title":"End User"}},{"type":"Feature","geometry":{"type":"Point","coordinates":[-70.641997,-33.469119899999]},"properties":{"address":"Santiago, Chile","placename":"Santiago, Santiago Metropolitan Region, Chile","title":"End User"}},{"type":"Feature","geometry":{"type":"Point","coordinates":[-70.641997,-33.469119899999]},"properties":{"address":"Santiago, Chile","placename":"Santiago, Santiago Metropolitan Region, Chile","title":"End User"}},{"type":"Feature","geometry":{"type":"Point","coordinates":[-70.641997,-33.469119899999]},"properties":{"address":"Santiago, Chile","placename":"Santiago, Santiago Metropolitan Region, Chile","title":"End User"}},{"type":"Feature","geometry":{"type":"Point","coordinates":[-70.641997,-33.469119899999]},"properties":{"address":"Santiago, Chile","placename":"Santiago, Santiago Metropolitan Region, Chile","title":"End User"}},{"type":"Feature","geometry":{"type":"Point","coordinates":[-70.641997,-33.469119899999]},"properties":{"address":"Santiago, Chile","placename":"Santiago, Santiago Metropolitan Region, Chile","title":"End User"}},{"type":"Feature","geometry":{"type":"Point","coordinates":[-70.641997,-33.469119899999]},"properties":{"address":"Santiago, Chile","placename":"Santiago, Santiago Metropolitan Region, Chile","title":"End User"}},{"type":"Feature","geometry":{"type":"Point","coordinates":[-70.641997,-33.469119899999]},"properties":{"address":"Santiago, Chile","placename":"Santiago, Santiago Metropolitan Region, Chile","title":"End User"}},{"type":"Feature","geometry":{"type":"Point","coordinates":[-70.395019999997,-23.650388000001]},"properties":{"address":"Antofagasta, Chile 1240000","placename":"Santo Tomas Antofagasta, Antofagasta 1240000, Antofagasta Region, Chile","title":"End User"}},{"type":"Feature","geometry":{"type":"Point","coordinates":[-70.641997,-33.469119899999]},"properties":{"address":"Santiago, Chile","placename":"Santiago, Santiago Metropolitan Region, Chile","title":"End User"}},{"type":"Feature","geometry":{"type":"Point","coordinates":[-70.641997,-33.469119899999]},"properties":{"address":"Santiago, Chile","placename":"Santiago, Santiago Metropolitan Region, Chile","title":"End User"}},{"type":"Feature","geometry":{"type":"Point","coordinates":[-70.395019999997,-23.650388000001]},"properties":{"address":"Antofagasta, Chile 1240000","placename":"Santo Tomas Antofagasta, Antofagasta 1240000, Antofagasta Region, Chile","title":"End User"}},{"type":"Feature","geometry":{"type":"Point","coordinates":[-70.395019999997,-23.650388000001]},"properties":{"address":"Antofagasta, Chile 1240000","placename":"Santo Tomas Antofagasta, Antofagasta 1240000, Antofagasta Region, Chile","title":"End User"}},{"type":"Feature","geometry":{"type":"Point","coordinates":[-70.641997,-33.469119899999]},"properties":{"address":"Santiago, Chile","placename":"Santiago, Santiago Metropolitan Region, Chile","title":"End User"}},{"type":"Feature","geometry":{"type":"Point","coordinates":[-70.395019999997,-23.650388000001]},"properties":{"address":"Antofagasta, Chile 1240000","placename":"Santo Tomas Antofagasta, Antofagasta 1240000, Antofagasta Region, Chile","title":"End User"}},{"type":"Feature","geometry":{"type":"Point","coordinates":[-70.395019999997,-23.650388000001]},"properties":{"address":"Antofagasta, Chile 1240000","placename":"Santo Tomas Antofagasta, Antofagasta 1240000, Antofagasta Region, Chile","title":"End User"}},{"type":"Feature","geometry":{"type":"Point","coordinates":[-70.641997,-33.469119899999]},"properties":{"address":"Santiago, Chile","placename":"Santiago, Santiago Metropolitan Region, Chile","title":"End User"}},{"type":"Feature","geometry":{"type":"Point","coordinates":[-70.641997,-33.469119899999]},"properties":{"address":"Santiago, Chile","placename":"Santiago, Santiago Metropolitan Region, Chile","title":"End User"}},{"type":"Feature","geometry":{"type":"Point","coordinates":[-70.641997,-33.469119899999]},"properties":{"address":"Santiago, Chile","placename":"Santiago, Santiago Metropolitan Region, Chile","title":"End User"}},{"type":"Feature","geometry":{"type":"Point","coordinates":[-70.395019999997,-23.650388000001]},"properties":{"address":"Antofagasta, Chile 1240000","placename":"Santo Tomas Antofagasta, Antofagasta 1240000, Antofagasta Region, Chile","title":"End User"}},{"type":"Feature","geometry":{"type":"Point","coordinates":[-70.641997,-33.469119899999]},"properties":{"address":"Santiago, Chile","placename":"Santiago, Santiago Metropolitan Region, Chile","title":"End User"}},{"type":"Feature","geometry":{"type":"Point","coordinates":[-70.395019999997,-23.650388000001]},"properties":{"address":"Antofagasta, Chile 1240000","placename":"Santo Tomas Antofagasta, Antofagasta 1240000, Antofagasta Region, Chile","title":"End User"}},{"type":"Feature","geometry":{"type":"Point","coordinates":[-70.395019999997,-23.650388000001]},"properties":{"address":"Antofagasta, Chile 1240000","placename":"Santo Tomas Antofagasta, Antofagasta 1240000, Antofagasta Region, Chile","title":"End User"}},{"type":"Feature","geometry":{"type":"Point","coordinates":[-70.641997,-33.469119899999]},"properties":{"address":"Santiago, Chile","placename":"Santiago, Santiago Metropolitan Region, Chile","title":"End User"}},{"type":"Feature","geometry":{"type":"Point","coordinates":[-70.641997,-33.469119899999]},"properties":{"address":"Santiago, Chile","placename":"Santiago, Santiago Metropolitan Region, Chile","title":"End User"}},{"type":"Feature","geometry":{"type":"Point","coordinates":[-70.641997,-33.469119899999]},"properties":{"address":"Santiago, Chile","placename":"Santiago, Santiago Metropolitan Region, Chile","title":"End User"}},{"type":"Feature","geometry":{"type":"Point","coordinates":[-70.641997,-33.469119899999]},"properties":{"address":"Santiago, Chile","placename":"Santiago, Santiago Metropolitan Region, Chile","title":"End User"}},{"type":"Feature","geometry":{"type":"Point","coordinates":[-70.641997,-33.469119899999]},"properties":{"address":"Santiago, Chile","placename":"Santiago, Santiago Metropolitan Region, Chile","title":"End User"}},{"type":"Feature","geometry":{"type":"Point","coordinates":[-70.641997,-33.469119899999]},"properties":{"address":"Santiago, Chile","placename":"Santiago, Santiago Metropolitan Region, Chile","title":"End User"}},{"type":"Feature","geometry":{"type":"Point","coordinates":[-70.641997,-33.469119899999]},"properties":{"address":"Santiago, Chile","placename":"Santiago, Santiago Metropolitan Region, Chile","title":"End User"}},{"type":"Feature","geometry":{"type":"Point","coordinates":[-70.641997,-33.469119899999]},"properties":{"address":"Santiago, Chile","placename":"Santiago, Santiago Metropolitan Region, Chile","title":"End User"}},{"type":"Feature","geometry":{"type":"Point","coordinates":[-70.641997,-33.469119899999]},"properties":{"address":"Santiago, Chile","placename":"Santiago, Santiago Metropolitan Region, Chile","title":"End User"}},{"type":"Feature","geometry":{"type":"Point","coordinates":[-70.641997,-33.469119899999]},"properties":{"address":"Santiago, Chile","placename":"Santiago, Santiago Metropolitan Region, Chile","title":"End User"}},{"type":"Feature","geometry":{"type":"Point","coordinates":[-70.641997,-33.469119899999]},"properties":{"address":"Santiago, Chile","placename":"Santiago, Santiago Metropolitan Region, Chile","title":"End User"}},{"type":"Feature","geometry":{"type":"Point","coordinates":[-70.395019999997,-23.650388000001]},"properties":{"address":"Antofagasta, Chile 1240000","placename":"Santo Tomas Antofagasta, Antofagasta 1240000, Antofagasta Region, Chile","title":"End User"}},{"type":"Feature","geometry":{"type":"Point","coordinates":[-70.641997,-33.469119899999]},"properties":{"address":"Santiago, Chile","placename":"Santiago, Santiago Metropolitan Region, Chile","title":"End User"}},{"type":"Feature","geometry":{"type":"Point","coordinates":[-70.758620400004,-33.503596000001]},"properties":{"address":"Santiago, Chile 81","placename":"Chile 81, Maipu, Santiago Metropolitan Region, Chile","title":"End User"}},{"type":"Feature","geometry":{"type":"Point","coordinates":[-70.758620400004,-33.503596000001]},"properties":{"address":"Santiago, Chile 81","placename":"Chile 81, Maipu, Santiago Metropolitan Region, Chile","title":"End User"}},{"type":"Feature","geometry":{"type":"Point","coordinates":[-70.641997,-33.469119899999]},"properties":{"address":"Santiago, Chile","placename":"Santiago, Santiago Metropolitan Region, Chile","title":"End User"}},{"type":"Feature","geometry":{"type":"Point","coordinates":[-70.641997,-33.469119899999]},"properties":{"address":"Santiago, Chile","placename":"Santiago, Santiago Metropolitan Region, Chile","title":"End User"}},{"type":"Feature","geometry":{"type":"Point","coordinates":[-70.641997,-33.469119899999]},"properties":{"address":"Santiago, Chile","placename":"Santiago, Santiago Metropolitan Region, Chile","title":"End User"}},{"type":"Feature","geometry":{"type":"Point","coordinates":[-70.641997,-33.469119899999]},"properties":{"address":"Santiago, Chile","placename":"Santiago, Santiago Metropolitan Region, Chile","title":"End User"}},{"type":"Feature","geometry":{"type":"Point","coordinates":[-70.641997,-33.469119899999]},"properties":{"address":"Santiago, Chile","placename":"Santiago, Santiago Metropolitan Region, Chile","title":"End User"}},{"type":"Feature","geometry":{"type":"Point","coordinates":[-70.641997,-33.469119899999]},"properties":{"address":"Santiago, Chile","placename":"Santiago, Santiago Metropolitan Region, Chile","title":"End User"}},{"type":"Feature","geometry":{"type":"Point","coordinates":[-70.395019999997,-23.650388000001]},"properties":{"address":"Antofagasta, Chile 1240000","placename":"Santo Tomas Antofagasta, Antofagasta 1240000, Antofagasta Region, Chile","title":"End User"}},{"type":"Feature","geometry":{"type":"Point","coordinates":[-70.641997,-33.469119899999]},"properties":{"address":"Santiago, Chile","placename":"Santiago, Santiago Metropolitan Region, Chile","title":"End User"}},{"type":"Feature","geometry":{"type":"Point","coordinates":[-70.641997,-33.469119899999]},"properties":{"address":"Santiago, Chile","placename":"Santiago, Santiago Metropolitan Region, Chile","title":"End User"}},{"type":"Feature","geometry":{"type":"Point","coordinates":[-70.641997,-33.469119899999]},"properties":{"address":"Santiago, Chile","placename":"Santiago, Santiago Metropolitan Region, Chile","title":"End User"}},{"type":"Feature","geometry":{"type":"Point","coordinates":[-70.641997,-33.469119899999]},"properties":{"address":"Santiago, Chile","placename":"Santiago, Santiago Metropolitan Region, Chile","title":"End User"}},{"type":"Feature","geometry":{"type":"Point","coordinates":[-70.641997,-33.469119899999]},"properties":{"address":"Santiago, Chile","placename":"Santiago, Santiago Metropolitan Region, Chile","title":"End User"}},{"type":"Feature","geometry":{"type":"Point","coordinates":[-70.641997,-33.469119899999]},"properties":{"address":"Santiago, Chile","placename":"Santiago, Santiago Metropolitan Region, Chile","title":"End User"}},{"type":"Feature","geometry":{"type":"Point","coordinates":[-70.641997,-33.469119899999]},"properties":{"address":"Santiago, Chile","placename":"Santiago, Santiago Metropolitan Region, Chile","title":"End User"}},{"type":"Feature","geometry":{"type":"Point","coordinates":[-70.641997,-33.469119899999]},"properties":{"address":"Santiago, Chile","placename":"Santiago, Santiago Metropolitan Region, Chile","title":"End User"}},{"type":"Feature","geometry":{"type":"Point","coordinates":[-70.641997,-33.469119899999]},"properties":{"address":"Santiago, Chile","placename":"Santiago, Santiago Metropolitan Region, Chile","title":"End User"}},{"type":"Feature","geometry":{"type":"Point","coordinates":[-70.641997,-33.469119899999]},"properties":{"address":"Santiago, Chile","placename":"Santiago, Santiago Metropolitan Region, Chile","title":"End User"}},{"type":"Feature","geometry":{"type":"Point","coordinates":[-70.641997,-33.469119899999]},"properties":{"address":"Santiago, Chile","placename":"Santiago, Santiago Metropolitan Region, Chile","title":"End User"}},{"type":"Feature","geometry":{"type":"Point","coordinates":[-70.758620400004,-33.503596000001]},"properties":{"address":"Santiago, Chile 81","placename":"Chile 81, Maipu, Santiago Metropolitan Region, Chile","title":"End User"}},{"type":"Feature","geometry":{"type":"Point","coordinates":[-70.758620400004,-33.503596000001]},"properties":{"address":"Santiago, Chile 81","placename":"Chile 81, Maipu, Santiago Metropolitan Region, Chile","title":"End User"}},{"type":"Feature","geometry":{"type":"Point","coordinates":[-70.758620400004,-33.503596000001]},"properties":{"address":"Santiago, Chile 81","placename":"Chile 81, Maipu, Santiago Metropolitan Region, Chile","title":"End User"}},{"type":"Feature","geometry":{"type":"Point","coordinates":[-70.395019999997,-23.650388000001]},"properties":{"address":"Antofagasta, Chile 1240000","placename":"Santo Tomas Antofagasta, Antofagasta 1240000, Antofagasta Region, Chile","title":"End User"}},{"type":"Feature","geometry":{"type":"Point","coordinates":[-70.758620400004,-33.503596000001]},"properties":{"address":"Santiago, Chile 81","placename":"Chile 81, Maipu, Santiago Metropolitan Region, Chile","title":"End User"}},{"type":"Feature","geometry":{"type":"Point","coordinates":[-70.758620400004,-33.503596000001]},"properties":{"address":"Santiago, Chile 81","placename":"Chile 81, Maipu, Santiago Metropolitan Region, Chile","title":"End User"}},{"type":"Feature","geometry":{"type":"Point","coordinates":[-70.758620400004,-33.503596000001]},"properties":{"address":"Santiago, Chile 81","placename":"Chile 81, Maipu, Santiago Metropolitan Region, Chile","title":"End User"}},{"type":"Feature","geometry":{"type":"Point","coordinates":[-70.758620400004,-33.503596000001]},"properties":{"address":"Santiago, Chile 81","placename":"Chile 81, Maipu, Santiago Metropolitan Region, Chile","title":"End User"}},{"type":"Feature","geometry":{"type":"Point","coordinates":[-70.758620400004,-33.503596000001]},"properties":{"address":"Santiago, Chile 81","placename":"Chile 81, Maipu, Santiago Metropolitan Region, Chile","title":"End User"}},{"type":"Feature","geometry":{"type":"Point","coordinates":[-70.758620400004,-33.503596000001]},"properties":{"address":"Santiago, Chile 81","placename":"Chile 81, Maipu, Santiago Metropolitan Region, Chile","title":"End User"}},{"type":"Feature","geometry":{"type":"Point","coordinates":[-70.758620400004,-33.503596000001]},"properties":{"address":"Santiago, Chile 81","placename":"Chile 81, Maipu, Santiago Metropolitan Region, Chile","title":"End User"}},{"type":"Feature","geometry":{"type":"Point","coordinates":[-70.758620400004,-33.503596000001]},"properties":{"address":"Santiago, Chile 81","placename":"Chile 81, Maipu, Santiago Metropolitan Region, Chile","title":"End User"}},{"type":"Feature","geometry":{"type":"Point","coordinates":[-70.758620400004,-33.503596000001]},"properties":{"address":"Santiago, Chile 81","placename":"Chile 81, Maipu, Santiago Metropolitan Region, Chile","title":"End User"}},{"type":"Feature","geometry":{"type":"Point","coordinates":[-70.758620400004,-33.503596000001]},"properties":{"address":"Santiago, Chile 81","placename":"Chile 81, Maipu, Santiago Metropolitan Region, Chile","title":"End User"}},{"type":"Feature","geometry":{"type":"Point","coordinates":[-70.395019999997,-23.650388000001]},"properties":{"address":"Antofagasta, Chile 1240000","placename":"Santo Tomas Antofagasta, Antofagasta 1240000, Antofagasta Region, Chile","title":"End User"}},{"type":"Feature","geometry":{"type":"Point","coordinates":[-70.758620400004,-33.503596000001]},"properties":{"address":"Santiago, Chile 81","placename":"Chile 81, Maipu, Santiago Metropolitan Region, Chile","title":"End User"}},{"type":"Feature","geometry":{"type":"Point","coordinates":[-70.758620400004,-33.503596000001]},"properties":{"address":"Santiago, Chile 81","placename":"Chile 81, Maipu, Santiago Metropolitan Region, Chile","title":"End User"}},{"type":"Feature","geometry":{"type":"Point","coordinates":[-70.758620400004,-33.503596000001]},"properties":{"address":"Santiago, Chile 81","placename":"Chile 81, Maipu, Santiago Metropolitan Region, Chile","title":"End User"}},{"type":"Feature","geometry":{"type":"Point","coordinates":[-70.641997,-33.469119899999]},"properties":{"address":"Santiago, Chile","placename":"Santiago, Santiago Metropolitan Region, Chile","title":"End User"}},{"type":"Feature","geometry":{"type":"Point","coordinates":[-70.764022600003,-33.503627599999]},"properties":{"address":"Santigo, Chile 7550162","placename":"Chile, Maipu, Santiago Metropolitan Region, Chile","title":"End User"}},{"type":"Feature","geometry":{"type":"Point","coordinates":[-70.549999999996,-33.411666699999]},"properties":{"address":"Las Condes, Santiago, Chile","placename":"Las Condes, Santiago Metropolitan Region, Chile","title":"End User"}},{"type":"Feature","geometry":{"type":"Point","coordinates":[-70.641997,-33.469119899999]},"properties":{"address":"Santiago, Chile","placename":"Santiago, Santiago Metropolitan Region, Chile","title":"End User"}},{"type":"Feature","geometry":{"type":"Point","coordinates":[-70.641997,-33.469119899999]},"properties":{"address":"Santiago, Chile","placename":"Santiago, Santiago Metropolitan Region, Chile","title":"End User"}},{"type":"Feature","geometry":{"type":"Point","coordinates":[-70.666047699998,-33.414156900001]},"properties":{"address":"Santiago, Chile 2100","placename":"Chile 2100, Independencia, Santiago Metropolitan Region, Chile","title":"End User"}},{"type":"Feature","geometry":{"type":"Point","coordinates":[-70.666047699998,-33.414156900001]},"properties":{"address":"Santiago, Chile 2100","placename":"Chile 2100, Independencia, Santiago Metropolitan Region, Chile","title":"End User"}},{"type":"Feature","geometry":{"type":"Point","coordinates":[-70.532427200003,-33.382536599997]},"properties":{"address":"Las Condes, Santiago, Chile 7591047","placename":"Las Condes, Santiago Metropolitan Region, Chile","title":"End User"}},{"type":"Feature","geometry":{"type":"Point","coordinates":[-70.764022600003,-33.503627599999]},"properties":{"address":"Santiago, Chile 7550178","placename":"Chile, Maipu, Santiago Metropolitan Region, Chile","title":"End User"}},{"type":"Feature","geometry":{"type":"Point","coordinates":[-70.623621700002,-33.4309526]},"properties":{"address":"Providencia - Santiago, Chile 750-0498","placename":"Providencia 750, Providencia, Santiago Metropolitan Region, Chile","title":"End User"}},{"type":"Feature","geometry":{"type":"Point","coordinates":[-70.764022600003,-33.503627599999]},"properties":{"address":"santiago, chile 7560995","placename":"Chile, Maipu, Santiago Metropolitan Region, Chile","title":"End User"}},{"type":"Feature","geometry":{"type":"Point","coordinates":[-70.5771176,-33.393454600002]},"properties":{"address":"Vitacura, Chile 7630559","placename":"Vitacura, Santiago Metropolitan Region, Chile","title":"End User"}},{"type":"Feature","geometry":{"type":"Point","coordinates":[-70.641997,-33.469119899999]},"properties":{"description":"CHL Production Facility","address":"Santiago, Chile","placename":"Santiago, Santiago Metropolitan Region, Chile","title":"Printed Material"}},{"type":"Feature","geometry":{"type":"Point","coordinates":[-54.949999999997,-34.966666699999]},"properties":{"address":"Punta del Este, Uruguay 20100","placename":"Punta del Este, Uruguay","title":"End User"}},{"type":"Feature","geometry":{"type":"Point","coordinates":[-57.959808500003,-31.388082499998]},"properties":{"address":"Salto, Uruguay 50.000","placename":"Uruguay, Salto 50000, Uruguay","title":"End User"}},{"type":"Feature","geometry":{"type":"Point","coordinates":[-56.064024400003,-34.880319999999]},"properties":{"address":"Montevideo, Uruguay 11500","placename":"Montevideo 11500, Uruguay","title":"End User"}},{"type":"Feature","geometry":{"type":"Point","coordinates":[-56.175023099997,-34.835241799996]},"properties":{"address":"Montevideo, Uruguay 11.100","placename":"Senda 11, Montevideo 12300, Uruguay","title":"End User"}},{"type":"Feature","geometry":{"type":"Point","coordinates":[-56.195161900004,-34.904517100002]},"properties":{"address":"Montevideo, Uruguay 11100","placename":"Montevideo 11100, Uruguay","title":"End User"}},{"type":"Feature","geometry":{"type":"Point","coordinates":[-56.195161900004,-34.904517100002]},"properties":{"address":"Montevideo, Uruguay 11100","placename":"Montevideo 11100, Uruguay","title":"End User"}},{"type":"Feature","geometry":{"type":"Point","coordinates":[-56.195161900004,-34.904517100002]},"properties":{"address":"Montevideo, Uruguay 11100","placename":"Montevideo 11100, Uruguay","title":"End User"}},{"type":"Feature","geometry":{"type":"Point","coordinates":[-56.195161900004,-34.904517100002]},"properties":{"address":"Montevideo, Uruguay 11100","placename":"Montevideo 11100, Uruguay","title":"End User"}},{"type":"Feature","geometry":{"type":"Point","coordinates":[-56.195161900004,-34.904517100002]},"properties":{"address":"Montevideo, Uruguay 11100","placename":"Montevideo 11100, Uruguay","title":"End User"}},{"type":"Feature","geometry":{"type":"Point","coordinates":[-54.949999999997,-34.966666699999]},"properties":{"address":"Punta del Este, Uruguay 20100","placename":"Punta del Este, Uruguay","title":"End User"}},{"type":"Feature","geometry":{"type":"Point","coordinates":[-56.175619000001,-34.9057062]},"properties":{"address":"Montevideo, Uruguay 11200","placename":"Montevideo 11200, Uruguay","title":"End User"}},{"type":"Feature","geometry":{"type":"Point","coordinates":[-56.175619000001,-34.9057062]},"properties":{"address":"Montevideo, Uruguay 11200","placename":"Montevideo 11200, Uruguay","title":"End User"}},{"type":"Feature","geometry":{"type":"Point","coordinates":[-58.381593099999,-34.603723200003]},"properties":{"address":"Buenos Aires, Argentina C1405CCB","placename":"Buenos Aires, Argentina","title":"End User"}},{"type":"Feature","geometry":{"type":"Point","coordinates":[-58.419076699998,-34.5828496]},"properties":{"address":"CABA, Buenos Aires, Argentina 1425","placename":"Carlos Thays Botanical Garden - Avenida Santa Fe 3951, 1425 Buenos Aires, Autonomous City of Buenos Aires, Argentina","title":"End User"}},{"type":"Feature","geometry":{"type":"Point","coordinates":[-58.381593099999,-34.603723200003]},"properties":{"address":"Buenos Aires, Argentina C1106BKG","placename":"Buenos Aires, Argentina","title":"End User"}},{"type":"Feature","geometry":{"type":"Point","coordinates":[-58.381593099999,-34.603723200003]},"properties":{"address":"Buenos Aires, Argentina C1106BKG","placename":"Buenos Aires, Argentina","title":"End User"}},{"type":"Feature","geometry":{"type":"Point","coordinates":[-58.381593099999,-34.603723200003]},"properties":{"address":"Buenos Aires, Argentina C1106BKG","placename":"Buenos Aires, Argentina","title":"End User"}},{"type":"Feature","geometry":{"type":"Point","coordinates":[-58.564677699998,-34.662178599998]},"properties":{"address":"Buenos Aires, Argentina 1425","placename":"Argentina 1425, Ramos Mej\u00eda, Buenos Aires Province, Argentina","title":"End User"}},{"type":"Feature","geometry":{"type":"Point","coordinates":[-58.381593099999,-34.603723200003]},"properties":{"address":"Buenos Aires, Argentina C1005AAU","placename":"Buenos Aires, Argentina","title":"End User"}},{"type":"Feature","geometry":{"type":"Point","coordinates":[-58.381593099999,-34.603723200003]},"properties":{"address":"Buenos Aires, Argentina","placename":"Buenos Aires, Argentina","title":"End User"}},{"type":"Feature","geometry":{"type":"Point","coordinates":[-58.564677699998,-34.662178599998]},"properties":{"address":"Buenos Aires, Argentina 1425","placename":"Argentina 1425, Ramos Mej\u00eda, Buenos Aires Province, Argentina","title":"End User"}},{"type":"Feature","geometry":{"type":"Point","coordinates":[-58.567559300001,-34.659712400004]},"properties":{"address":"Buenos Aires, Argentina 1086","placename":"Argentina 1086, Ramos Mej\u00eda, Buenos Aires Province, Argentina","title":"End User"}},{"type":"Feature","geometry":{"type":"Point","coordinates":[-58.564731300001,-34.662097900002]},"properties":{"address":"Buenos Aires, Argentina 1414","placename":"Argentina 1414, Ramos Mej\u00eda, Buenos Aires Province, Argentina","title":"End User"}},{"type":"Feature","geometry":{"type":"Point","coordinates":[-64.220984100001,-31.434967599998]},"properties":{"address":"C.P. 5008, Cordoba, Argentina C.P. 5008","placename":"C 5008, C\u00f3rdoba, C\u00f3rdoba Province, Argentina","title":"End User"}},{"type":"Feature","geometry":{"type":"Point","coordinates":[-58.568839900002,-34.658769799997]},"properties":{"address":"Buenos Aires, Argentina 1009","placename":"Argentina 1009, Ramos Mej\u00eda, Buenos Aires Province, Argentina","title":"End User"}},{"type":"Feature","geometry":{"type":"Point","coordinates":[-58.562893900004,-34.663479099999]},"properties":{"address":"Buenos Aires, Argentina 1674","placename":"Argentina 1674, Ramos Mej\u00eda, Buenos Aires Province, Argentina","title":"End User"}},{"type":"Feature","geometry":{"type":"Point","coordinates":[-63.237557599997,-32.407384200003]},"properties":{"address":"Bueno Aires, Argentina 1636","placename":"Buenos Aires 1636, Villa Mar\u00eda, C\u00f3rdoba Province, Argentina","title":"End User"}},{"type":"Feature","geometry":{"type":"Point","coordinates":[-63.237557599997,-32.407384200003]},"properties":{"address":"Bueno Aires, Argentina 1636","placename":"Buenos Aires 1636, Villa Mar\u00eda, C\u00f3rdoba Province, Argentina","title":"End User"}},{"type":"Feature","geometry":{"type":"Point","coordinates":[-58.381593099999,-34.603723200003]},"properties":{"address":"Buenos Aires, Argentina C1092AAU","placename":"Buenos Aires, Argentina","title":"End User"}},{"type":"Feature","geometry":{"type":"Point","coordinates":[-58.381593099999,-34.603723200003]},"properties":{"address":"Buenos Aires,, Argentina B1609JUC","placename":"Buenos Aires, Argentina","title":"End User"}},{"type":"Feature","geometry":{"type":"Point","coordinates":[-58.564677699998,-34.662178599998]},"properties":{"address":"Buenos Aires, Argentina 1425","placename":"Argentina 1425, Ramos Mej\u00eda, Buenos Aires Province, Argentina","title":"End User"}},{"type":"Feature","geometry":{"type":"Point","coordinates":[-58.568839900002,-34.658769799997]},"properties":{"address":"Buenos Aires, Argentina 1009","placename":"Argentina 1009, Ramos Mej\u00eda, Buenos Aires Province, Argentina","title":"End User"}},{"type":"Feature","geometry":{"type":"Point","coordinates":[-58.568839900002,-34.658769799997]},"properties":{"address":"Buenos Aires, Argentina 1009","placename":"Argentina 1009, Ramos Mej\u00eda, Buenos Aires Province, Argentina","title":"End User"}},{"type":"Feature","geometry":{"type":"Point","coordinates":[-58.568839900002,-34.658769799997]},"properties":{"description":"ARG Production Facility","address":"Buenos Aires, Argentina 1009","placename":"Argentina 1009, Ramos Mej\u00eda, Buenos Aires Province, Argentina","title":"Printed Material"}},{"type":"Feature","geometry":{"type":"Point","coordinates":[-43.9561946,-19.882231399998]},"properties":{"address":"Belo Horizonte, Brazil 31250-620","placename":"Belo Horizonte - Minas Gerais, 31250-620, Brazil","title":"End User"}},{"type":"Feature","geometry":{"type":"Point","coordinates":[-51.136978500004,-29.691623100001]},"properties":{"address":"Novo Hamburgo, Brazil 93336001","placename":"Novo Hamburgo - Rio Grande do Sul, 93336-001, Brazil","title":"End User"}},{"type":"Feature","geometry":{"type":"Point","coordinates":[-51.136978500004,-29.691623100001]},"properties":{"address":"Novo Hamburgo, Brazil 93336001","placename":"Novo Hamburgo - Rio Grande do Sul, 93336-001, Brazil","title":"End User"}},{"type":"Feature","geometry":{"type":"Point","coordinates":[-51.136978500004,-29.691623100001]},"properties":{"address":"Novo Hamburgo, Brazil 93336001","placename":"Novo Hamburgo - Rio Grande do Sul, 93336-001, Brazil","title":"End User"}},{"type":"Feature","geometry":{"type":"Point","coordinates":[-46.639761999996,-23.573254599998]},"properties":{"address":"Sao Paulo, Brazil 04103-000","placename":"S\u00e3o Paulo, 04103-000, Brazil","title":"End User"}},{"type":"Feature","geometry":{"type":"Point","coordinates":[-46.644587699998,-23.638074500001]},"properties":{"address":"JABAQUARA, Brazil 04344-050","placename":"Jabaquara, S\u00e3o Paulo, 04344-050, Brazil","title":"End User"}},{"type":"Feature","geometry":{"type":"Point","coordinates":[-46.824678400002,-23.499824300001]},"properties":{"address":"Barueri\/SP, Brazil 06460-110","placename":"Barueri - S\u00e3o Paulo, 06460-110, Brazil","title":"End User"}},{"type":"Feature","geometry":{"type":"Point","coordinates":[-46.647000799996,-23.600782199999]},"properties":{"address":"Vila Clementino - S\u00e3o Paulo, Brazil  04026-","placename":"Vila Clementino, S\u00e3o Paulo, 04026-060, Brazil","title":"End User"}},{"type":"Feature","geometry":{"type":"Point","coordinates":[-46.693474500003,-23.5983919]},"properties":{"address":"Brooklin Paulista, Brazil  04578","placename":"S\u00e3o Paulo, 04578-000, Brazil","title":"End User"}},{"type":"Feature","geometry":{"type":"Point","coordinates":[-46.693474500003,-23.5983919]},"properties":{"address":"Brooklin Paulista, Brazil  04578","placename":"S\u00e3o Paulo, 04578-000, Brazil","title":"End User"}},{"type":"Feature","geometry":{"type":"Point","coordinates":[-46.823467599997,-23.497021100004]},"properties":{"address":"Sao Paulo, Brazil 06460-120","placename":"Barueri - S\u00e3o Paulo, 06460-120, Brazil","title":"End User"}},{"type":"Feature","geometry":{"type":"Point","coordinates":[-46.693474500003,-23.5983919]},"properties":{"address":"S\u00e3o Paulo, Brazil 04578-000","placename":"S\u00e3o Paulo, 04578-000, Brazil","title":"End User"}},{"type":"Feature","geometry":{"type":"Point","coordinates":[-46.693474500003,-23.5983919]},"properties":{"address":"S\u00e3o Paulo, Brazil 04578-000","placename":"S\u00e3o Paulo, 04578-000, Brazil","title":"End User"}},{"type":"Feature","geometry":{"type":"Point","coordinates":[-46.824678400002,-23.499824300001]},"properties":{"address":"Barueri\/SP, Brazil 06460-110","placename":"Barueri - S\u00e3o Paulo, 06460-110, Brazil","title":"End User"}},{"type":"Feature","geometry":{"type":"Point","coordinates":[-43.316185900002,-23.013384099997]},"properties":{"address":"Barra da Tijuca, Brazil 22620?172","placename":"Barra da Tijuca, Rio de Janeiro, 22620-172, Brazil","title":"End User"}},{"type":"Feature","geometry":{"type":"Point","coordinates":[-46.693474500003,-23.5983919]},"properties":{"address":"Brooklin Paulista, Brazil  04578","placename":"S\u00e3o Paulo, 04578-000, Brazil","title":"End User"}},{"type":"Feature","geometry":{"type":"Point","coordinates":[-46.640968399999,-23.564140599997]},"properties":{"address":"Sao Paulo, Brazil 01323-000","placename":"S\u00e3o Paulo, 01323-000, Brazil","title":"End User"}},{"type":"Feature","geometry":{"type":"Point","coordinates":[-43.185007300002,-22.972483100002]},"properties":{"address":"Rio de Janeiro, Brazil 22041-001","placename":"22041-001, Brazil","title":"End User"}},{"type":"Feature","geometry":{"type":"Point","coordinates":[-46.640968399999,-23.564140599997]},"properties":{"address":"Sao Paulo, Brazil 01323-000","placename":"S\u00e3o Paulo, 01323-000, Brazil","title":"End User"}},{"type":"Feature","geometry":{"type":"Point","coordinates":[-43.224941299999,-22.924412800002]},"properties":{"address":"RIO DE JANEIRO, Brazil 20.520-050","placename":"Tijuca, Rio de Janeiro, 20520-050, Brazil","title":"End User"}},{"type":"Feature","geometry":{"type":"Point","coordinates":[-46.316304199997,-23.971315800003]},"properties":{"address":"Santos, Brazil 11040-130","placename":"Embar\u00e9, Santos - S\u00e3o Paulo, 11040-130, Brazil","title":"End User"}},{"type":"Feature","geometry":{"type":"Point","coordinates":[-46.693474500003,-23.5983919]},"properties":{"address":"Brooklin Paulista, Brazil  04578","placename":"S\u00e3o Paulo, 04578-000, Brazil","title":"End User"}},{"type":"Feature","geometry":{"type":"Point","coordinates":[-43.185007300002,-22.972483100002]},"properties":{"address":"Rio de Janeiro, Brazil 22041-001","placename":"22041-001, Brazil","title":"End User"}},{"type":"Feature","geometry":{"type":"Point","coordinates":[-46.693474500003,-23.5983919]},"properties":{"address":"S\u00e3o Paulo, Brazil 04578-000","placename":"S\u00e3o Paulo, 04578-000, Brazil","title":"End User"}},{"type":"Feature","geometry":{"type":"Point","coordinates":[-46.864753399997,-23.491168300001]},"properties":{"address":"Barueri, Brazil 06454-40","placename":"Alameda Brasil, 40 - Alphaville Residencial Dois, Barueri - S\u00e3o Paulo, 06470-000, Brazil","title":"End User"}},{"type":"Feature","geometry":{"type":"Point","coordinates":[-46.693474500003,-23.5983919]},"properties":{"address":"Brooklin Paulista, Brazil  04578","placename":"S\u00e3o Paulo, 04578-000, Brazil","title":"End User"}},{"type":"Feature","geometry":{"type":"Point","coordinates":[-46.857987200002,-23.5022904]},"properties":{"address":"Barueri, Alphaville, Brazil 06455-020","placename":"Barueri - S\u00e3o Paulo, 06455-020, Brazil","title":"End User"}},{"type":"Feature","geometry":{"type":"Point","coordinates":[-46.693474500003,-23.5983919]},"properties":{"address":"Brooklin Paulista, Brazil  04578","placename":"S\u00e3o Paulo, 04578-000, Brazil","title":"End User"}},{"type":"Feature","geometry":{"type":"Point","coordinates":[-47.813113600001,-21.184573500003]},"properties":{"address":"Cerqueira Cesar, Brazil 01419 - 00","placename":"Rua Cerqueira C\u00e9sar, 1419 - Subsetor Sul 1, Ribeir\u00e3o Preto - S\u00e3o Paulo, 14025-120, Brazil","title":"End User"}},{"type":"Feature","geometry":{"type":"Point","coordinates":[-46.693474500003,-23.5983919]},"properties":{"address":"Brooklin Paulista, Brazil  04578","placename":"S\u00e3o Paulo, 04578-000, Brazil","title":"End User"}},{"type":"Feature","geometry":{"type":"Point","coordinates":[-46.671633299996,-23.569716299998]},"properties":{"address":"S\u00e3o Paulo, Brazil 01419 - 00","placename":"Avenida Brasil, 1419 - Jardim Paulista, S\u00e3o Paulo, 01431-001, Brazil","title":"End User"}},{"type":"Feature","geometry":{"type":"Point","coordinates":[-46.686832800003,-23.593115000003]},"properties":{"address":"S\u00e3o Paulo, Brazil 04551-060","placename":"Itaim Bibi, S\u00e3o Paulo, 04551-060, Brazil","title":"End User"}},{"type":"Feature","geometry":{"type":"Point","coordinates":[-46.695889900002,-23.675526899996]},"properties":{"address":"S\u00e3o Paulo, Brazil 04696-000","placename":"S\u00e3o Paulo, 04696-000, Brazil","title":"End User"}},{"type":"Feature","geometry":{"type":"Point","coordinates":[-46.857987200002,-23.5022904]},"properties":{"address":"Barueri, Alphaville, Brazil 06455-020","placename":"Barueri - S\u00e3o Paulo, 06455-020, Brazil","title":"End User"}},{"type":"Feature","geometry":{"type":"Point","coordinates":[-47.547504600002,-22.341779900003]},"properties":{"address":"S\u00e3o Paulo, Brazil 05804-900","placename":"Avenida Brasil, 5804, Rio Claro - S\u00e3o Paulo, 13505-600, Brazil","title":"End User"}},{"type":"Feature","geometry":{"type":"Point","coordinates":[-46.667516300002,-23.647216000001]},"properties":{"address":"Sao Paulo, Brazil 04363.060","placename":"Vila Mascote, Jabaquara, S\u00e3o Paulo, 04363-060, Brazil","title":"End User"}},{"type":"Feature","geometry":{"type":"Point","coordinates":[-46.864753399997,-23.491168300001]},"properties":{"address":"Barueri, Brazil 06454-40","placename":"Alameda Brasil, 40 - Alphaville Residencial Dois, Barueri - S\u00e3o Paulo, 06470-000, Brazil","title":"End User"}},{"type":"Feature","geometry":{"type":"Point","coordinates":[-46.680795600001,-23.581491399999]},"properties":{"address":"S\u00e3o Paulo, Brazil 04536-000","placename":"Itaim, S\u00e3o Paulo, 04536-000, Brazil","title":"End User"}},{"type":"Feature","geometry":{"type":"Point","coordinates":[-46.685625300004,-23.586737200001]},"properties":{"address":"Sao Paulo, Brazil 04533-050","placename":"Itaim Bibi, S\u00e3o Paulo, 04533-050, Brazil","title":"End User"}},{"type":"Feature","geometry":{"type":"Point","coordinates":[-43.180770099996,-22.935121499999]},"properties":{"address":"Rio de Janeiro, Brazil 22210-903","placename":"Rio de Janeiro, 22210-080, Brazil","title":"End User"}},{"type":"Feature","geometry":{"type":"Point","coordinates":[-46.691059200004,-23.599940999998]},"properties":{"address":"Sao Paulo, Brazil 04571-000","placename":"Itaim Bibi, S\u00e3o Paulo, 04571-000, Brazil","title":"End User"}},{"type":"Feature","geometry":{"type":"Point","coordinates":[-46.693474500003,-23.5983919]},"properties":{"address":"Sao Paulo - SP, Brazil 04578-0000","placename":"S\u00e3o Paulo, 04578-000, Brazil","title":"End User"}},{"type":"Feature","geometry":{"type":"Point","coordinates":[-46.693474500003,-23.5983919]},"properties":{"address":"Sao Paulo - SP, Brazil 04578-0000","placename":"S\u00e3o Paulo, 04578-000, Brazil","title":"End User"}},{"type":"Feature","geometry":{"type":"Point","coordinates":[-46.693474500003,-23.5983919]},"properties":{"address":"Sao Paulo - SP, Brazil 04578-0000","placename":"S\u00e3o Paulo, 04578-000, Brazil","title":"End User"}},{"type":"Feature","geometry":{"type":"Point","coordinates":[-46.695889900002,-23.675526899996]},"properties":{"address":"S\u00e3o Paulo, Brazil 04696-000","placename":"S\u00e3o Paulo, 04696-000, Brazil","title":"End User"}},{"type":"Feature","geometry":{"type":"Point","coordinates":[-46.645794200001,-23.568193399996]},"properties":{"address":"Sao Paulo, Brazil 01333011","placename":"Paulista, S\u00e3o Paulo, 01333-011, Brazil","title":"End User"}},{"type":"Feature","geometry":{"type":"Point","coordinates":[-47.420244300003,-22.759426299996]},"properties":{"address":"Santa Barbara, Brazil 13450-410","placename":"Santa B\u00e1rbara d'Oeste - S\u00e3o Paulo, 13450-410, Brazil","title":"End User"}},{"type":"Feature","geometry":{"type":"Point","coordinates":[-49.287311599996,-25.435401100001]},"properties":{"address":"Curitiba, Brazil 80430-180","placename":"Curitiba - Paran\u00e1, 80430-180, Brazil","title":"End User"}},{"type":"Feature","geometry":{"type":"Point","coordinates":[-43.954406799996,-19.920974300004]},"properties":{"address":"Belo Horizonte, Brazil 30180-070","placename":"Belo Horizonte - Minas Gerais, 30180-070, Brazil","title":"End User"}},{"type":"Feature","geometry":{"type":"Point","coordinates":[-46.824678400002,-23.499824300001]},"properties":{"address":"Barueri, Brazil 06460-110","placename":"Barueri - S\u00e3o Paulo, 06460-110, Brazil","title":"End User"}},{"type":"Feature","geometry":{"type":"Point","coordinates":[-48.494346200003,-1.4538976999982]},"properties":{"address":"Belem, Brazil 66017-904","placename":"Bel\u00e9m - Par\u00e1, 66017-110, Brazil","title":"End User"}},{"type":"Feature","geometry":{"type":"Point","coordinates":[-46.823467599997,-23.497021100004]},"properties":{"address":"Barueri, Brazil 06460-120","placename":"Barueri - S\u00e3o Paulo, 06460-120, Brazil","title":"End User"}},{"type":"Feature","geometry":{"type":"Point","coordinates":[-45.885552700001,-23.188188599999]},"properties":{"address":"Sao Jose dos Campos, Brazil 12210-131","placename":"S\u00e3o Jos\u00e9 dos Campos - S\u00e3o Paulo, 12210-131, Brazil","title":"End User"}},{"type":"Feature","geometry":{"type":"Point","coordinates":[-43.178953999998,-22.900523299997]},"properties":{"address":"Rio de Janeiro, Brazil 20091-906","placename":"Rio de Janeiro, 20091-007, Brazil","title":"End User"}},{"type":"Feature","geometry":{"type":"Point","coordinates":[-43.352987299998,-22.8319544]},"properties":{"address":"Rio de Janeiro, Brazil 20119-901","placename":"Avenida Brasil, 20119 - Coelho Neto, Rio de Janeiro, 21515-001, Brazil","title":"End User"}},{"type":"Feature","geometry":{"type":"Point","coordinates":[-46.683210399998,-23.599014400001]},"properties":{"address":"Vila Ol\u00edmpia S\u00e3o Paulo, Brazil  04548-","placename":"S\u00e3o Paulo, 04548-004, Brazil","title":"End User"}},{"type":"Feature","geometry":{"type":"Point","coordinates":[-46.683210399998,-23.6121266]},"properties":{"address":"S\u00e3o Paulo, Brazil  04562-","placename":"Brooklin, S\u00e3o Paulo, 04562-000, Brazil","title":"End User"}},{"type":"Feature","geometry":{"type":"Point","coordinates":[-43.352987299998,-22.8319544]},"properties":{"address":"Rio de Janeiro, Brazil 20119-901","placename":"Avenida Brasil, 20119 - Coelho Neto, Rio de Janeiro, 21515-001, Brazil","title":"End User"}},{"type":"Feature","geometry":{"type":"Point","coordinates":[-46.694078399998,-23.601581100004]},"properties":{"address":"S\u00e3o Paulo, Brazil 04571-020","placename":"Itaim Bibi, S\u00e3o Paulo, 04571-020, Brazil","title":"End User"}},{"type":"Feature","geometry":{"type":"Point","coordinates":[-46.864753399997,-23.491168300001]},"properties":{"address":"Barueri, Brazil 06454-40","placename":"Alameda Brasil, 40 - Alphaville Residencial Dois, Barueri - S\u00e3o Paulo, 06470-000, Brazil","title":"End User"}},{"type":"Feature","geometry":{"type":"Point","coordinates":[-46.330089,-23.963736399998]},"properties":{"address":"Santos, Brazil 11055-000","placename":"Santos - S\u00e3o Paulo, 11055-000, Brazil","title":"End User"}},{"type":"Feature","geometry":{"type":"Point","coordinates":[-46.683210399998,-23.599014400001]},"properties":{"address":"Vila Ol\u00edmpia, Brazil  04548-","placename":"S\u00e3o Paulo, 04548-004, Brazil","title":"End User"}},{"type":"Feature","geometry":{"type":"Point","coordinates":[-46.688644099997,-23.620563300002]},"properties":{"address":"Brooklin, Brazil 03257","placename":"S\u00e3o Paulo, 03257-050, Brazil","title":"End User"}},{"type":"Feature","geometry":{"type":"Point","coordinates":[-46.647000799996,-23.574568499999]},"properties":{"address":"Sao Paulo, Brazil 04005-001","placename":"Para\u00edso, Vila Mariana, S\u00e3o Paulo, 04005-001, Brazil","title":"End User"}},{"type":"Feature","geometry":{"type":"Point","coordinates":[-43.204978299996,-22.984241499996]},"properties":{"address":"Rio de Janeiro, Brazil 22420-004","placename":"22420-030, Brazil","title":"End User"}},{"type":"Feature","geometry":{"type":"Point","coordinates":[-46.694078399998,-23.607541900001]},"properties":{"address":"S\u00e3o Paulo, Brazil 04575-060","placename":"Brooklin Novo, S\u00e3o Paulo, 04575-060, Brazil","title":"End User"}},{"type":"Feature","geometry":{"type":"Point","coordinates":[-46.667516300002,-23.647216000001]},"properties":{"address":"Sao Paulo, Brazil 04363.060","placename":"Vila Mascote, Jabaquara, S\u00e3o Paulo, 04363-060, Brazil","title":"End User"}},{"type":"Feature","geometry":{"type":"Point","coordinates":[-46.316304199997,-23.971315800003]},"properties":{"address":"Santos, Brazil 11040-130","placename":"Embar\u00e9, Santos - S\u00e3o Paulo, 11040-130, Brazil","title":"End User"}},{"type":"Feature","geometry":{"type":"Point","coordinates":[-46.683210399998,-23.6121266]},"properties":{"address":"Brooklin Paulista, Brazil  04562-","placename":"Brooklin, S\u00e3o Paulo, 04562-000, Brazil","title":"End User"}},{"type":"Feature","geometry":{"type":"Point","coordinates":[-46.685625300004,-23.586737200001]},"properties":{"address":"Sao Paulo, Brazil 04533-050","placename":"Itaim Bibi, S\u00e3o Paulo, 04533-050, Brazil","title":"End User"}},{"type":"Feature","geometry":{"type":"Point","coordinates":[-46.316304199997,-23.971315800003]},"properties":{"address":"Santos, Brazil 11040-130","placename":"Embar\u00e9, Santos - S\u00e3o Paulo, 11040-130, Brazil","title":"End User"}},{"type":"Feature","geometry":{"type":"Point","coordinates":[-46.694078399998,-23.607541900001]},"properties":{"address":"S\u00e3o Paulo, Brazil 04575-060","placename":"Brooklin Novo, S\u00e3o Paulo, 04575-060, Brazil","title":"End User"}},{"type":"Feature","geometry":{"type":"Point","coordinates":[-46.823467599997,-23.497021100004]},"properties":{"address":"Barueri, Brazil 06460-120","placename":"Barueri - S\u00e3o Paulo, 06460-120, Brazil","title":"End User"}},{"type":"Feature","geometry":{"type":"Point","coordinates":[-46.659671200004,-23.558097999996]},"properties":{"address":"Sao Paulo, Brazil 01310-914","placename":"Jardim Am\u00e9rica, S\u00e3o Paulo, 01310-300, Brazil","title":"End User"}},{"type":"Feature","geometry":{"type":"Point","coordinates":[-46.685625300004,-23.586737200001]},"properties":{"address":"Sao Paulo, Brazil 04533-050","placename":"Itaim Bibi, S\u00e3o Paulo, 04533-050, Brazil","title":"End User"}},{"type":"Feature","geometry":{"type":"Point","coordinates":[-46.693474500003,-23.5983919]},"properties":{"address":"Brooklin, Brazil : 04578","placename":"S\u00e3o Paulo, 04578-000, Brazil","title":"End User"}},{"type":"Feature","geometry":{"type":"Point","coordinates":[-46.656654100001,-23.570758900001]},"properties":{"address":"S\u00e3o Paulo, Brazil 01423-010","placename":"S\u00e3o Paulo, 01423-010, Brazil","title":"End User"}},{"type":"Feature","geometry":{"type":"Point","coordinates":[-48.724162100001,-22.230612299998]},"properties":{"address":"Itapu\u00ed, Brazil 17230-000","placename":"Itapu\u00ed - S\u00e3o Paulo, 17230-000, Brazil","title":"End User"}},{"type":"Feature","geometry":{"type":"Point","coordinates":[-43.520427600004,-22.759045299998]},"properties":{"address":"Nova Igua\u00e7u, Brazil 26.255-158","placename":"Nova Igua\u00e7u - Rio de Janeiro, 26255-410, Brazil","title":"End User"}},{"type":"Feature","geometry":{"type":"Point","coordinates":[-46.685625300004,-23.586737200001]},"properties":{"address":"Sao Paulo, Brazil 04533-050","placename":"Itaim Bibi, S\u00e3o Paulo, 04533-050, Brazil","title":"End User"}},{"type":"Feature","geometry":{"type":"Point","coordinates":[-46.667516300002,-23.647216000001]},"properties":{"address":"Sao Paulo, Brazil 04363.060","placename":"Vila Mascote, Jabaquara, S\u00e3o Paulo, 04363-060, Brazil","title":"End User"}},{"type":"Feature","geometry":{"type":"Point","coordinates":[-46.694078399998,-23.601581100004]},"properties":{"address":"Brooklin, Brazil 04571-020","placename":"Itaim Bibi, S\u00e3o Paulo, 04571-020, Brazil","title":"End User"}},{"type":"Feature","geometry":{"type":"Point","coordinates":[-43.209213500001,-22.914203999999]},"properties":{"address":"Rio de Janeiro, Brazil 20260-010","placename":"Rio de Janeiro, 20260-010, Brazil","title":"End User"}},{"type":"Feature","geometry":{"type":"Point","coordinates":[-46.667516300002,-23.647216000001]},"properties":{"address":"Sao Paulo, Brazil 04363.060","placename":"Vila Mascote, Jabaquara, S\u00e3o Paulo, 04363-060, Brazil","title":"End User"}},{"type":"Feature","geometry":{"type":"Point","coordinates":[-43.209213500001,-22.914203999999]},"properties":{"address":"Cidade Nova - RJ, Brazil 20260-010","placename":"Rio de Janeiro, 20260-010, Brazil","title":"End User"}},{"type":"Feature","geometry":{"type":"Point","coordinates":[-43.209213500001,-22.914203999999]},"properties":{"address":"Cidade Nova - RJ, Brazil 20260-010","placename":"Rio de Janeiro, 20260-010, Brazil","title":"End User"}},{"type":"Feature","geometry":{"type":"Point","coordinates":[-43.209213500001,-22.914203999999]},"properties":{"address":"Cidade Nova - RJ, Brazil 20260-010","placename":"Rio de Janeiro, 20260-010, Brazil","title":"End User"}},{"type":"Feature","geometry":{"type":"Point","coordinates":[-49.098133199997,-26.909874399997]},"properties":{"address":"Blumenau, Brazil 89037-060","placename":"\u00c1gua Verde, Blumenau - Santa Catarina, 89037-060, Brazil","title":"End User"}},{"type":"Feature","geometry":{"type":"Point","coordinates":[-46.693474500003,-23.5983919]},"properties":{"address":"Sao Paulo, Brazil 04578-000","placename":"S\u00e3o Paulo, 04578-000, Brazil","title":"End User"}},{"type":"Feature","geometry":{"type":"Point","coordinates":[-46.812571500003,-23.512382099997]},"properties":{"address":"Barueri?SP?Brasil, Brazil 06465-130","placename":"Jardim Santa Cec\u00edlia, Barueri - S\u00e3o Paulo, 06465-010, Brazil","title":"End User"}},{"type":"Feature","geometry":{"type":"Point","coordinates":[-46.864753399997,-23.491168300001]},"properties":{"address":"Barueri, Brazil 06454-40","placename":"Alameda Brasil, 40 - Alphaville Residencial Dois, Barueri - S\u00e3o Paulo, 06470-000, Brazil","title":"End User"}},{"type":"Feature","geometry":{"type":"Point","coordinates":[-43.175321600002,-22.908906600001]},"properties":{"address":"Rio de Janeiro, Centro, Brazil 20031-144","placename":"Rio de Janeiro, 20031-144, Brazil","title":"End User"}},{"type":"Feature","geometry":{"type":"Point","coordinates":[-46.685625300004,-23.586737200001]},"properties":{"address":"Sao Paulo, Brazil 04533-050","placename":"Itaim Bibi, S\u00e3o Paulo, 04533-050, Brazil","title":"End User"}},{"type":"Feature","geometry":{"type":"Point","coordinates":[-43.178953999998,-22.900523299997]},"properties":{"address":"Rio de Janeiro, Brazil 20091-906","placename":"Rio de Janeiro, 20091-007, Brazil","title":"End User"}},{"type":"Feature","geometry":{"type":"Point","coordinates":[-46.694078399998,-23.607541900001]},"properties":{"address":"S\u00e3o Paulo, Brazil 04575-060","placename":"Brooklin Novo, S\u00e3o Paulo, 04575-060, Brazil","title":"End User"}},{"type":"Feature","geometry":{"type":"Point","coordinates":[-46.694078399998,-23.607541900001]},"properties":{"address":"S\u00e3o Paulo, Brazil 04575-060","placename":"Brooklin Novo, S\u00e3o Paulo, 04575-060, Brazil","title":"End User"}},{"type":"Feature","geometry":{"type":"Point","coordinates":[-46.640968399999,-23.564140599997]},"properties":{"address":"Sao Paulo, Brazil 01323-000","placename":"S\u00e3o Paulo, 01323-000, Brazil","title":"End User"}},{"type":"Feature","geometry":{"type":"Point","coordinates":[-46.587222099999,-23.3183726]},"properties":{"address":"Mairipor\u00e3, Brazil 07600-000","placename":"Mairipor\u00e3 - S\u00e3o Paulo, Brazil","title":"End User"}},{"type":"Feature","geometry":{"type":"Point","coordinates":[-46.691059200004,-23.599940999998]},"properties":{"address":"Sao Paulo, Brazil 04571-000","placename":"Itaim Bibi, S\u00e3o Paulo, 04571-000, Brazil","title":"End User"}},{"type":"Feature","geometry":{"type":"Point","coordinates":[-46.650620599998,-23.5496065]},"properties":{"address":"S\u00e3o Paulo, Brazil 01303-050","placename":"S\u00e3o Paulo, 01303-050, Brazil","title":"End User"}},{"type":"Feature","geometry":{"type":"Point","coordinates":[-46.831943899999,-23.593059900003]},"properties":{"address":"Cotia, Brazil 06710-850","placename":"Granja Viana, Cotia - S\u00e3o Paulo, 06710-850, Brazil","title":"End User"}},{"type":"Feature","geometry":{"type":"Point","coordinates":[-46.694078399998,-23.601581100004]},"properties":{"address":"Sao Paulo SP, Brazil 04571-020","placename":"Itaim Bibi, S\u00e3o Paulo, 04571-020, Brazil","title":"End User"}},{"type":"Feature","geometry":{"type":"Point","coordinates":[-46.659671200004,-23.553331200004]},"properties":{"address":"S\u00e3o Paulo, Brazil 01.301-000","placename":"S\u00e3o Paulo, 01301-000, Brazil","title":"End User"}},{"type":"Feature","geometry":{"type":"Point","coordinates":[-46.688040300001,-23.5959167]},"properties":{"address":"Vila Olimpia, Brazil 04548-040","placename":"Itaim Bibi, S\u00e3o Paulo, 04548-040, Brazil","title":"End User"}},{"type":"Feature","geometry":{"type":"Point","coordinates":[-46.688040300001,-23.5959167]},"properties":{"address":"Vila Ol\u00edmpia S\u00e3o Paulo, Brazil 04548-040","placename":"Itaim Bibi, S\u00e3o Paulo, 04548-040, Brazil","title":"End User"}},{"type":"Feature","geometry":{"type":"Point","coordinates":[-46.694078399998,-23.607541900001]},"properties":{"address":"S\u00e3o Paulo, Brazil 04575-060","placename":"Brooklin Novo, S\u00e3o Paulo, 04575-060, Brazil","title":"End User"}},{"type":"Feature","geometry":{"type":"Point","coordinates":[-43.250337199997,-22.897958200002]},"properties":{"address":"Rocha\/Rio de Janeiro-RJ, Brazil 20960-110","placename":"Rocha, Rio de Janeiro, 20960-110, Brazil","title":"End User"}},{"type":"Feature","geometry":{"type":"Point","coordinates":[-43.250337199997,-22.897958200002]},"properties":{"address":"Rocha\/Rio de Janeiro-RJ, Brazil 20960-110","placename":"Rocha, Rio de Janeiro, 20960-110, Brazil","title":"End User"}},{"type":"Feature","geometry":{"type":"Point","coordinates":[-46.691059200004,-23.599940999998]},"properties":{"address":"Sao Paulo, Brazil 04571-000","placename":"Itaim Bibi, S\u00e3o Paulo, 04571-000, Brazil","title":"End User"}},{"type":"Feature","geometry":{"type":"Point","coordinates":[-46.685625300004,-23.586737200001]},"properties":{"address":"Sao Paulo, Brazil 04533-050","placename":"Itaim Bibi, S\u00e3o Paulo, 04533-050, Brazil","title":"End User"}},{"type":"Feature","geometry":{"type":"Point","coordinates":[-46.685625300004,-23.586737200001]},"properties":{"address":"Sao Paulo, Brazil 04533-050","placename":"Itaim Bibi, S\u00e3o Paulo, 04533-050, Brazil","title":"End User"}},{"type":"Feature","geometry":{"type":"Point","coordinates":[-46.694078399998,-23.607541900001]},"properties":{"address":"S\u00e3o Paulo, Brazil 04575-060","placename":"Brooklin Novo, S\u00e3o Paulo, 04575-060, Brazil","title":"End User"}},{"type":"Feature","geometry":{"type":"Point","coordinates":[-46.694078399998,-23.607541900001]},"properties":{"address":"S\u00e3o Paulo, Brazil 04575-060","placename":"Brooklin Novo, S\u00e3o Paulo, 04575-060, Brazil","title":"End User"}},{"type":"Feature","geometry":{"type":"Point","coordinates":[-46.688040300001,-23.5959167]},"properties":{"address":"Vila Olimpia, Brazil 04548-040","placename":"Itaim Bibi, S\u00e3o Paulo, 04548-040, Brazil","title":"End User"}},{"type":"Feature","geometry":{"type":"Point","coordinates":[-46.688040300001,-23.5959167]},"properties":{"address":"Vila Ol\u00edmpia S\u00e3o Paulo, Brazil 04548-040","placename":"Itaim Bibi, S\u00e3o Paulo, 04548-040, Brazil","title":"End User"}},{"type":"Feature","geometry":{"type":"Point","coordinates":[-46.638818199999,-23.548943300003]},"properties":{"address":"Sao Paulo, Brazil","placename":"S\u00e3o Paulo, Brazil","title":"End User"}},{"type":"Feature","geometry":{"type":"Point","coordinates":[-49.076029300002,-26.908832999999]},"properties":{"address":"BLUMENAU, Brasil 89012190","placename":"Blumenau - Santa Catarina, 89012-190, Brazil","title":"End User"}},{"type":"Feature","geometry":{"type":"Point","coordinates":[-46.695889900002,-23.675526899996]},"properties":{"address":"S\u00e3o Paulo, Brazil 04696-000","placename":"S\u00e3o Paulo, 04696-000, Brazil","title":"End User"}},{"type":"Feature","geometry":{"type":"Point","coordinates":[-46.8392104,-23.584813000003]},"properties":{"address":"Cotia, Brazil 06708645","placename":"S\u00e3o Paulo, 06708-645, Brazil","title":"End User"}},{"type":"Feature","geometry":{"type":"Point","coordinates":[-46.656654100001,-23.570758900001]},"properties":{"address":"S\u00e3o Paulo - Jardim Paulista, Brazil 01423010","placename":"S\u00e3o Paulo, 01423-010, Brazil","title":"End User"}},{"type":"Feature","geometry":{"type":"Point","coordinates":[-46.695889900002,-23.675526899996]},"properties":{"address":"S\u00e3o Paulo, Brazil 04696-000","placename":"S\u00e3o Paulo, 04696-000, Brazil","title":"End User"}},{"type":"Feature","geometry":{"type":"Point","coordinates":[-46.695889900002,-23.675526899996]},"properties":{"address":"S\u00e3o Paulo, Brazil 04696-000","placename":"S\u00e3o Paulo, 04696-000, Brazil","title":"End User"}},{"type":"Feature","geometry":{"type":"Point","coordinates":[-43.2581953,-22.9281018]},"properties":{"address":"Rio de Janeiro, Brazil 20541-350","placename":"Graja\u00fa, Rio de Janeiro, 20541-350, Brazil","title":"End User"}},{"type":"Feature","geometry":{"type":"Point","coordinates":[-46.856775600003,-23.498292199996]},"properties":{"address":"Barueri, Brazil 06455-000","placename":"Barueri - S\u00e3o Paulo, 06455-000, Brazil","title":"End User"}},{"type":"Feature","geometry":{"type":"Point","coordinates":[-46.693474500003,-23.5983919]},"properties":{"address":"Brooklin, Brazil  04578-000","placename":"S\u00e3o Paulo, 04578-000, Brazil","title":"End User"}},{"type":"Feature","geometry":{"type":"Point","coordinates":[-46.695889900002,-23.675526899996]},"properties":{"address":"S\u00e3o Paulo, Brazil 04696-000","placename":"S\u00e3o Paulo, 04696-000, Brazil","title":"End User"}},{"type":"Feature","geometry":{"type":"Point","coordinates":[-46.693474500003,-23.5983919]},"properties":{"address":"Brooklin, Brazil  04578-000","placename":"S\u00e3o Paulo, 04578-000, Brazil","title":"End User"}},{"type":"Feature","geometry":{"type":"Point","coordinates":[-49.320909900001,-25.490051800003]},"properties":{"address":"Curitiba, Brazil 81350-000","placename":"Curitiba - Paran\u00e1, 81350-000, Brazil","title":"End User"}},{"type":"Feature","geometry":{"type":"Point","coordinates":[-46.695889900002,-23.675526899996]},"properties":{"address":"S\u00e3o Paulo, Brazil 04696-000","placename":"S\u00e3o Paulo, 04696-000, Brazil","title":"End User"}},{"type":"Feature","geometry":{"type":"Point","coordinates":[-46.693474500003,-23.5983919]},"properties":{"address":"Brooklin, Brazil  04578-000","placename":"S\u00e3o Paulo, 04578-000, Brazil","title":"End User"}},{"type":"Feature","geometry":{"type":"Point","coordinates":[-46.695889900002,-23.675526899996]},"properties":{"address":"S\u00e3o Paulo, Brazil 04696-000","placename":"S\u00e3o Paulo, 04696-000, Brazil","title":"End User"}},{"type":"Feature","geometry":{"type":"Point","coordinates":[-46.564738099999,-23.689584]},"properties":{"address":"S\u00e3o Bernardo do Campo, Brazil","placename":"S\u00e3o Bernardo do Campo - S\u00e3o Paulo, Brazil","title":"End User"}},{"type":"Feature","geometry":{"type":"Point","coordinates":[-46.693474500003,-23.5983919]},"properties":{"address":"Brooklin, Brazil  04578-000","placename":"S\u00e3o Paulo, 04578-000, Brazil","title":"End User"}},{"type":"Feature","geometry":{"type":"Point","coordinates":[-46.693474500003,-23.5983919]},"properties":{"address":"Brooklin, Brazil 04578-000","placename":"S\u00e3o Paulo, 04578-000, Brazil","title":"End User"}},{"type":"Feature","geometry":{"type":"Point","coordinates":[-46.695889900002,-23.675526899996]},"properties":{"address":"S\u00e3o Paulo, Brazil 04696-000","placename":"S\u00e3o Paulo, 04696-000, Brazil","title":"End User"}},{"type":"Feature","geometry":{"type":"Point","coordinates":[-46.695889900002,-23.675526899996]},"properties":{"address":"S\u00e3o Paulo, Brazil 04696-000","placename":"S\u00e3o Paulo, 04696-000, Brazil","title":"End User"}},{"type":"Feature","geometry":{"type":"Point","coordinates":[-46.695889900002,-23.675526899996]},"properties":{"address":"S\u00e3o Paulo, Brazil 04696-000","placename":"S\u00e3o Paulo, 04696-000, Brazil","title":"End User"}},{"type":"Feature","geometry":{"type":"Point","coordinates":[-46.693474500003,-23.5983919]},"properties":{"address":"Brooklin, Brazil  04578-000","placename":"S\u00e3o Paulo, 04578-000, Brazil","title":"End User"}},{"type":"Feature","geometry":{"type":"Point","coordinates":[-46.695889900002,-23.675526899996]},"properties":{"address":"S\u00e3o Paulo, Brazil 04696-000","placename":"S\u00e3o Paulo, 04696-000, Brazil","title":"End User"}},{"type":"Feature","geometry":{"type":"Point","coordinates":[-46.695889900002,-23.675526899996]},"properties":{"address":"S\u00e3o Paulo, Brazil 04696-000","placename":"S\u00e3o Paulo, 04696-000, Brazil","title":"End User"}},{"type":"Feature","geometry":{"type":"Point","coordinates":[-59.971757100001,-3.1098239999956]},"properties":{"address":"Manaus, Brazil 69077-580","placename":"Japiim, Manaus - Amazonas, 69077-580, Brazil","title":"End User"}},{"type":"Feature","geometry":{"type":"Point","coordinates":[-49.320909900001,-25.490051800003]},"properties":{"address":"Curitiba, Brazil 81350-000","placename":"Curitiba - Paran\u00e1, 81350-000, Brazil","title":"End User"}},{"type":"Feature","geometry":{"type":"Point","coordinates":[-46.695889900002,-23.675526899996]},"properties":{"address":"S\u00e3o Paulo, Brazil 04696-000","placename":"S\u00e3o Paulo, 04696-000, Brazil","title":"End User"}},{"type":"Feature","geometry":{"type":"Point","coordinates":[-46.693474500003,-23.5983919]},"properties":{"address":"Brooklin, Brazil  04578-000","placename":"S\u00e3o Paulo, 04578-000, Brazil","title":"End User"}},{"type":"Feature","geometry":{"type":"Point","coordinates":[-46.695889900002,-23.675526899996]},"properties":{"address":"S\u00e3o Paulo, Brazil 04696-000","placename":"S\u00e3o Paulo, 04696-000, Brazil","title":"End User"}},{"type":"Feature","geometry":{"type":"Point","coordinates":[-46.695889900002,-23.675526899996]},"properties":{"address":"S\u00e3o Paulo, Brazil 04696-000","placename":"S\u00e3o Paulo, 04696-000, Brazil","title":"End User"}},{"type":"Feature","geometry":{"type":"Point","coordinates":[-46.693474500003,-23.5983919]},"properties":{"address":"Brooklin, Brazil 04578-000","placename":"S\u00e3o Paulo, 04578-000, Brazil","title":"End User"}},{"type":"Feature","geometry":{"type":"Point","coordinates":[-46.695889900002,-23.675526899996]},"properties":{"address":"S\u00e3o Paulo, Brazil 04696-000","placename":"S\u00e3o Paulo, 04696-000, Brazil","title":"End User"}},{"type":"Feature","geometry":{"type":"Point","coordinates":[-46.581889699996,-23.697279099997]},"properties":{"description":"BRA Production Facility","address":"Sao Bernando do Campo, Brazil 09861-160","placename":"S\u00e3o Paulo, 09861-160, Brazil","title":"Printed Material"}},{"type":"Feature","geometry":{"type":"Point","coordinates":[-99.2377778,19.4752778]},"properties":{"address":"Naucalpan, Edo. de Mexico Mexico C.P. 53120","placename":"Naucalpan, Mexico","title":"End User"}},{"type":"Feature","geometry":{"type":"Point","coordinates":[-99.655722400002,19.282754199998]},"properties":{"address":"Toluca de Lerdo Mexico 50220","placename":"Toluca, Mexico","title":"End User"}},{"type":"Feature","geometry":{"type":"Point","coordinates":[-100.3427724,25.6510721]},"properties":{"address":"San Pedro Garza Garc\u00eda Mexico 66260","placename":"Ampliaci\u00f3n Valle del Mirador, 66260 Nuevo Leon, Mexico","title":"End User"}},{"type":"Feature","geometry":{"type":"Point","coordinates":[-99.197520000004,19.339580199996]},"properties":{"address":"Tizapan San Angel Mexico 01090","placename":"Tizapan, \u00c1lvaro Obreg\u00f3n, 01090 Mexico City, Federal District, Mexico","title":"End User"}},{"type":"Feature","geometry":{"type":"Point","coordinates":[-99.197520000004,19.339580199996]},"properties":{"address":"Tizapan San Angel Mexico 01090","placename":"Tizapan, \u00c1lvaro Obreg\u00f3n, 01090 Mexico City, Federal District, Mexico","title":"End User"}},{"type":"Feature","geometry":{"type":"Point","coordinates":[-99.229738899996,19.310068799999]},"properties":{"address":"Mexico City Mexico 1090","placename":"M\u00e9xico 1090, Santa Teresa, Magdalena Contreras, 10710 Mexico City, Federal District, Mexico","title":"End User"}},{"type":"Feature","geometry":{"type":"Point","coordinates":[-99.2086934,19.4415814]},"properties":{"address":"Colonia Irrigacion Mexico DF 11500","placename":"Irrigaci\u00f3n, Base 3, Miguel Hidalgo, Mexico City, Federal District, Mexico","title":"End User"}},{"type":"Feature","geometry":{"type":"Point","coordinates":[-99.133208000003,19.4326077]},"properties":{"address":"Mexico City Mexico 11560","placename":"Mexico City, Federal District, Mexico","title":"End User"}},{"type":"Feature","geometry":{"type":"Point","coordinates":[-99.229738899996,19.310068799999]},"properties":{"address":"Mexico City Mexico 1090","placename":"M\u00e9xico 1090, Santa Teresa, Magdalena Contreras, 10710 Mexico City, Federal District, Mexico","title":"End User"}},{"type":"Feature","geometry":{"type":"Point","coordinates":[-99.061939199998,19.536276999998]},"properties":{"address":"Emiliano Zapata, Morelos Mexico CP 62760","placename":"C. P. M., Santa Clara Coatitla, 55540 Mexico","title":"End User"}},{"type":"Feature","geometry":{"type":"Point","coordinates":[-99.144166699996,19.433611100003]},"properties":{"address":"DF, Mexico CP Mexico 11320","placename":"Clinica Doctor Javier Dom\u00ednguez Estrada, Secretariat of Foreign Affairs, Ju\u00e1rez 20, Centro, Cuauht\u00e9moc, 06400 Mexico City, Federal District, Mexico","title":"End User"}},{"type":"Feature","geometry":{"type":"Point","coordinates":[-99.220368700001,19.420165999996]},"properties":{"address":"Mexico City MX 11000","placename":"Lomas de Chapultepec, Miguel Hidalgo, 11000 Mexico City, Federal District, Mexico","title":"End User"}},{"type":"Feature","geometry":{"type":"Point","coordinates":[-99.236989999998,19.507702699997]},"properties":{"address":"Naucalpan Estado de Mexico 53100","placename":"Ciudad Sat\u00e9lite, 53100 Naucalpan, Mexico","title":"End User"}},{"type":"Feature","geometry":{"type":"Point","coordinates":[-99.220368700001,19.420165999996]},"properties":{"address":"Miguel Hidalgo MX 11000","placename":"Lomas de Chapultepec, Miguel Hidalgo, 11000 Mexico City, Federal District, Mexico","title":"End User"}},{"type":"Feature","geometry":{"type":"Point","coordinates":[-99.258464299997,19.501446299998]},"properties":{"address":"Naucalpan Mex Mexico 53250","placename":"Santiago Occipaco, 53250 Naucalpan, Mexico","title":"End User"}},{"type":"Feature","geometry":{"type":"Point","coordinates":[-100.3898881,20.5887932]},"properties":{"address":"Queretaro MEXICO 76908","placename":"Santiago de Quer\u00e9taro, Quer\u00e9taro, Mexico","title":"End User"}},{"type":"Feature","geometry":{"type":"Point","coordinates":[-99.236989999998,19.507702699997]},"properties":{"address":"Naucalpan Mexico 53100","placename":"Ciudad Sat\u00e9lite, 53100 Naucalpan, Mexico","title":"End User"}},{"type":"Feature","geometry":{"type":"Point","coordinates":[-99.253614800003,18.976826699998]},"properties":{"address":"CUERNAVACA MX 62100","placename":"Torres Universidad, 62100 Cuernavaca, Morelos, Mexico","title":"End User"}},{"type":"Feature","geometry":{"type":"Point","coordinates":[-99.177446199997,19.394357399996]},"properties":{"address":"Ciudad de M\u00e9xico Mexico 03810","placename":"N\u00e1poles, Benito Juarez, 03810 Mexico City, Federal District, Mexico","title":"End User"}},{"type":"Feature","geometry":{"type":"Point","coordinates":[-100.1875974,25.781562099997]},"properties":{"address":"Apodaca MX 66600","placename":"Apodaca, Nuevo Leon, Mexico","title":"End User"}},{"type":"Feature","geometry":{"type":"Point","coordinates":[-99.232834399998,19.521174399996]},"properties":{"address":"Tlalnepantla Mexico 54055","placename":"San Lucas Tepetlacalco, 54055 Mexico","title":"End User"}},{"type":"Feature","geometry":{"type":"Point","coordinates":[-99.220368700001,19.420165999996]},"properties":{"address":"Mexico MX 11000","placename":"Lomas de Chapultepec, Miguel Hidalgo, 11000 Mexico City, Federal District, Mexico","title":"End User"}},{"type":"Feature","geometry":{"type":"Point","coordinates":[-99.258464299997,19.501446299998]},"properties":{"address":"Naucalpan Mexico 53250","placename":"Santiago Occipaco, 53250 Naucalpan, Mexico","title":"End User"}},{"type":"Feature","geometry":{"type":"Point","coordinates":[-103.2993396,20.629197300003]},"properties":{"address":"Guadalajara, Jalisco Mexico cp44600","placename":"C.P. Se\u00f1or San Jos\u00e9, Jos\u00e9 Luis Cuevas 45, Lomas de Tlaquepaque, 45559 Tlaquepaque, JAL, Mexico","title":"End User"}},{"type":"Feature","geometry":{"type":"Point","coordinates":[-100.3568071,25.691028299997]},"properties":{"address":"Monterrey M\u00e9xico 64620","placename":"Vista Hermosa, 64620 Monterrey, Nuevo Leon, Mexico","title":"End User"}},{"type":"Feature","geometry":{"type":"Point","coordinates":[-100.3568071,25.691028299997]},"properties":{"address":"Monterrey M\u00e9xico 64620","placename":"Vista Hermosa, 64620 Monterrey, Nuevo Leon, Mexico","title":"End User"}},{"type":"Feature","geometry":{"type":"Point","coordinates":[-99.133208000003,19.4326077]},"properties":{"address":"M\u00e9xico, D.F. Mexico C.P. 11510","placename":"Mexico City, Federal District, Mexico","title":"End User"}},{"type":"Feature","geometry":{"type":"Point","coordinates":[-103.4251691,20.592437700002]},"properties":{"address":"Tlaquepaque Jal Mexico 45609","placename":"Arroyo Seco, 45609 Zapopan, JAL, Mexico","title":"End User"}},{"type":"Feature","geometry":{"type":"Point","coordinates":[-103.4251691,20.592437700002]},"properties":{"address":"Tlaquepaque Jal Mexico 45609","placename":"Arroyo Seco, 45609 Zapopan, JAL, Mexico","title":"End User"}},{"type":"Feature","geometry":{"type":"Point","coordinates":[-99.220368700001,19.420165999996]},"properties":{"address":"Mexico, DF MX 11000","placename":"Lomas de Chapultepec, Miguel Hidalgo, 11000 Mexico City, Federal District, Mexico","title":"End User"}},{"type":"Feature","geometry":{"type":"Point","coordinates":[-99.236989999998,19.507702699997]},"properties":{"address":"Naucalpan Mexico 53100","placename":"Ciudad Sat\u00e9lite, 53100 Naucalpan, Mexico","title":"End User"}},{"type":"Feature","geometry":{"type":"Point","coordinates":[-99.220368700001,19.420165999996]},"properties":{"address":"Mexico Mexico 11000","placename":"Lomas de Chapultepec, Miguel Hidalgo, 11000 Mexico City, Federal District, Mexico","title":"End User"}},{"type":"Feature","geometry":{"type":"Point","coordinates":[-99.220368700001,19.420165999996]},"properties":{"address":"Mexico Mexico 11000","placename":"Lomas de Chapultepec, Miguel Hidalgo, 11000 Mexico City, Federal District, Mexico","title":"End User"}},{"type":"Feature","geometry":{"type":"Point","coordinates":[-99.220368700001,19.420165999996]},"properties":{"address":"M\u00e9xico MX 11000","placename":"Lomas de Chapultepec, Miguel Hidalgo, 11000 Mexico City, Federal District, Mexico","title":"End User"}},{"type":"Feature","geometry":{"type":"Point","coordinates":[-99.220368700001,19.420165999996]},"properties":{"address":"Mexico MX 11000","placename":"Lomas de Chapultepec, Miguel Hidalgo, 11000 Mexico City, Federal District, Mexico","title":"End User"}},{"type":"Feature","geometry":{"type":"Point","coordinates":[-99.220368700001,19.420165999996]},"properties":{"address":"Mexico Mexico 11000","placename":"Lomas de Chapultepec, Miguel Hidalgo, 11000 Mexico City, Federal District, Mexico","title":"End User"}},{"type":"Feature","geometry":{"type":"Point","coordinates":[-99.232834399998,19.521174399996]},"properties":{"address":"Tlalnepantla Mexico 54055","placename":"San Lucas Tepetlacalco, 54055 Mexico","title":"End User"}},{"type":"Feature","geometry":{"type":"Point","coordinates":[-99.159453199996,19.417363900001]},"properties":{"address":"D.F. - M\u00e9xico Mexico 06700","placename":"Roma Norte, Cuauht\u00e9moc, 06700 Mexico City, Federal District, Mexico","title":"End User"}},{"type":"Feature","geometry":{"type":"Point","coordinates":[-99.149510699998,19.435633800002]},"properties":{"address":"Del. Cuauhtemoc Mexico 06700","placename":"Cuauht\u00e9moc, Mexico City, Federal District, Mexico","title":"End User"}},{"type":"Feature","geometry":{"type":"Point","coordinates":[-100.1875974,25.781562099997]},"properties":{"address":"Apodaca Nuevo Leon Mexico 66600","placename":"Apodaca, Nuevo Leon, Mexico","title":"End User"}},{"type":"Feature","geometry":{"type":"Point","coordinates":[-99.133208000003,19.4326077]},"properties":{"address":"Mexico D.F. Mexico 11560","placename":"Mexico City, Federal District, Mexico","title":"End User"}},{"type":"Feature","geometry":{"type":"Point","coordinates":[-99.204443199998,19.529255699998]},"properties":{"address":"Tlalnepantla Mexico 54070","placename":"Habit.la Comunidad, 54070 Mexico","title":"End User"}},{"type":"Feature","geometry":{"type":"Point","coordinates":[-103.4251691,20.592437700002]},"properties":{"address":"Tlaquepaque Jal Mexico 45609","placename":"Arroyo Seco, 45609 Zapopan, JAL, Mexico","title":"End User"}},{"type":"Feature","geometry":{"type":"Point","coordinates":[-99.204443199998,19.529255699998]},"properties":{"address":"Tlalnepantla, Edo. de mexico Mexico 54070","placename":"Habit.la Comunidad, 54070 Mexico","title":"End User"}},{"type":"Feature","geometry":{"type":"Point","coordinates":[-99.204443199998,19.529255699998]},"properties":{"address":"Tlalnepantla, Edo. de mexico Mexico 54070","placename":"Habit.la Comunidad, 54070 Mexico","title":"End User"}},{"type":"Feature","geometry":{"type":"Point","coordinates":[-99.171909500004,19.409368199997]},"properties":{"address":"Mexico, D.F. Mexico 06100","placename":"Hip\u00f3dromo, Cuauht\u00e9moc, 06100 Mexico City, Federal District, Mexico","title":"End User"}},{"type":"Feature","geometry":{"type":"Point","coordinates":[-99.220368700001,19.420165999996]},"properties":{"address":"M\u00e9xico MX 11000","placename":"Lomas de Chapultepec, Miguel Hidalgo, 11000 Mexico City, Federal District, Mexico","title":"End User"}},{"type":"Feature","geometry":{"type":"Point","coordinates":[-99.220368700001,19.420165999996]},"properties":{"address":"DF MX 11000","placename":"Lomas de Chapultepec, Miguel Hidalgo, 11000 Mexico City, Federal District, Mexico","title":"End User"}},{"type":"Feature","geometry":{"type":"Point","coordinates":[-100.4615679,25.668540499999]},"properties":{"address":"Santa Catrina MX 66350","placename":"66350 Santa Catarina, Nuevo Leon, Mexico","title":"End User"}},{"type":"Feature","geometry":{"type":"Point","coordinates":[-100.3568071,25.691028299997]},"properties":{"address":"Monterrey MX 64620","placename":"Vista Hermosa, 64620 Monterrey, Nuevo Leon, Mexico","title":"End User"}},{"type":"Feature","geometry":{"type":"Point","coordinates":[-99.227293900004,19.533244199996]},"properties":{"address":"Tlanepantla MEXICO 54050","placename":"Habitacional Magisterial Vista Bella, 54050 Mexico","title":"End User"}},{"type":"Feature","geometry":{"type":"Point","coordinates":[-99.061939199998,19.536276999998]},"properties":{"address":"Emiliano Zapata, Morelos Mexico CP 62760","placename":"C. P. M., Santa Clara Coatitla, 55540 Mexico","title":"End User"}},{"type":"Feature","geometry":{"type":"Point","coordinates":[-100.3898881,20.5887932]},"properties":{"address":"Quer\u00e9taro MX 76120","placename":"Santiago de Quer\u00e9taro, Quer\u00e9taro, Mexico","title":"End User"}},{"type":"Feature","geometry":{"type":"Point","coordinates":[-99.173985699996,19.460087400004]},"properties":{"address":"DISTRITO FEDERAL Mexico 02870","placename":"San Salvador Xochimanca, Azcapotzalco, 02870 Mexico City, Federal District, Mexico","title":"End User"}},{"type":"Feature","geometry":{"type":"Point","coordinates":[-99.220368700001,19.420165999996]},"properties":{"address":"Mexic MX 11000","placename":"Lomas de Chapultepec, Miguel Hidalgo, 11000 Mexico City, Federal District, Mexico","title":"End User"}},{"type":"Feature","geometry":{"type":"Point","coordinates":[-99.258464299997,19.501446299998]},"properties":{"address":"Naucalpan Mexico 53250","placename":"Santiago Occipaco, 53250 Naucalpan, Mexico","title":"End User"}},{"type":"Feature","geometry":{"type":"Point","coordinates":[-99.236989999998,19.507702699997]},"properties":{"address":"Estado de Mexico Mexico 53100","placename":"Ciudad Sat\u00e9lite, 53100 Naucalpan, Mexico","title":"End User"}},{"type":"Feature","geometry":{"type":"Point","coordinates":[-99.218983799999,19.362793600002]},"properties":{"address":"Mexico MX 01620","placename":"Mina Los Coyotes, \u00c1lvaro Obreg\u00f3n, 01620 Mexico City, Federal District, Mexico","title":"End User"}},{"type":"Feature","geometry":{"type":"Point","coordinates":[-99.232834399998,19.521174399996]},"properties":{"address":"Tlalnepantla Mexico 54055","placename":"San Lucas Tepetlacalco, 54055 Mexico","title":"End User"}},{"type":"Feature","geometry":{"type":"Point","coordinates":[-99.232834399998,19.521174399996]},"properties":{"address":"Tlalnepantla Mexico 54055","placename":"San Lucas Tepetlacalco, 54055 Mexico","title":"End User"}},{"type":"Feature","geometry":{"type":"Point","coordinates":[-99.220368700001,19.420165999996]},"properties":{"address":"Mexico MX 11000","placename":"Lomas de Chapultepec, Miguel Hidalgo, 11000 Mexico City, Federal District, Mexico","title":"End User"}},{"type":"Feature","geometry":{"type":"Point","coordinates":[-103.4569571,20.709640200001]},"properties":{"address":"Zapopan Mexico 45019","placename":"Valle Real, 45019 Zapopan, JAL, Mexico","title":"End User"}},{"type":"Feature","geometry":{"type":"Point","coordinates":[-92.929146999998,17.987556999998]},"properties":{"address":"86130 Villahermosa, Tabasco Mexico 86130","placename":"Villahermosa, Tabasco, Mexico","title":"End User"}},{"type":"Feature","geometry":{"type":"Point","coordinates":[-92.929146999998,17.987556999998]},"properties":{"address":"86130 Villahermosa, Tabasco Mexico 86130","placename":"Villahermosa, Tabasco, Mexico","title":"End User"}},{"type":"Feature","geometry":{"type":"Point","coordinates":[-99.255000299998,19.390416200002]},"properties":{"address":"mexico Mexico DF 05120","placename":"Bosques de Las Lomas, Cuajimalpa, 05120 Mexico City, Federal District, Mexico","title":"End User"}},{"type":"Feature","geometry":{"type":"Point","coordinates":[-99.255000299998,19.390416200002]},"properties":{"address":"mexico Mexico DF 05120","placename":"Bosques de Las Lomas, Cuajimalpa, 05120 Mexico City, Federal District, Mexico","title":"End User"}},{"type":"Feature","geometry":{"type":"Point","coordinates":[-99.236989999998,19.507702699997]},"properties":{"address":"Estado de Mexico Mexico 53100","placename":"Ciudad Sat\u00e9lite, 53100 Naucalpan, Mexico","title":"End User"}},{"type":"Feature","geometry":{"type":"Point","coordinates":[-99.155301599996,19.457350999999]},"properties":{"address":"Mexico City Mexico 06450","placename":"Atlampa, Cuauht\u00e9moc, 06450 Mexico City, Federal District, Mexico","title":"End User"}},{"type":"Feature","geometry":{"type":"Point","coordinates":[-99.202366200001,19.525678400001]},"properties":{"address":"Estado de Mexico Mexico 54073","placename":"Los Reyes(Zona Ind.), 54073 Mexico","title":"End User"}},{"type":"Feature","geometry":{"type":"Point","coordinates":[-99.258464299997,19.501446299998]},"properties":{"address":"Naucalpan Mexico 53250","placename":"Santiago Occipaco, 53250 Naucalpan, Mexico","title":"End User"}},{"type":"Feature","geometry":{"type":"Point","coordinates":[-99.220368700001,19.420165999996]},"properties":{"address":"Mexico Mexico 11000","placename":"Lomas de Chapultepec, Miguel Hidalgo, 11000 Mexico City, Federal District, Mexico","title":"End User"}},{"type":"Feature","geometry":{"type":"Point","coordinates":[-99.159453199996,19.417363900001]},"properties":{"address":"Mexico, D.F. Mexico 06700","placename":"Roma Norte, Cuauht\u00e9moc, 06700 Mexico City, Federal District, Mexico","title":"End User"}},{"type":"Feature","geometry":{"type":"Point","coordinates":[-99.177446199997,19.432657699996]},"properties":{"address":"Mexico City Mexico 11590","placename":"Anzures, Nueva Cobertura, 11590 Mexico City, Federal District, Mexico","title":"End User"}},{"type":"Feature","geometry":{"type":"Point","coordinates":[-99.173985699996,19.460087400004]},"properties":{"address":"DISTRITO FEDERAL Mexico 02870","placename":"San Salvador Xochimanca, Azcapotzalco, 02870 Mexico City, Federal District, Mexico","title":"End User"}},{"type":"Feature","geometry":{"type":"Point","coordinates":[-99.232834399998,19.521174399996]},"properties":{"address":"Tlalnepantla Mexico 54055","placename":"San Lucas Tepetlacalco, 54055 Mexico","title":"End User"}},{"type":"Feature","geometry":{"type":"Point","coordinates":[-99.232834399998,19.521174399996]},"properties":{"address":"Tlalnepantla Mexico 54055","placename":"San Lucas Tepetlacalco, 54055 Mexico","title":"End User"}},{"type":"Feature","geometry":{"type":"Point","coordinates":[-99.232834399998,19.521174399996]},"properties":{"address":"Tlalnepantla Mexico 54055","placename":"San Lucas Tepetlacalco, 54055 Mexico","title":"End User"}},{"type":"Feature","geometry":{"type":"Point","coordinates":[-99.232834399998,19.521174399996]},"properties":{"address":"Tlalnepantla Mexico 54055","placename":"San Lucas Tepetlacalco, 54055 Mexico","title":"End User"}},{"type":"Feature","geometry":{"type":"Point","coordinates":[-99.236989999998,19.507702699997]},"properties":{"address":"Estado de Mexico Mexico 53100","placename":"Ciudad Sat\u00e9lite, 53100 Naucalpan, Mexico","title":"End User"}},{"type":"Feature","geometry":{"type":"Point","coordinates":[-100.4368463,20.536321799999]},"properties":{"address":"Queretaro Mexico 76900","placename":"Haciendas del Pueblito, Colinas del Sur, 76900 Santiago de Quer\u00e9taro, Quer\u00e9taro, Mexico","title":"End User"}},{"type":"Feature","geometry":{"type":"Point","coordinates":[-103.4569571,20.709640200001]},"properties":{"address":"Zapopan Mexico 45019","placename":"Valle Real, 45019 Zapopan, JAL, Mexico","title":"End User"}},{"type":"Feature","geometry":{"type":"Point","coordinates":[-99.194750900003,19.487023900001]},"properties":{"address":"AZCAPOTZALCO MEXICO 02460","placename":"La Preciosa, Azcapotzalco, 02460 Mexico City, Federal District, Mexico","title":"End User"}},{"type":"Feature","geometry":{"type":"Point","coordinates":[-99.061939199998,19.536276999998]},"properties":{"address":"Emiliano Zapata, Morelos Mexico CP 62760","placename":"C. P. M., Santa Clara Coatitla, 55540 Mexico","title":"End User"}},{"type":"Feature","geometry":{"type":"Point","coordinates":[-92.929146999998,17.987556999998]},"properties":{"address":"Villahermosa, Tabasco Mexico CP 86130","placename":"Villahermosa, Tabasco, Mexico","title":"End User"}},{"type":"Feature","geometry":{"type":"Point","coordinates":[-103.3803903,20.725905100003]},"properties":{"address":"Guadalajara Mexico 45150","placename":"Laureles, 45150 Zapopan, JAL, Mexico","title":"End User"}},{"type":"Feature","geometry":{"type":"Point","coordinates":[-100.309201,25.673210899996]},"properties":{"address":"Monterrey Mexico 66260","placename":"Monterrey, Nuevo Leon, Mexico","title":"End User"}},{"type":"Feature","geometry":{"type":"Point","coordinates":[-99.116915900003,19.264419300003]},"properties":{"address":"Mexico City DF Mexico 1710","placename":"M\u00e9xico 1710, Tierra Nueva, Xochimilco, 16050 Mexico City, Federal District, Mexico","title":"End User"}},{"type":"Feature","geometry":{"type":"Point","coordinates":[-99.061939199998,19.536276999998]},"properties":{"address":"Emiliano Zapata, Morelos Mexico CP 62760","placename":"C. P. M., Santa Clara Coatitla, 55540 Mexico","title":"End User"}},{"type":"Feature","geometry":{"type":"Point","coordinates":[-102.2905625,21.869210399998]},"properties":{"address":"Aguascalientes, Ags. Mexico 20270","placename":"M\u00e9xico, 20270 Aguascalientes, Mexico","title":"End User"}},{"type":"Feature","geometry":{"type":"Point","coordinates":[-99.115524199997,19.264449399997]},"properties":{"address":"Mexico City Mexico 3100","placename":"M\u00e9xico 3100, Tierra Nueva, Xochimilco, 16050 Mexico City, Federal District, Mexico","title":"End User"}},{"type":"Feature","geometry":{"type":"Point","coordinates":[-99.220368700001,19.420165999996]},"properties":{"address":"Mexico Mexico 11000","placename":"Lomas de Chapultepec, Miguel Hidalgo, 11000 Mexico City, Federal District, Mexico","title":"End User"}},{"type":"Feature","geometry":{"type":"Point","coordinates":[-92.929146999998,17.987556999998]},"properties":{"address":"Villahermosa, Tabasco Mexico CP 86130","placename":"Villahermosa, Tabasco, Mexico","title":"End User"}},{"type":"Feature","geometry":{"type":"Point","coordinates":[-99.159144600004,19.379405899999]},"properties":{"address":"Del. Benito Juarez Mexico 03100","placename":"Benito Juarez, Mexico City, Federal District, Mexico","title":"End User"}},{"type":"Feature","geometry":{"type":"Point","coordinates":[-99.146998999998,19.2957335]},"properties":{"address":"Tlalpan, CP Mexico 14370","placename":"Chimali, Tlalpan, 14370 Coyac\u00e1n, Federal District, Mexico","title":"End User"}},{"type":"Feature","geometry":{"type":"Point","coordinates":[-99.083373999996,19.649624100001]},"properties":{"address":"Estado de Mexico Mexico 55719","placename":"Rinconada San Felipe, 55719 Coacalco, Mexico","title":"End User"}},{"type":"Feature","geometry":{"type":"Point","coordinates":[-99.176754100003,19.599923900003]},"properties":{"address":"Tultitlan, CP Mexico 54958","placename":"Lomas del Parque 2da Secci\u00f3n, 54958 Buenavista, Mexico","title":"End User"}},{"type":"Feature","geometry":{"type":"Point","coordinates":[-99.236989999998,19.507702699997]},"properties":{"address":"Naucalpan Mexico 53100","placename":"Ciudad Sat\u00e9lite, 53100 Naucalpan, Mexico","title":"End User"}},{"type":"Feature","geometry":{"type":"Point","coordinates":[-99.2377778,19.4752778]},"properties":{"description":"MEX Production Facility","address":"Naucalpan de Juarez Mexico C.P. 53250","placename":"Naucalpan, Mexico","title":"Printed Material"}},{"type":"Feature","geometry":{"type":"Point","coordinates":[-46.581889699996,-23.697279099997]},"properties":{"description":"BR Production Facility","address":"Sao Bernando do Campo, Brazil 09861-160","placename":"S\u00e3o Paulo, 09861-160, Brazil","title":"Printed Material"}},{"type":"Feature","geometry":{"type":"Point","coordinates":[-99.2377778,19.4752778]},"properties":{"description":"MEX Production Facility","address":"Naucalpan de Juarez Mexico C.P. 53250","placename":"Naucalpan, Mexico","title":"Printed Material"}},{"type":"Feature","geometry":{"type":"Point","coordinates":[-71.072339100001,42.503939499999]},"properties":{"address":"Wakefield, MA","placename":"Wakefield, MA, USA","title":"Print Order"}},{"type":"Feature","geometry":{"type":"LineString","coordinates":[[-99.2377778,19.4752778],[-71.072339100001,42.503939499999]]},"properties":[]},{"type":"Feature","geometry":{"type":"LineString","coordinates":[[-46.581889699996,-23.697279099997],[-71.072339100001,42.503939499999]]},"properties":[]},{"type":"Feature","geometry":{"type":"LineString","coordinates":[[-99.2377778,19.4752778],[-99.236989999998,19.507702699997]]},"properties":[]},{"type":"Feature","geometry":{"type":"LineString","coordinates":[[-99.2377778,19.4752778],[-99.176754100003,19.599923900003]]},"properties":[]},{"type":"Feature","geometry":{"type":"LineString","coordinates":[[-99.2377778,19.4752778],[-99.083373999996,19.649624100001]]},"properties":[]},{"type":"Feature","geometry":{"type":"LineString","coordinates":[[-99.2377778,19.4752778],[-99.146998999998,19.2957335]]},"properties":[]},{"type":"Feature","geometry":{"type":"LineString","coordinates":[[-99.2377778,19.4752778],[-99.159144600004,19.379405899999]]},"properties":[]},{"type":"Feature","geometry":{"type":"LineString","coordinates":[[-99.2377778,19.4752778],[-92.929146999998,17.987556999998]]},"properties":[]},{"type":"Feature","geometry":{"type":"LineString","coordinates":[[-99.2377778,19.4752778],[-99.220368700001,19.420165999996]]},"properties":[]},{"type":"Feature","geometry":{"type":"LineString","coordinates":[[-99.2377778,19.4752778],[-99.115524199997,19.264449399997]]},"properties":[]},{"type":"Feature","geometry":{"type":"LineString","coordinates":[[-99.2377778,19.4752778],[-102.2905625,21.869210399998]]},"properties":[]},{"type":"Feature","geometry":{"type":"LineString","coordinates":[[-99.2377778,19.4752778],[-99.061939199998,19.536276999998]]},"properties":[]},{"type":"Feature","geometry":{"type":"LineString","coordinates":[[-99.2377778,19.4752778],[-99.116915900003,19.264419300003]]},"properties":[]},{"type":"Feature","geometry":{"type":"LineString","coordinates":[[-99.2377778,19.4752778],[-100.309201,25.673210899996]]},"properties":[]},{"type":"Feature","geometry":{"type":"LineString","coordinates":[[-99.2377778,19.4752778],[-103.3803903,20.725905100003]]},"properties":[]},{"type":"Feature","geometry":{"type":"LineString","coordinates":[[-99.2377778,19.4752778],[-92.929146999998,17.987556999998]]},"properties":[]},{"type":"Feature","geometry":{"type":"LineString","coordinates":[[-99.2377778,19.4752778],[-99.061939199998,19.536276999998]]},"properties":[]},{"type":"Feature","geometry":{"type":"LineString","coordinates":[[-99.2377778,19.4752778],[-99.194750900003,19.487023900001]]},"properties":[]},{"type":"Feature","geometry":{"type":"LineString","coordinates":[[-99.2377778,19.4752778],[-103.4569571,20.709640200001]]},"properties":[]},{"type":"Feature","geometry":{"type":"LineString","coordinates":[[-99.2377778,19.4752778],[-100.4368463,20.536321799999]]},"properties":[]},{"type":"Feature","geometry":{"type":"LineString","coordinates":[[-99.2377778,19.4752778],[-99.236989999998,19.507702699997]]},"properties":[]},{"type":"Feature","geometry":{"type":"LineString","coordinates":[[-99.2377778,19.4752778],[-99.232834399998,19.521174399996]]},"properties":[]},{"type":"Feature","geometry":{"type":"LineString","coordinates":[[-99.2377778,19.4752778],[-99.232834399998,19.521174399996]]},"properties":[]},{"type":"Feature","geometry":{"type":"LineString","coordinates":[[-99.2377778,19.4752778],[-99.232834399998,19.521174399996]]},"properties":[]},{"type":"Feature","geometry":{"type":"LineString","coordinates":[[-99.2377778,19.4752778],[-99.232834399998,19.521174399996]]},"properties":[]},{"type":"Feature","geometry":{"type":"LineString","coordinates":[[-99.2377778,19.4752778],[-99.173985699996,19.460087400004]]},"properties":[]},{"type":"Feature","geometry":{"type":"LineString","coordinates":[[-99.2377778,19.4752778],[-99.177446199997,19.432657699996]]},"properties":[]},{"type":"Feature","geometry":{"type":"LineString","coordinates":[[-99.2377778,19.4752778],[-99.159453199996,19.417363900001]]},"properties":[]},{"type":"Feature","geometry":{"type":"LineString","coordinates":[[-99.2377778,19.4752778],[-99.220368700001,19.420165999996]]},"properties":[]},{"type":"Feature","geometry":{"type":"LineString","coordinates":[[-99.2377778,19.4752778],[-99.258464299997,19.501446299998]]},"properties":[]},{"type":"Feature","geometry":{"type":"LineString","coordinates":[[-99.2377778,19.4752778],[-99.202366200001,19.525678400001]]},"properties":[]},{"type":"Feature","geometry":{"type":"LineString","coordinates":[[-99.2377778,19.4752778],[-99.155301599996,19.457350999999]]},"properties":[]},{"type":"Feature","geometry":{"type":"LineString","coordinates":[[-99.2377778,19.4752778],[-99.236989999998,19.507702699997]]},"properties":[]},{"type":"Feature","geometry":{"type":"LineString","coordinates":[[-99.2377778,19.4752778],[-99.255000299998,19.390416200002]]},"properties":[]},{"type":"Feature","geometry":{"type":"LineString","coordinates":[[-99.2377778,19.4752778],[-99.255000299998,19.390416200002]]},"properties":[]},{"type":"Feature","geometry":{"type":"LineString","coordinates":[[-99.2377778,19.4752778],[-92.929146999998,17.987556999998]]},"properties":[]},{"type":"Feature","geometry":{"type":"LineString","coordinates":[[-99.2377778,19.4752778],[-92.929146999998,17.987556999998]]},"properties":[]},{"type":"Feature","geometry":{"type":"LineString","coordinates":[[-99.2377778,19.4752778],[-103.4569571,20.709640200001]]},"properties":[]},{"type":"Feature","geometry":{"type":"LineString","coordinates":[[-99.2377778,19.4752778],[-99.220368700001,19.420165999996]]},"properties":[]},{"type":"Feature","geometry":{"type":"LineString","coordinates":[[-99.2377778,19.4752778],[-99.232834399998,19.521174399996]]},"properties":[]},{"type":"Feature","geometry":{"type":"LineString","coordinates":[[-99.2377778,19.4752778],[-99.232834399998,19.521174399996]]},"properties":[]},{"type":"Feature","geometry":{"type":"LineString","coordinates":[[-99.2377778,19.4752778],[-99.218983799999,19.362793600002]]},"properties":[]},{"type":"Feature","geometry":{"type":"LineString","coordinates":[[-99.2377778,19.4752778],[-99.236989999998,19.507702699997]]},"properties":[]},{"type":"Feature","geometry":{"type":"LineString","coordinates":[[-99.2377778,19.4752778],[-99.258464299997,19.501446299998]]},"properties":[]},{"type":"Feature","geometry":{"type":"LineString","coordinates":[[-99.2377778,19.4752778],[-99.220368700001,19.420165999996]]},"properties":[]},{"type":"Feature","geometry":{"type":"LineString","coordinates":[[-99.2377778,19.4752778],[-99.173985699996,19.460087400004]]},"properties":[]},{"type":"Feature","geometry":{"type":"LineString","coordinates":[[-99.2377778,19.4752778],[-100.3898881,20.5887932]]},"properties":[]},{"type":"Feature","geometry":{"type":"LineString","coordinates":[[-99.2377778,19.4752778],[-99.061939199998,19.536276999998]]},"properties":[]},{"type":"Feature","geometry":{"type":"LineString","coordinates":[[-99.2377778,19.4752778],[-99.227293900004,19.533244199996]]},"properties":[]},{"type":"Feature","geometry":{"type":"LineString","coordinates":[[-99.2377778,19.4752778],[-100.3568071,25.691028299997]]},"properties":[]},{"type":"Feature","geometry":{"type":"LineString","coordinates":[[-99.2377778,19.4752778],[-100.4615679,25.668540499999]]},"properties":[]},{"type":"Feature","geometry":{"type":"LineString","coordinates":[[-99.2377778,19.4752778],[-99.220368700001,19.420165999996]]},"properties":[]},{"type":"Feature","geometry":{"type":"LineString","coordinates":[[-99.2377778,19.4752778],[-99.220368700001,19.420165999996]]},"properties":[]},{"type":"Feature","geometry":{"type":"LineString","coordinates":[[-99.2377778,19.4752778],[-99.171909500004,19.409368199997]]},"properties":[]},{"type":"Feature","geometry":{"type":"LineString","coordinates":[[-99.2377778,19.4752778],[-99.204443199998,19.529255699998]]},"properties":[]},{"type":"Feature","geometry":{"type":"LineString","coordinates":[[-99.2377778,19.4752778],[-99.204443199998,19.529255699998]]},"properties":[]},{"type":"Feature","geometry":{"type":"LineString","coordinates":[[-99.2377778,19.4752778],[-103.4251691,20.592437700002]]},"properties":[]},{"type":"Feature","geometry":{"type":"LineString","coordinates":[[-99.2377778,19.4752778],[-99.204443199998,19.529255699998]]},"properties":[]},{"type":"Feature","geometry":{"type":"LineString","coordinates":[[-99.2377778,19.4752778],[-99.133208000003,19.4326077]]},"properties":[]},{"type":"Feature","geometry":{"type":"LineString","coordinates":[[-99.2377778,19.4752778],[-100.1875974,25.781562099997]]},"properties":[]},{"type":"Feature","geometry":{"type":"LineString","coordinates":[[-99.2377778,19.4752778],[-99.149510699998,19.435633800002]]},"properties":[]},{"type":"Feature","geometry":{"type":"LineString","coordinates":[[-99.2377778,19.4752778],[-99.159453199996,19.417363900001]]},"properties":[]},{"type":"Feature","geometry":{"type":"LineString","coordinates":[[-99.2377778,19.4752778],[-99.232834399998,19.521174399996]]},"properties":[]},{"type":"Feature","geometry":{"type":"LineString","coordinates":[[-99.2377778,19.4752778],[-99.220368700001,19.420165999996]]},"properties":[]},{"type":"Feature","geometry":{"type":"LineString","coordinates":[[-99.2377778,19.4752778],[-99.220368700001,19.420165999996]]},"properties":[]},{"type":"Feature","geometry":{"type":"LineString","coordinates":[[-99.2377778,19.4752778],[-99.220368700001,19.420165999996]]},"properties":[]},{"type":"Feature","geometry":{"type":"LineString","coordinates":[[-99.2377778,19.4752778],[-99.220368700001,19.420165999996]]},"properties":[]},{"type":"Feature","geometry":{"type":"LineString","coordinates":[[-99.2377778,19.4752778],[-99.220368700001,19.420165999996]]},"properties":[]},{"type":"Feature","geometry":{"type":"LineString","coordinates":[[-99.2377778,19.4752778],[-99.236989999998,19.507702699997]]},"properties":[]},{"type":"Feature","geometry":{"type":"LineString","coordinates":[[-99.2377778,19.4752778],[-99.220368700001,19.420165999996]]},"properties":[]},{"type":"Feature","geometry":{"type":"LineString","coordinates":[[-99.2377778,19.4752778],[-103.4251691,20.592437700002]]},"properties":[]},{"type":"Feature","geometry":{"type":"LineString","coordinates":[[-99.2377778,19.4752778],[-103.4251691,20.592437700002]]},"properties":[]},{"type":"Feature","geometry":{"type":"LineString","coordinates":[[-99.2377778,19.4752778],[-99.133208000003,19.4326077]]},"properties":[]},{"type":"Feature","geometry":{"type":"LineString","coordinates":[[-99.2377778,19.4752778],[-100.3568071,25.691028299997]]},"properties":[]},{"type":"Feature","geometry":{"type":"LineString","coordinates":[[-99.2377778,19.4752778],[-100.3568071,25.691028299997]]},"properties":[]},{"type":"Feature","geometry":{"type":"LineString","coordinates":[[-99.2377778,19.4752778],[-103.2993396,20.629197300003]]},"properties":[]},{"type":"Feature","geometry":{"type":"LineString","coordinates":[[-99.2377778,19.4752778],[-99.258464299997,19.501446299998]]},"properties":[]},{"type":"Feature","geometry":{"type":"LineString","coordinates":[[-99.2377778,19.4752778],[-99.220368700001,19.420165999996]]},"properties":[]},{"type":"Feature","geometry":{"type":"LineString","coordinates":[[-99.2377778,19.4752778],[-99.232834399998,19.521174399996]]},"properties":[]},{"type":"Feature","geometry":{"type":"LineString","coordinates":[[-99.2377778,19.4752778],[-100.1875974,25.781562099997]]},"properties":[]},{"type":"Feature","geometry":{"type":"LineString","coordinates":[[-99.2377778,19.4752778],[-99.177446199997,19.394357399996]]},"properties":[]},{"type":"Feature","geometry":{"type":"LineString","coordinates":[[-99.2377778,19.4752778],[-99.253614800003,18.976826699998]]},"properties":[]},{"type":"Feature","geometry":{"type":"LineString","coordinates":[[-99.2377778,19.4752778],[-99.236989999998,19.507702699997]]},"properties":[]},{"type":"Feature","geometry":{"type":"LineString","coordinates":[[-99.2377778,19.4752778],[-100.3898881,20.5887932]]},"properties":[]},{"type":"Feature","geometry":{"type":"LineString","coordinates":[[-99.2377778,19.4752778],[-99.258464299997,19.501446299998]]},"properties":[]},{"type":"Feature","geometry":{"type":"LineString","coordinates":[[-99.2377778,19.4752778],[-99.220368700001,19.420165999996]]},"properties":[]},{"type":"Feature","geometry":{"type":"LineString","coordinates":[[-99.2377778,19.4752778],[-99.236989999998,19.507702699997]]},"properties":[]},{"type":"Feature","geometry":{"type":"LineString","coordinates":[[-99.2377778,19.4752778],[-99.220368700001,19.420165999996]]},"properties":[]},{"type":"Feature","geometry":{"type":"LineString","coordinates":[[-99.2377778,19.4752778],[-99.144166699996,19.433611100003]]},"properties":[]},{"type":"Feature","geometry":{"type":"LineString","coordinates":[[-99.2377778,19.4752778],[-99.061939199998,19.536276999998]]},"properties":[]},{"type":"Feature","geometry":{"type":"LineString","coordinates":[[-99.2377778,19.4752778],[-99.229738899996,19.310068799999]]},"properties":[]},{"type":"Feature","geometry":{"type":"LineString","coordinates":[[-99.2377778,19.4752778],[-99.133208000003,19.4326077]]},"properties":[]},{"type":"Feature","geometry":{"type":"LineString","coordinates":[[-99.2377778,19.4752778],[-99.2086934,19.4415814]]},"properties":[]},{"type":"Feature","geometry":{"type":"LineString","coordinates":[[-99.2377778,19.4752778],[-99.229738899996,19.310068799999]]},"properties":[]},{"type":"Feature","geometry":{"type":"LineString","coordinates":[[-99.2377778,19.4752778],[-99.197520000004,19.339580199996]]},"properties":[]},{"type":"Feature","geometry":{"type":"LineString","coordinates":[[-99.2377778,19.4752778],[-99.197520000004,19.339580199996]]},"properties":[]},{"type":"Feature","geometry":{"type":"LineString","coordinates":[[-99.2377778,19.4752778],[-100.3427724,25.6510721]]},"properties":[]},{"type":"Feature","geometry":{"type":"LineString","coordinates":[[-99.2377778,19.4752778],[-99.655722400002,19.282754199998]]},"properties":[]},{"type":"Feature","geometry":{"type":"LineString","coordinates":[[-99.2377778,19.4752778],[-99.2377778,19.4752778]]},"properties":[]},{"type":"Feature","geometry":{"type":"LineString","coordinates":[[-46.581889699996,-23.697279099997],[-46.695889900002,-23.675526899996]]},"properties":[]},{"type":"Feature","geometry":{"type":"LineString","coordinates":[[-46.581889699996,-23.697279099997],[-46.693474500003,-23.5983919]]},"properties":[]},{"type":"Feature","geometry":{"type":"LineString","coordinates":[[-46.581889699996,-23.697279099997],[-46.695889900002,-23.675526899996]]},"properties":[]},{"type":"Feature","geometry":{"type":"LineString","coordinates":[[-46.581889699996,-23.697279099997],[-46.695889900002,-23.675526899996]]},"properties":[]},{"type":"Feature","geometry":{"type":"LineString","coordinates":[[-46.581889699996,-23.697279099997],[-46.693474500003,-23.5983919]]},"properties":[]},{"type":"Feature","geometry":{"type":"LineString","coordinates":[[-46.581889699996,-23.697279099997],[-46.695889900002,-23.675526899996]]},"properties":[]},{"type":"Feature","geometry":{"type":"LineString","coordinates":[[-46.581889699996,-23.697279099997],[-49.320909900001,-25.490051800003]]},"properties":[]},{"type":"Feature","geometry":{"type":"LineString","coordinates":[[-46.581889699996,-23.697279099997],[-59.971757100001,-3.1098239999956]]},"properties":[]},{"type":"Feature","geometry":{"type":"LineString","coordinates":[[-46.581889699996,-23.697279099997],[-46.695889900002,-23.675526899996]]},"properties":[]},{"type":"Feature","geometry":{"type":"LineString","coordinates":[[-46.581889699996,-23.697279099997],[-46.695889900002,-23.675526899996]]},"properties":[]},{"type":"Feature","geometry":{"type":"LineString","coordinates":[[-46.581889699996,-23.697279099997],[-46.693474500003,-23.5983919]]},"properties":[]},{"type":"Feature","geometry":{"type":"LineString","coordinates":[[-46.581889699996,-23.697279099997],[-46.695889900002,-23.675526899996]]},"properties":[]},{"type":"Feature","geometry":{"type":"LineString","coordinates":[[-46.581889699996,-23.697279099997],[-46.695889900002,-23.675526899996]]},"properties":[]},{"type":"Feature","geometry":{"type":"LineString","coordinates":[[-46.581889699996,-23.697279099997],[-46.695889900002,-23.675526899996]]},"properties":[]},{"type":"Feature","geometry":{"type":"LineString","coordinates":[[-46.581889699996,-23.697279099997],[-46.693474500003,-23.5983919]]},"properties":[]},{"type":"Feature","geometry":{"type":"LineString","coordinates":[[-46.581889699996,-23.697279099997],[-46.693474500003,-23.5983919]]},"properties":[]},{"type":"Feature","geometry":{"type":"LineString","coordinates":[[-46.581889699996,-23.697279099997],[-46.564738099999,-23.689584]]},"properties":[]},{"type":"Feature","geometry":{"type":"LineString","coordinates":[[-46.581889699996,-23.697279099997],[-46.695889900002,-23.675526899996]]},"properties":[]},{"type":"Feature","geometry":{"type":"LineString","coordinates":[[-46.581889699996,-23.697279099997],[-46.693474500003,-23.5983919]]},"properties":[]},{"type":"Feature","geometry":{"type":"LineString","coordinates":[[-46.581889699996,-23.697279099997],[-46.695889900002,-23.675526899996]]},"properties":[]},{"type":"Feature","geometry":{"type":"LineString","coordinates":[[-46.581889699996,-23.697279099997],[-49.320909900001,-25.490051800003]]},"properties":[]},{"type":"Feature","geometry":{"type":"LineString","coordinates":[[-46.581889699996,-23.697279099997],[-46.693474500003,-23.5983919]]},"properties":[]},{"type":"Feature","geometry":{"type":"LineString","coordinates":[[-46.581889699996,-23.697279099997],[-46.695889900002,-23.675526899996]]},"properties":[]},{"type":"Feature","geometry":{"type":"LineString","coordinates":[[-46.581889699996,-23.697279099997],[-46.693474500003,-23.5983919]]},"properties":[]},{"type":"Feature","geometry":{"type":"LineString","coordinates":[[-46.581889699996,-23.697279099997],[-46.856775600003,-23.498292199996]]},"properties":[]},{"type":"Feature","geometry":{"type":"LineString","coordinates":[[-46.581889699996,-23.697279099997],[-43.2581953,-22.9281018]]},"properties":[]},{"type":"Feature","geometry":{"type":"LineString","coordinates":[[-46.581889699996,-23.697279099997],[-46.695889900002,-23.675526899996]]},"properties":[]},{"type":"Feature","geometry":{"type":"LineString","coordinates":[[-46.581889699996,-23.697279099997],[-46.695889900002,-23.675526899996]]},"properties":[]},{"type":"Feature","geometry":{"type":"LineString","coordinates":[[-46.581889699996,-23.697279099997],[-46.656654100001,-23.570758900001]]},"properties":[]},{"type":"Feature","geometry":{"type":"LineString","coordinates":[[-46.581889699996,-23.697279099997],[-46.8392104,-23.584813000003]]},"properties":[]},{"type":"Feature","geometry":{"type":"LineString","coordinates":[[-46.581889699996,-23.697279099997],[-46.695889900002,-23.675526899996]]},"properties":[]},{"type":"Feature","geometry":{"type":"LineString","coordinates":[[-46.581889699996,-23.697279099997],[-49.076029300002,-26.908832999999]]},"properties":[]},{"type":"Feature","geometry":{"type":"LineString","coordinates":[[-46.581889699996,-23.697279099997],[-46.638818199999,-23.548943300003]]},"properties":[]},{"type":"Feature","geometry":{"type":"LineString","coordinates":[[-46.581889699996,-23.697279099997],[-46.688040300001,-23.5959167]]},"properties":[]},{"type":"Feature","geometry":{"type":"LineString","coordinates":[[-46.581889699996,-23.697279099997],[-46.688040300001,-23.5959167]]},"properties":[]},{"type":"Feature","geometry":{"type":"LineString","coordinates":[[-46.581889699996,-23.697279099997],[-46.694078399998,-23.607541900001]]},"properties":[]},{"type":"Feature","geometry":{"type":"LineString","coordinates":[[-46.581889699996,-23.697279099997],[-46.694078399998,-23.607541900001]]},"properties":[]},{"type":"Feature","geometry":{"type":"LineString","coordinates":[[-46.581889699996,-23.697279099997],[-46.685625300004,-23.586737200001]]},"properties":[]},{"type":"Feature","geometry":{"type":"LineString","coordinates":[[-46.581889699996,-23.697279099997],[-46.685625300004,-23.586737200001]]},"properties":[]},{"type":"Feature","geometry":{"type":"LineString","coordinates":[[-46.581889699996,-23.697279099997],[-46.691059200004,-23.599940999998]]},"properties":[]},{"type":"Feature","geometry":{"type":"LineString","coordinates":[[-46.581889699996,-23.697279099997],[-43.250337199997,-22.897958200002]]},"properties":[]},{"type":"Feature","geometry":{"type":"LineString","coordinates":[[-46.581889699996,-23.697279099997],[-43.250337199997,-22.897958200002]]},"properties":[]},{"type":"Feature","geometry":{"type":"LineString","coordinates":[[-46.581889699996,-23.697279099997],[-46.694078399998,-23.607541900001]]},"properties":[]},{"type":"Feature","geometry":{"type":"LineString","coordinates":[[-46.581889699996,-23.697279099997],[-46.688040300001,-23.5959167]]},"properties":[]},{"type":"Feature","geometry":{"type":"LineString","coordinates":[[-46.581889699996,-23.697279099997],[-46.688040300001,-23.5959167]]},"properties":[]},{"type":"Feature","geometry":{"type":"LineString","coordinates":[[-46.581889699996,-23.697279099997],[-46.659671200004,-23.553331200004]]},"properties":[]},{"type":"Feature","geometry":{"type":"LineString","coordinates":[[-46.581889699996,-23.697279099997],[-46.694078399998,-23.601581100004]]},"properties":[]},{"type":"Feature","geometry":{"type":"LineString","coordinates":[[-46.581889699996,-23.697279099997],[-46.831943899999,-23.593059900003]]},"properties":[]},{"type":"Feature","geometry":{"type":"LineString","coordinates":[[-46.581889699996,-23.697279099997],[-46.650620599998,-23.5496065]]},"properties":[]},{"type":"Feature","geometry":{"type":"LineString","coordinates":[[-46.581889699996,-23.697279099997],[-46.691059200004,-23.599940999998]]},"properties":[]},{"type":"Feature","geometry":{"type":"LineString","coordinates":[[-46.581889699996,-23.697279099997],[-46.587222099999,-23.3183726]]},"properties":[]},{"type":"Feature","geometry":{"type":"LineString","coordinates":[[-46.581889699996,-23.697279099997],[-46.640968399999,-23.564140599997]]},"properties":[]},{"type":"Feature","geometry":{"type":"LineString","coordinates":[[-46.581889699996,-23.697279099997],[-46.694078399998,-23.607541900001]]},"properties":[]},{"type":"Feature","geometry":{"type":"LineString","coordinates":[[-46.581889699996,-23.697279099997],[-46.694078399998,-23.607541900001]]},"properties":[]},{"type":"Feature","geometry":{"type":"LineString","coordinates":[[-46.581889699996,-23.697279099997],[-43.178953999998,-22.900523299997]]},"properties":[]},{"type":"Feature","geometry":{"type":"LineString","coordinates":[[-46.581889699996,-23.697279099997],[-46.685625300004,-23.586737200001]]},"properties":[]},{"type":"Feature","geometry":{"type":"LineString","coordinates":[[-46.581889699996,-23.697279099997],[-43.175321600002,-22.908906600001]]},"properties":[]},{"type":"Feature","geometry":{"type":"LineString","coordinates":[[-46.581889699996,-23.697279099997],[-46.864753399997,-23.491168300001]]},"properties":[]},{"type":"Feature","geometry":{"type":"LineString","coordinates":[[-46.581889699996,-23.697279099997],[-46.812571500003,-23.512382099997]]},"properties":[]},{"type":"Feature","geometry":{"type":"LineString","coordinates":[[-46.581889699996,-23.697279099997],[-46.693474500003,-23.5983919]]},"properties":[]},{"type":"Feature","geometry":{"type":"LineString","coordinates":[[-46.581889699996,-23.697279099997],[-49.098133199997,-26.909874399997]]},"properties":[]},{"type":"Feature","geometry":{"type":"LineString","coordinates":[[-46.581889699996,-23.697279099997],[-43.209213500001,-22.914203999999]]},"properties":[]},{"type":"Feature","geometry":{"type":"LineString","coordinates":[[-46.581889699996,-23.697279099997],[-43.209213500001,-22.914203999999]]},"properties":[]},{"type":"Feature","geometry":{"type":"LineString","coordinates":[[-46.581889699996,-23.697279099997],[-43.209213500001,-22.914203999999]]},"properties":[]},{"type":"Feature","geometry":{"type":"LineString","coordinates":[[-46.581889699996,-23.697279099997],[-46.667516300002,-23.647216000001]]},"properties":[]},{"type":"Feature","geometry":{"type":"LineString","coordinates":[[-46.581889699996,-23.697279099997],[-43.209213500001,-22.914203999999]]},"properties":[]},{"type":"Feature","geometry":{"type":"LineString","coordinates":[[-46.581889699996,-23.697279099997],[-46.694078399998,-23.601581100004]]},"properties":[]},{"type":"Feature","geometry":{"type":"LineString","coordinates":[[-46.581889699996,-23.697279099997],[-46.667516300002,-23.647216000001]]},"properties":[]},{"type":"Feature","geometry":{"type":"LineString","coordinates":[[-46.581889699996,-23.697279099997],[-46.685625300004,-23.586737200001]]},"properties":[]},{"type":"Feature","geometry":{"type":"LineString","coordinates":[[-46.581889699996,-23.697279099997],[-43.520427600004,-22.759045299998]]},"properties":[]},{"type":"Feature","geometry":{"type":"LineString","coordinates":[[-46.581889699996,-23.697279099997],[-48.724162100001,-22.230612299998]]},"properties":[]},{"type":"Feature","geometry":{"type":"LineString","coordinates":[[-46.581889699996,-23.697279099997],[-46.656654100001,-23.570758900001]]},"properties":[]},{"type":"Feature","geometry":{"type":"LineString","coordinates":[[-46.581889699996,-23.697279099997],[-46.693474500003,-23.5983919]]},"properties":[]},{"type":"Feature","geometry":{"type":"LineString","coordinates":[[-46.581889699996,-23.697279099997],[-46.685625300004,-23.586737200001]]},"properties":[]},{"type":"Feature","geometry":{"type":"LineString","coordinates":[[-46.581889699996,-23.697279099997],[-46.659671200004,-23.558097999996]]},"properties":[]},{"type":"Feature","geometry":{"type":"LineString","coordinates":[[-46.581889699996,-23.697279099997],[-46.823467599997,-23.497021100004]]},"properties":[]},{"type":"Feature","geometry":{"type":"LineString","coordinates":[[-46.581889699996,-23.697279099997],[-46.694078399998,-23.607541900001]]},"properties":[]},{"type":"Feature","geometry":{"type":"LineString","coordinates":[[-46.581889699996,-23.697279099997],[-46.316304199997,-23.971315800003]]},"properties":[]},{"type":"Feature","geometry":{"type":"LineString","coordinates":[[-46.581889699996,-23.697279099997],[-46.685625300004,-23.586737200001]]},"properties":[]},{"type":"Feature","geometry":{"type":"LineString","coordinates":[[-46.581889699996,-23.697279099997],[-46.683210399998,-23.6121266]]},"properties":[]},{"type":"Feature","geometry":{"type":"LineString","coordinates":[[-46.581889699996,-23.697279099997],[-46.316304199997,-23.971315800003]]},"properties":[]},{"type":"Feature","geometry":{"type":"LineString","coordinates":[[-46.581889699996,-23.697279099997],[-46.667516300002,-23.647216000001]]},"properties":[]},{"type":"Feature","geometry":{"type":"LineString","coordinates":[[-46.581889699996,-23.697279099997],[-46.694078399998,-23.607541900001]]},"properties":[]},{"type":"Feature","geometry":{"type":"LineString","coordinates":[[-46.581889699996,-23.697279099997],[-43.204978299996,-22.984241499996]]},"properties":[]},{"type":"Feature","geometry":{"type":"LineString","coordinates":[[-46.581889699996,-23.697279099997],[-46.647000799996,-23.574568499999]]},"properties":[]},{"type":"Feature","geometry":{"type":"LineString","coordinates":[[-46.581889699996,-23.697279099997],[-46.688644099997,-23.620563300002]]},"properties":[]},{"type":"Feature","geometry":{"type":"LineString","coordinates":[[-46.581889699996,-23.697279099997],[-46.683210399998,-23.599014400001]]},"properties":[]},{"type":"Feature","geometry":{"type":"LineString","coordinates":[[-46.581889699996,-23.697279099997],[-46.330089,-23.963736399998]]},"properties":[]},{"type":"Feature","geometry":{"type":"LineString","coordinates":[[-46.581889699996,-23.697279099997],[-46.864753399997,-23.491168300001]]},"properties":[]},{"type":"Feature","geometry":{"type":"LineString","coordinates":[[-46.581889699996,-23.697279099997],[-46.694078399998,-23.601581100004]]},"properties":[]},{"type":"Feature","geometry":{"type":"LineString","coordinates":[[-46.581889699996,-23.697279099997],[-43.352987299998,-22.8319544]]},"properties":[]},{"type":"Feature","geometry":{"type":"LineString","coordinates":[[-46.581889699996,-23.697279099997],[-46.683210399998,-23.6121266]]},"properties":[]},{"type":"Feature","geometry":{"type":"LineString","coordinates":[[-46.581889699996,-23.697279099997],[-46.683210399998,-23.599014400001]]},"properties":[]},{"type":"Feature","geometry":{"type":"LineString","coordinates":[[-46.581889699996,-23.697279099997],[-43.352987299998,-22.8319544]]},"properties":[]},{"type":"Feature","geometry":{"type":"LineString","coordinates":[[-46.581889699996,-23.697279099997],[-43.178953999998,-22.900523299997]]},"properties":[]},{"type":"Feature","geometry":{"type":"LineString","coordinates":[[-46.581889699996,-23.697279099997],[-45.885552700001,-23.188188599999]]},"properties":[]},{"type":"Feature","geometry":{"type":"LineString","coordinates":[[-46.581889699996,-23.697279099997],[-46.823467599997,-23.497021100004]]},"properties":[]},{"type":"Feature","geometry":{"type":"LineString","coordinates":[[-46.581889699996,-23.697279099997],[-48.494346200003,-1.4538976999982]]},"properties":[]},{"type":"Feature","geometry":{"type":"LineString","coordinates":[[-46.581889699996,-23.697279099997],[-46.824678400002,-23.499824300001]]},"properties":[]},{"type":"Feature","geometry":{"type":"LineString","coordinates":[[-46.581889699996,-23.697279099997],[-43.954406799996,-19.920974300004]]},"properties":[]},{"type":"Feature","geometry":{"type":"LineString","coordinates":[[-46.581889699996,-23.697279099997],[-49.287311599996,-25.435401100001]]},"properties":[]},{"type":"Feature","geometry":{"type":"LineString","coordinates":[[-46.581889699996,-23.697279099997],[-47.420244300003,-22.759426299996]]},"properties":[]},{"type":"Feature","geometry":{"type":"LineString","coordinates":[[-46.581889699996,-23.697279099997],[-46.645794200001,-23.568193399996]]},"properties":[]},{"type":"Feature","geometry":{"type":"LineString","coordinates":[[-46.581889699996,-23.697279099997],[-46.695889900002,-23.675526899996]]},"properties":[]},{"type":"Feature","geometry":{"type":"LineString","coordinates":[[-46.581889699996,-23.697279099997],[-46.693474500003,-23.5983919]]},"properties":[]},{"type":"Feature","geometry":{"type":"LineString","coordinates":[[-46.581889699996,-23.697279099997],[-46.693474500003,-23.5983919]]},"properties":[]},{"type":"Feature","geometry":{"type":"LineString","coordinates":[[-46.581889699996,-23.697279099997],[-46.693474500003,-23.5983919]]},"properties":[]},{"type":"Feature","geometry":{"type":"LineString","coordinates":[[-46.581889699996,-23.697279099997],[-46.691059200004,-23.599940999998]]},"properties":[]},{"type":"Feature","geometry":{"type":"LineString","coordinates":[[-46.581889699996,-23.697279099997],[-43.180770099996,-22.935121499999]]},"properties":[]},{"type":"Feature","geometry":{"type":"LineString","coordinates":[[-46.581889699996,-23.697279099997],[-46.685625300004,-23.586737200001]]},"properties":[]},{"type":"Feature","geometry":{"type":"LineString","coordinates":[[-46.581889699996,-23.697279099997],[-46.680795600001,-23.581491399999]]},"properties":[]},{"type":"Feature","geometry":{"type":"LineString","coordinates":[[-46.581889699996,-23.697279099997],[-46.864753399997,-23.491168300001]]},"properties":[]},{"type":"Feature","geometry":{"type":"LineString","coordinates":[[-46.581889699996,-23.697279099997],[-46.667516300002,-23.647216000001]]},"properties":[]},{"type":"Feature","geometry":{"type":"LineString","coordinates":[[-46.581889699996,-23.697279099997],[-47.547504600002,-22.341779900003]]},"properties":[]},{"type":"Feature","geometry":{"type":"LineString","coordinates":[[-46.581889699996,-23.697279099997],[-46.857987200002,-23.5022904]]},"properties":[]},{"type":"Feature","geometry":{"type":"LineString","coordinates":[[-46.581889699996,-23.697279099997],[-46.695889900002,-23.675526899996]]},"properties":[]},{"type":"Feature","geometry":{"type":"LineString","coordinates":[[-46.581889699996,-23.697279099997],[-46.686832800003,-23.593115000003]]},"properties":[]},{"type":"Feature","geometry":{"type":"LineString","coordinates":[[-46.581889699996,-23.697279099997],[-46.671633299996,-23.569716299998]]},"properties":[]},{"type":"Feature","geometry":{"type":"LineString","coordinates":[[-46.581889699996,-23.697279099997],[-46.693474500003,-23.5983919]]},"properties":[]},{"type":"Feature","geometry":{"type":"LineString","coordinates":[[-46.581889699996,-23.697279099997],[-47.813113600001,-21.184573500003]]},"properties":[]},{"type":"Feature","geometry":{"type":"LineString","coordinates":[[-46.581889699996,-23.697279099997],[-46.693474500003,-23.5983919]]},"properties":[]},{"type":"Feature","geometry":{"type":"LineString","coordinates":[[-46.581889699996,-23.697279099997],[-46.857987200002,-23.5022904]]},"properties":[]},{"type":"Feature","geometry":{"type":"LineString","coordinates":[[-46.581889699996,-23.697279099997],[-46.693474500003,-23.5983919]]},"properties":[]},{"type":"Feature","geometry":{"type":"LineString","coordinates":[[-46.581889699996,-23.697279099997],[-46.864753399997,-23.491168300001]]},"properties":[]},{"type":"Feature","geometry":{"type":"LineString","coordinates":[[-46.581889699996,-23.697279099997],[-46.693474500003,-23.5983919]]},"properties":[]},{"type":"Feature","geometry":{"type":"LineString","coordinates":[[-46.581889699996,-23.697279099997],[-43.185007300002,-22.972483100002]]},"properties":[]},{"type":"Feature","geometry":{"type":"LineString","coordinates":[[-46.581889699996,-23.697279099997],[-46.693474500003,-23.5983919]]},"properties":[]},{"type":"Feature","geometry":{"type":"LineString","coordinates":[[-46.581889699996,-23.697279099997],[-46.316304199997,-23.971315800003]]},"properties":[]},{"type":"Feature","geometry":{"type":"LineString","coordinates":[[-46.581889699996,-23.697279099997],[-43.224941299999,-22.924412800002]]},"properties":[]},{"type":"Feature","geometry":{"type":"LineString","coordinates":[[-46.581889699996,-23.697279099997],[-46.640968399999,-23.564140599997]]},"properties":[]},{"type":"Feature","geometry":{"type":"LineString","coordinates":[[-46.581889699996,-23.697279099997],[-43.185007300002,-22.972483100002]]},"properties":[]},{"type":"Feature","geometry":{"type":"LineString","coordinates":[[-46.581889699996,-23.697279099997],[-46.640968399999,-23.564140599997]]},"properties":[]},{"type":"Feature","geometry":{"type":"LineString","coordinates":[[-46.581889699996,-23.697279099997],[-46.693474500003,-23.5983919]]},"properties":[]},{"type":"Feature","geometry":{"type":"LineString","coordinates":[[-46.581889699996,-23.697279099997],[-43.316185900002,-23.013384099997]]},"properties":[]},{"type":"Feature","geometry":{"type":"LineString","coordinates":[[-46.581889699996,-23.697279099997],[-46.824678400002,-23.499824300001]]},"properties":[]},{"type":"Feature","geometry":{"type":"LineString","coordinates":[[-46.581889699996,-23.697279099997],[-46.693474500003,-23.5983919]]},"properties":[]},{"type":"Feature","geometry":{"type":"LineString","coordinates":[[-46.581889699996,-23.697279099997],[-46.693474500003,-23.5983919]]},"properties":[]},{"type":"Feature","geometry":{"type":"LineString","coordinates":[[-46.581889699996,-23.697279099997],[-46.823467599997,-23.497021100004]]},"properties":[]},{"type":"Feature","geometry":{"type":"LineString","coordinates":[[-46.581889699996,-23.697279099997],[-46.693474500003,-23.5983919]]},"properties":[]},{"type":"Feature","geometry":{"type":"LineString","coordinates":[[-46.581889699996,-23.697279099997],[-46.693474500003,-23.5983919]]},"properties":[]},{"type":"Feature","geometry":{"type":"LineString","coordinates":[[-46.581889699996,-23.697279099997],[-46.647000799996,-23.600782199999]]},"properties":[]},{"type":"Feature","geometry":{"type":"LineString","coordinates":[[-46.581889699996,-23.697279099997],[-46.824678400002,-23.499824300001]]},"properties":[]},{"type":"Feature","geometry":{"type":"LineString","coordinates":[[-46.581889699996,-23.697279099997],[-46.644587699998,-23.638074500001]]},"properties":[]},{"type":"Feature","geometry":{"type":"LineString","coordinates":[[-46.581889699996,-23.697279099997],[-46.639761999996,-23.573254599998]]},"properties":[]},{"type":"Feature","geometry":{"type":"LineString","coordinates":[[-46.581889699996,-23.697279099997],[-51.136978500004,-29.691623100001]]},"properties":[]},{"type":"Feature","geometry":{"type":"LineString","coordinates":[[-46.581889699996,-23.697279099997],[-51.136978500004,-29.691623100001]]},"properties":[]},{"type":"Feature","geometry":{"type":"LineString","coordinates":[[-46.581889699996,-23.697279099997],[-51.136978500004,-29.691623100001]]},"properties":[]},{"type":"Feature","geometry":{"type":"LineString","coordinates":[[-46.581889699996,-23.697279099997],[-43.9561946,-19.882231399998]]},"properties":[]},{"type":"Feature","geometry":{"type":"LineString","coordinates":[[-58.568839900002,-34.658769799997],[-58.568839900002,-34.658769799997]]},"properties":[]},{"type":"Feature","geometry":{"type":"LineString","coordinates":[[-58.568839900002,-34.658769799997],[-58.568839900002,-34.658769799997]]},"properties":[]},{"type":"Feature","geometry":{"type":"LineString","coordinates":[[-58.568839900002,-34.658769799997],[-58.564677699998,-34.662178599998]]},"properties":[]},{"type":"Feature","geometry":{"type":"LineString","coordinates":[[-58.568839900002,-34.658769799997],[-58.381593099999,-34.603723200003]]},"properties":[]},{"type":"Feature","geometry":{"type":"LineString","coordinates":[[-58.568839900002,-34.658769799997],[-58.381593099999,-34.603723200003]]},"properties":[]},{"type":"Feature","geometry":{"type":"LineString","coordinates":[[-58.568839900002,-34.658769799997],[-63.237557599997,-32.407384200003]]},"properties":[]},{"type":"Feature","geometry":{"type":"LineString","coordinates":[[-58.568839900002,-34.658769799997],[-63.237557599997,-32.407384200003]]},"properties":[]},{"type":"Feature","geometry":{"type":"LineString","coordinates":[[-58.568839900002,-34.658769799997],[-58.562893900004,-34.663479099999]]},"properties":[]},{"type":"Feature","geometry":{"type":"LineString","coordinates":[[-58.568839900002,-34.658769799997],[-58.568839900002,-34.658769799997]]},"properties":[]},{"type":"Feature","geometry":{"type":"LineString","coordinates":[[-58.568839900002,-34.658769799997],[-64.220984100001,-31.434967599998]]},"properties":[]},{"type":"Feature","geometry":{"type":"LineString","coordinates":[[-58.568839900002,-34.658769799997],[-58.564731300001,-34.662097900002]]},"properties":[]},{"type":"Feature","geometry":{"type":"LineString","coordinates":[[-58.568839900002,-34.658769799997],[-58.567559300001,-34.659712400004]]},"properties":[]},{"type":"Feature","geometry":{"type":"LineString","coordinates":[[-58.568839900002,-34.658769799997],[-58.564677699998,-34.662178599998]]},"properties":[]},{"type":"Feature","geometry":{"type":"LineString","coordinates":[[-58.568839900002,-34.658769799997],[-58.381593099999,-34.603723200003]]},"properties":[]},{"type":"Feature","geometry":{"type":"LineString","coordinates":[[-58.568839900002,-34.658769799997],[-58.381593099999,-34.603723200003]]},"properties":[]},{"type":"Feature","geometry":{"type":"LineString","coordinates":[[-58.568839900002,-34.658769799997],[-58.564677699998,-34.662178599998]]},"properties":[]},{"type":"Feature","geometry":{"type":"LineString","coordinates":[[-58.568839900002,-34.658769799997],[-58.381593099999,-34.603723200003]]},"properties":[]},{"type":"Feature","geometry":{"type":"LineString","coordinates":[[-58.568839900002,-34.658769799997],[-58.381593099999,-34.603723200003]]},"properties":[]},{"type":"Feature","geometry":{"type":"LineString","coordinates":[[-58.568839900002,-34.658769799997],[-58.381593099999,-34.603723200003]]},"properties":[]},{"type":"Feature","geometry":{"type":"LineString","coordinates":[[-58.568839900002,-34.658769799997],[-58.419076699998,-34.5828496]]},"properties":[]},{"type":"Feature","geometry":{"type":"LineString","coordinates":[[-58.568839900002,-34.658769799997],[-58.381593099999,-34.603723200003]]},"properties":[]},{"type":"Feature","geometry":{"type":"LineString","coordinates":[[-58.568839900002,-34.658769799997],[-56.175619000001,-34.9057062]]},"properties":[]},{"type":"Feature","geometry":{"type":"LineString","coordinates":[[-58.568839900002,-34.658769799997],[-56.175619000001,-34.9057062]]},"properties":[]},{"type":"Feature","geometry":{"type":"LineString","coordinates":[[-58.568839900002,-34.658769799997],[-54.949999999997,-34.966666699999]]},"properties":[]},{"type":"Feature","geometry":{"type":"LineString","coordinates":[[-58.568839900002,-34.658769799997],[-56.195161900004,-34.904517100002]]},"properties":[]},{"type":"Feature","geometry":{"type":"LineString","coordinates":[[-58.568839900002,-34.658769799997],[-56.195161900004,-34.904517100002]]},"properties":[]},{"type":"Feature","geometry":{"type":"LineString","coordinates":[[-58.568839900002,-34.658769799997],[-56.195161900004,-34.904517100002]]},"properties":[]},{"type":"Feature","geometry":{"type":"LineString","coordinates":[[-58.568839900002,-34.658769799997],[-56.195161900004,-34.904517100002]]},"properties":[]},{"type":"Feature","geometry":{"type":"LineString","coordinates":[[-58.568839900002,-34.658769799997],[-56.195161900004,-34.904517100002]]},"properties":[]},{"type":"Feature","geometry":{"type":"LineString","coordinates":[[-58.568839900002,-34.658769799997],[-56.175023099997,-34.835241799996]]},"properties":[]},{"type":"Feature","geometry":{"type":"LineString","coordinates":[[-58.568839900002,-34.658769799997],[-56.064024400003,-34.880319999999]]},"properties":[]},{"type":"Feature","geometry":{"type":"LineString","coordinates":[[-58.568839900002,-34.658769799997],[-57.959808500003,-31.388082499998]]},"properties":[]},{"type":"Feature","geometry":{"type":"LineString","coordinates":[[-58.568839900002,-34.658769799997],[-54.949999999997,-34.966666699999]]},"properties":[]},{"type":"Feature","geometry":{"type":"LineString","coordinates":[[-70.641997,-33.469119899999],[-70.5771176,-33.393454600002]]},"properties":[]},{"type":"Feature","geometry":{"type":"LineString","coordinates":[[-70.641997,-33.469119899999],[-70.764022600003,-33.503627599999]]},"properties":[]},{"type":"Feature","geometry":{"type":"LineString","coordinates":[[-70.641997,-33.469119899999],[-70.623621700002,-33.4309526]]},"properties":[]},{"type":"Feature","geometry":{"type":"LineString","coordinates":[[-70.641997,-33.469119899999],[-70.764022600003,-33.503627599999]]},"properties":[]},{"type":"Feature","geometry":{"type":"LineString","coordinates":[[-70.641997,-33.469119899999],[-70.532427200003,-33.382536599997]]},"properties":[]},{"type":"Feature","geometry":{"type":"LineString","coordinates":[[-70.641997,-33.469119899999],[-70.666047699998,-33.414156900001]]},"properties":[]},{"type":"Feature","geometry":{"type":"LineString","coordinates":[[-70.641997,-33.469119899999],[-70.666047699998,-33.414156900001]]},"properties":[]},{"type":"Feature","geometry":{"type":"LineString","coordinates":[[-70.641997,-33.469119899999],[-70.641997,-33.469119899999]]},"properties":[]},{"type":"Feature","geometry":{"type":"LineString","coordinates":[[-70.641997,-33.469119899999],[-70.641997,-33.469119899999]]},"properties":[]},{"type":"Feature","geometry":{"type":"LineString","coordinates":[[-70.641997,-33.469119899999],[-70.549999999996,-33.411666699999]]},"properties":[]},{"type":"Feature","geometry":{"type":"LineString","coordinates":[[-70.641997,-33.469119899999],[-70.764022600003,-33.503627599999]]},"properties":[]},{"type":"Feature","geometry":{"type":"LineString","coordinates":[[-70.641997,-33.469119899999],[-70.641997,-33.469119899999]]},"properties":[]},{"type":"Feature","geometry":{"type":"LineString","coordinates":[[-70.641997,-33.469119899999],[-70.758620400004,-33.503596000001]]},"properties":[]},{"type":"Feature","geometry":{"type":"LineString","coordinates":[[-70.641997,-33.469119899999],[-70.758620400004,-33.503596000001]]},"properties":[]},{"type":"Feature","geometry":{"type":"LineString","coordinates":[[-70.641997,-33.469119899999],[-70.758620400004,-33.503596000001]]},"properties":[]},{"type":"Feature","geometry":{"type":"LineString","coordinates":[[-70.641997,-33.469119899999],[-70.395019999997,-23.650388000001]]},"properties":[]},{"type":"Feature","geometry":{"type":"LineString","coordinates":[[-70.641997,-33.469119899999],[-70.758620400004,-33.503596000001]]},"properties":[]},{"type":"Feature","geometry":{"type":"LineString","coordinates":[[-70.641997,-33.469119899999],[-70.758620400004,-33.503596000001]]},"properties":[]},{"type":"Feature","geometry":{"type":"LineString","coordinates":[[-70.641997,-33.469119899999],[-70.758620400004,-33.503596000001]]},"properties":[]},{"type":"Feature","geometry":{"type":"LineString","coordinates":[[-70.641997,-33.469119899999],[-70.758620400004,-33.503596000001]]},"properties":[]},{"type":"Feature","geometry":{"type":"LineString","coordinates":[[-70.641997,-33.469119899999],[-70.758620400004,-33.503596000001]]},"properties":[]},{"type":"Feature","geometry":{"type":"LineString","coordinates":[[-70.641997,-33.469119899999],[-70.758620400004,-33.503596000001]]},"properties":[]},{"type":"Feature","geometry":{"type":"LineString","coordinates":[[-70.641997,-33.469119899999],[-70.758620400004,-33.503596000001]]},"properties":[]},{"type":"Feature","geometry":{"type":"LineString","coordinates":[[-70.641997,-33.469119899999],[-70.758620400004,-33.503596000001]]},"properties":[]},{"type":"Feature","geometry":{"type":"LineString","coordinates":[[-70.641997,-33.469119899999],[-70.758620400004,-33.503596000001]]},"properties":[]},{"type":"Feature","geometry":{"type":"LineString","coordinates":[[-70.641997,-33.469119899999],[-70.758620400004,-33.503596000001]]},"properties":[]},{"type":"Feature","geometry":{"type":"LineString","coordinates":[[-70.641997,-33.469119899999],[-70.395019999997,-23.650388000001]]},"properties":[]},{"type":"Feature","geometry":{"type":"LineString","coordinates":[[-70.641997,-33.469119899999],[-70.758620400004,-33.503596000001]]},"properties":[]},{"type":"Feature","geometry":{"type":"LineString","coordinates":[[-70.641997,-33.469119899999],[-70.758620400004,-33.503596000001]]},"properties":[]},{"type":"Feature","geometry":{"type":"LineString","coordinates":[[-70.641997,-33.469119899999],[-70.758620400004,-33.503596000001]]},"properties":[]},{"type":"Feature","geometry":{"type":"LineString","coordinates":[[-70.641997,-33.469119899999],[-70.641997,-33.469119899999]]},"properties":[]},{"type":"Feature","geometry":{"type":"LineString","coordinates":[[-70.641997,-33.469119899999],[-70.641997,-33.469119899999]]},"properties":[]},{"type":"Feature","geometry":{"type":"LineString","coordinates":[[-70.641997,-33.469119899999],[-70.641997,-33.469119899999]]},"properties":[]},{"type":"Feature","geometry":{"type":"LineString","coordinates":[[-70.641997,-33.469119899999],[-70.641997,-33.469119899999]]},"properties":[]},{"type":"Feature","geometry":{"type":"LineString","coordinates":[[-70.641997,-33.469119899999],[-70.641997,-33.469119899999]]},"properties":[]},{"type":"Feature","geometry":{"type":"LineString","coordinates":[[-70.641997,-33.469119899999],[-70.641997,-33.469119899999]]},"properties":[]},{"type":"Feature","geometry":{"type":"LineString","coordinates":[[-70.641997,-33.469119899999],[-70.641997,-33.469119899999]]},"properties":[]},{"type":"Feature","geometry":{"type":"LineString","coordinates":[[-70.641997,-33.469119899999],[-70.641997,-33.469119899999]]},"properties":[]},{"type":"Feature","geometry":{"type":"LineString","coordinates":[[-70.641997,-33.469119899999],[-70.641997,-33.469119899999]]},"properties":[]},{"type":"Feature","geometry":{"type":"LineString","coordinates":[[-70.641997,-33.469119899999],[-70.641997,-33.469119899999]]},"properties":[]},{"type":"Feature","geometry":{"type":"LineString","coordinates":[[-70.641997,-33.469119899999],[-70.641997,-33.469119899999]]},"properties":[]},{"type":"Feature","geometry":{"type":"LineString","coordinates":[[-70.641997,-33.469119899999],[-70.395019999997,-23.650388000001]]},"properties":[]},{"type":"Feature","geometry":{"type":"LineString","coordinates":[[-70.641997,-33.469119899999],[-70.641997,-33.469119899999]]},"properties":[]},{"type":"Feature","geometry":{"type":"LineString","coordinates":[[-70.641997,-33.469119899999],[-70.641997,-33.469119899999]]},"properties":[]},{"type":"Feature","geometry":{"type":"LineString","coordinates":[[-70.641997,-33.469119899999],[-70.641997,-33.469119899999]]},"properties":[]},{"type":"Feature","geometry":{"type":"LineString","coordinates":[[-70.641997,-33.469119899999],[-70.641997,-33.469119899999]]},"properties":[]},{"type":"Feature","geometry":{"type":"LineString","coordinates":[[-70.641997,-33.469119899999],[-70.641997,-33.469119899999]]},"properties":[]},{"type":"Feature","geometry":{"type":"LineString","coordinates":[[-70.641997,-33.469119899999],[-70.641997,-33.469119899999]]},"properties":[]},{"type":"Feature","geometry":{"type":"LineString","coordinates":[[-70.641997,-33.469119899999],[-70.758620400004,-33.503596000001]]},"properties":[]},{"type":"Feature","geometry":{"type":"LineString","coordinates":[[-70.641997,-33.469119899999],[-70.758620400004,-33.503596000001]]},"properties":[]},{"type":"Feature","geometry":{"type":"LineString","coordinates":[[-70.641997,-33.469119899999],[-70.641997,-33.469119899999]]},"properties":[]},{"type":"Feature","geometry":{"type":"LineString","coordinates":[[-70.641997,-33.469119899999],[-70.395019999997,-23.650388000001]]},"properties":[]},{"type":"Feature","geometry":{"type":"LineString","coordinates":[[-70.641997,-33.469119899999],[-70.641997,-33.469119899999]]},"properties":[]},{"type":"Feature","geometry":{"type":"LineString","coordinates":[[-70.641997,-33.469119899999],[-70.641997,-33.469119899999]]},"properties":[]},{"type":"Feature","geometry":{"type":"LineString","coordinates":[[-70.641997,-33.469119899999],[-70.641997,-33.469119899999]]},"properties":[]},{"type":"Feature","geometry":{"type":"LineString","coordinates":[[-70.641997,-33.469119899999],[-70.641997,-33.469119899999]]},"properties":[]},{"type":"Feature","geometry":{"type":"LineString","coordinates":[[-70.641997,-33.469119899999],[-70.641997,-33.469119899999]]},"properties":[]},{"type":"Feature","geometry":{"type":"LineString","coordinates":[[-70.641997,-33.469119899999],[-70.641997,-33.469119899999]]},"properties":[]},{"type":"Feature","geometry":{"type":"LineString","coordinates":[[-70.641997,-33.469119899999],[-70.641997,-33.469119899999]]},"properties":[]},{"type":"Feature","geometry":{"type":"LineString","coordinates":[[-70.641997,-33.469119899999],[-70.641997,-33.469119899999]]},"properties":[]},{"type":"Feature","geometry":{"type":"LineString","coordinates":[[-70.641997,-33.469119899999],[-70.641997,-33.469119899999]]},"properties":[]},{"type":"Feature","geometry":{"type":"LineString","coordinates":[[-70.641997,-33.469119899999],[-70.641997,-33.469119899999]]},"properties":[]},{"type":"Feature","geometry":{"type":"LineString","coordinates":[[-70.641997,-33.469119899999],[-70.641997,-33.469119899999]]},"properties":[]},{"type":"Feature","geometry":{"type":"LineString","coordinates":[[-70.641997,-33.469119899999],[-70.395019999997,-23.650388000001]]},"properties":[]},{"type":"Feature","geometry":{"type":"LineString","coordinates":[[-70.641997,-33.469119899999],[-70.395019999997,-23.650388000001]]},"properties":[]},{"type":"Feature","geometry":{"type":"LineString","coordinates":[[-70.641997,-33.469119899999],[-70.641997,-33.469119899999]]},"properties":[]},{"type":"Feature","geometry":{"type":"LineString","coordinates":[[-70.641997,-33.469119899999],[-70.395019999997,-23.650388000001]]},"properties":[]},{"type":"Feature","geometry":{"type":"LineString","coordinates":[[-70.641997,-33.469119899999],[-70.641997,-33.469119899999]]},"properties":[]},{"type":"Feature","geometry":{"type":"LineString","coordinates":[[-70.641997,-33.469119899999],[-70.641997,-33.469119899999]]},"properties":[]},{"type":"Feature","geometry":{"type":"LineString","coordinates":[[-70.641997,-33.469119899999],[-70.641997,-33.469119899999]]},"properties":[]},{"type":"Feature","geometry":{"type":"LineString","coordinates":[[-70.641997,-33.469119899999],[-70.395019999997,-23.650388000001]]},"properties":[]},{"type":"Feature","geometry":{"type":"LineString","coordinates":[[-70.641997,-33.469119899999],[-70.395019999997,-23.650388000001]]},"properties":[]},{"type":"Feature","geometry":{"type":"LineString","coordinates":[[-70.641997,-33.469119899999],[-70.641997,-33.469119899999]]},"properties":[]},{"type":"Feature","geometry":{"type":"LineString","coordinates":[[-70.641997,-33.469119899999],[-70.395019999997,-23.650388000001]]},"properties":[]},{"type":"Feature","geometry":{"type":"LineString","coordinates":[[-70.641997,-33.469119899999],[-70.395019999997,-23.650388000001]]},"properties":[]},{"type":"Feature","geometry":{"type":"LineString","coordinates":[[-70.641997,-33.469119899999],[-70.641997,-33.469119899999]]},"properties":[]},{"type":"Feature","geometry":{"type":"LineString","coordinates":[[-70.641997,-33.469119899999],[-70.641997,-33.469119899999]]},"properties":[]},{"type":"Feature","geometry":{"type":"LineString","coordinates":[[-70.641997,-33.469119899999],[-70.395019999997,-23.650388000001]]},"properties":[]},{"type":"Feature","geometry":{"type":"LineString","coordinates":[[-70.641997,-33.469119899999],[-70.641997,-33.469119899999]]},"properties":[]},{"type":"Feature","geometry":{"type":"LineString","coordinates":[[-70.641997,-33.469119899999],[-70.641997,-33.469119899999]]},"properties":[]},{"type":"Feature","geometry":{"type":"LineString","coordinates":[[-70.641997,-33.469119899999],[-70.641997,-33.469119899999]]},"properties":[]},{"type":"Feature","geometry":{"type":"LineString","coordinates":[[-70.641997,-33.469119899999],[-70.641997,-33.469119899999]]},"properties":[]},{"type":"Feature","geometry":{"type":"LineString","coordinates":[[-70.641997,-33.469119899999],[-70.641997,-33.469119899999]]},"properties":[]},{"type":"Feature","geometry":{"type":"LineString","coordinates":[[-70.641997,-33.469119899999],[-70.641997,-33.469119899999]]},"properties":[]},{"type":"Feature","geometry":{"type":"LineString","coordinates":[[-70.641997,-33.469119899999],[-70.641997,-33.469119899999]]},"properties":[]},{"type":"Feature","geometry":{"type":"LineString","coordinates":[[-70.641997,-33.469119899999],[-70.641997,-33.469119899999]]},"properties":[]},{"type":"Feature","geometry":{"type":"LineString","coordinates":[[-70.641997,-33.469119899999],[-70.641997,-33.469119899999]]},"properties":[]},{"type":"Feature","geometry":{"type":"LineString","coordinates":[[-70.641997,-33.469119899999],[-70.641997,-33.469119899999]]},"properties":[]},{"type":"Feature","geometry":{"type":"LineString","coordinates":[[-70.641997,-33.469119899999],[-70.641997,-33.469119899999]]},"properties":[]},{"type":"Feature","geometry":{"type":"LineString","coordinates":[[-70.641997,-33.469119899999],[-70.641997,-33.469119899999]]},"properties":[]},{"type":"Feature","geometry":{"type":"LineString","coordinates":[[-70.641997,-33.469119899999],[-70.641997,-33.469119899999]]},"properties":[]},{"type":"Feature","geometry":{"type":"LineString","coordinates":[[-70.641997,-33.469119899999],[-70.641997,-33.469119899999]]},"properties":[]},{"type":"Feature","geometry":{"type":"LineString","coordinates":[[-70.641997,-33.469119899999],[-70.641997,-33.469119899999]]},"properties":[]},{"type":"Feature","geometry":{"type":"LineString","coordinates":[[-70.641997,-33.469119899999],[-70.641997,-33.469119899999]]},"properties":[]},{"type":"Feature","geometry":{"type":"LineString","coordinates":[[-70.641997,-33.469119899999],[-70.395019999997,-23.650388000001]]},"properties":[]},{"type":"Feature","geometry":{"type":"LineString","coordinates":[[-70.641997,-33.469119899999],[-70.395019999997,-23.650388000001]]},"properties":[]},{"type":"Feature","geometry":{"type":"LineString","coordinates":[[-70.641997,-33.469119899999],[-70.764022600003,-33.503627599999]]},"properties":[]},{"type":"Feature","geometry":{"type":"LineString","coordinates":[[-70.641997,-33.469119899999],[-70.532427200003,-33.382536599997]]},"properties":[]},{"type":"Feature","geometry":{"type":"LineString","coordinates":[[-70.641997,-33.469119899999],[-70.561711600002,-33.535776600001]]},"properties":[]},{"type":"Feature","geometry":{"type":"LineString","coordinates":[[-70.641997,-33.469119899999],[-70.764022600003,-33.503627599999]]},"properties":[]},{"type":"Feature","geometry":{"type":"LineString","coordinates":[[-70.641997,-33.469119899999],[-70.764022600003,-33.503627599999]]},"properties":[]},{"type":"Feature","geometry":{"type":"LineString","coordinates":[[-70.641997,-33.469119899999],[-70.764022600003,-33.503627599999]]},"properties":[]},{"type":"Feature","geometry":{"type":"LineString","coordinates":[[-70.641997,-33.469119899999],[-70.764022600003,-33.503627599999]]},"properties":[]},{"type":"Feature","geometry":{"type":"LineString","coordinates":[[-70.641997,-33.469119899999],[-70.623621700002,-33.4309526]]},"properties":[]},{"type":"Feature","geometry":{"type":"LineString","coordinates":[[-70.641997,-33.469119899999],[-70.623621700002,-33.4309526]]},"properties":[]},{"type":"Feature","geometry":{"type":"LineString","coordinates":[[-70.641997,-33.469119899999],[-70.641997,-33.469119899999]]},"properties":[]},{"type":"Feature","geometry":{"type":"LineString","coordinates":[[-70.641997,-33.469119899999],[-70.532427200003,-33.382536599997]]},"properties":[]},{"type":"Feature","geometry":{"type":"LineString","coordinates":[[-70.641997,-33.469119899999],[-70.764022600003,-33.503627599999]]},"properties":[]},{"type":"Feature","geometry":{"type":"LineString","coordinates":[[-70.641997,-33.469119899999],[-70.641997,-33.469119899999]]},"properties":[]},{"type":"Feature","geometry":{"type":"LineString","coordinates":[[-70.641997,-33.469119899999],[-70.764022600003,-33.503627599999]]},"properties":[]},{"type":"Feature","geometry":{"type":"LineString","coordinates":[[-70.641997,-33.469119899999],[-70.641997,-33.469119899999]]},"properties":[]},{"type":"Feature","geometry":{"type":"LineString","coordinates":[[-70.641997,-33.469119899999],[-70.532427200003,-33.382536599997]]},"properties":[]},{"type":"Feature","geometry":{"type":"LineString","coordinates":[[-70.641997,-33.469119899999],[-70.549999999996,-33.411666699999]]},"properties":[]},{"type":"Feature","geometry":{"type":"LineString","coordinates":[[-70.641997,-33.469119899999],[-70.641997,-33.469119899999]]},"properties":[]},{"type":"Feature","geometry":{"type":"LineString","coordinates":[[-70.641997,-33.469119899999],[-70.601476000004,-33.4182488]]},"properties":[]},{"type":"Feature","geometry":{"type":"LineString","coordinates":[[-70.641997,-33.469119899999],[-70.601476000004,-33.4182488]]},"properties":[]},{"type":"Feature","geometry":{"type":"LineString","coordinates":[[-70.641997,-33.469119899999],[-70.601476000004,-33.4182488]]},"properties":[]},{"type":"Feature","geometry":{"type":"LineString","coordinates":[[-70.641997,-33.469119899999],[-70.601476000004,-33.4182488]]},"properties":[]},{"type":"Feature","geometry":{"type":"LineString","coordinates":[[-70.641997,-33.469119899999],[-70.641997,-33.469119899999]]},"properties":[]},{"type":"Feature","geometry":{"type":"LineString","coordinates":[[-70.641997,-33.469119899999],[-70.601476000004,-33.4182488]]},"properties":[]},{"type":"Feature","geometry":{"type":"LineString","coordinates":[[-70.641997,-33.469119899999],[-70.532427200003,-33.382536599997]]},"properties":[]},{"type":"Feature","geometry":{"type":"LineString","coordinates":[[-70.641997,-33.469119899999],[-70.764022600003,-33.503627599999]]},"properties":[]},{"type":"Feature","geometry":{"type":"LineString","coordinates":[[-74.075833299996,4.5980556000042],[-74.075833299996,4.5980556000042]]},"properties":[]},{"type":"Feature","geometry":{"type":"LineString","coordinates":[[-74.075833299996,4.5980556000042],[-74.075833299996,4.5980556000042]]},"properties":[]},{"type":"Feature","geometry":{"type":"LineString","coordinates":[[-74.075833299996,4.5980556000042],[-72.500740000004,7.9027499999996]]},"properties":[]},{"type":"Feature","geometry":{"type":"LineString","coordinates":[[-74.075833299996,4.5980556000042],[-75.527100000003,10.428939999999]]},"properties":[]},{"type":"Feature","geometry":{"type":"LineString","coordinates":[[-74.075833299996,4.5980556000042],[-74.138359999996,4.6225800000015]]},"properties":[]},{"type":"Feature","geometry":{"type":"LineString","coordinates":[[-74.075833299996,4.5980556000042],[-74.138359999996,4.6225800000015]]},"properties":[]},{"type":"Feature","geometry":{"type":"LineString","coordinates":[[-74.075833299996,4.5980556000042],[-74.105640299996,4.6161071999971]]},"properties":[]},{"type":"Feature","geometry":{"type":"LineString","coordinates":[[-74.075833299996,4.5980556000042],[-74.075833299996,4.5980556000042]]},"properties":[]},{"type":"Feature","geometry":{"type":"LineString","coordinates":[[-74.075833299996,4.5980556000042],[-74.156109499998,4.4444477999962]]},"properties":[]},{"type":"Feature","geometry":{"type":"LineString","coordinates":[[-74.075833299996,4.5980556000042],[-74.135899899999,4.7135816000037]]},"properties":[]},{"type":"Feature","geometry":{"type":"LineString","coordinates":[[-74.075833299996,4.5980556000042],[-72.500740000004,7.9027499999996]]},"properties":[]},{"type":"Feature","geometry":{"type":"LineString","coordinates":[[-74.075833299996,4.5980556000042],[-74.075833299996,4.5980556000042]]},"properties":[]},{"type":"Feature","geometry":{"type":"LineString","coordinates":[[-74.075833299996,4.5980556000042],[-72.504783000002,7.8945229999976]]},"properties":[]},{"type":"Feature","geometry":{"type":"LineString","coordinates":[[-74.075833299996,4.5980556000042],[-74.075833299996,4.5980556000042]]},"properties":[]},{"type":"Feature","geometry":{"type":"LineString","coordinates":[[-74.075833299996,4.5980556000042],[-74.075833299996,4.5980556000042]]},"properties":[]},{"type":"Feature","geometry":{"type":"LineString","coordinates":[[-74.075833299996,4.5980556000042],[-74.075833299996,4.5980556000042]]},"properties":[]},{"type":"Feature","geometry":{"type":"LineString","coordinates":[[-74.075833299996,4.5980556000042],[-76.522222200002,3.4205556000013]]},"properties":[]},{"type":"Feature","geometry":{"type":"LineString","coordinates":[[-74.075833299996,4.5980556000042],[-74.076029999998,4.5981000000031]]},"properties":[]},{"type":"Feature","geometry":{"type":"LineString","coordinates":[[-74.075833299996,4.5980556000042],[-74.075833299996,4.5980556000042]]},"properties":[]},{"type":"Feature","geometry":{"type":"LineString","coordinates":[[-74.075833299996,4.5980556000042],[-74.075833299996,4.5980556000042]]},"properties":[]},{"type":"Feature","geometry":{"type":"LineString","coordinates":[[-74.075833299996,4.5980556000042],[-74.075833299996,4.5980556000042]]},"properties":[]},{"type":"Feature","geometry":{"type":"LineString","coordinates":[[-74.075833299996,4.5980556000042],[-74.075833299996,4.5980556000042]]},"properties":[]},{"type":"Feature","geometry":{"type":"LineString","coordinates":[[-74.075833299996,4.5980556000042],[-74.075833299996,4.5980556000042]]},"properties":[]},{"type":"Feature","geometry":{"type":"LineString","coordinates":[[-74.075833299996,4.5980556000042],[-72.497002300002,7.9086249000031]]},"properties":[]},{"type":"Feature","geometry":{"type":"LineString","coordinates":[[-74.075833299996,4.5980556000042],[-74.076029999998,4.5981000000031]]},"properties":[]},{"type":"Feature","geometry":{"type":"LineString","coordinates":[[-74.075833299996,4.5980556000042],[0,0]]},"properties":[]},{"type":"Feature","geometry":{"type":"LineString","coordinates":[[-74.075833299996,4.5980556000042],[-67.1121633,-17.956677499998]]},"properties":[]},{"type":"Feature","geometry":{"type":"LineString","coordinates":[[-74.075833299996,4.5980556000042],[-62.999999999998,-17.866666699997]]},"properties":[]},{"type":"Feature","geometry":{"type":"LineString","coordinates":[[-74.075833299996,4.5980556000042],[-67.1121633,-17.956677499998]]},"properties":[]},{"type":"Feature","geometry":{"type":"LineString","coordinates":[[-74.075833299996,4.5980556000042],[-57.7090512,-25.2981017]]},"properties":[]},{"type":"Feature","geometry":{"type":"LineString","coordinates":[[-74.075833299996,4.5980556000042],[-57.560406500001,-25.333177]]},"properties":[]},{"type":"Feature","geometry":{"type":"LineString","coordinates":[[-74.075833299996,4.5980556000042],[-69.258397199997,18.762109600004]]},"properties":[]},{"type":"Feature","geometry":{"type":"LineString","coordinates":[[-74.075833299996,4.5980556000042],[-66.067170899998,18.440214300001]]},"properties":[]},{"type":"Feature","geometry":{"type":"LineString","coordinates":[[-74.075833299996,4.5980556000042],[-66.067170899998,18.395812600001]]},"properties":[]},{"type":"Feature","geometry":{"type":"LineString","coordinates":[[-74.075833299996,4.5980556000042],[-66.816956699998,10.403023700002]]},"properties":[]},{"type":"Feature","geometry":{"type":"LineString","coordinates":[[-74.075833299996,4.5980556000042],[-68.000535800002,10.190096100003]]},"properties":[]},{"type":"Feature","geometry":{"type":"LineString","coordinates":[[-74.075833299996,4.5980556000042],[-78.5494552,-0.26064060000109]]},"properties":[]},{"type":"Feature","geometry":{"type":"LineString","coordinates":[[-74.075833299996,4.5980556000042],[-78.5494552,-0.26064060000109]]},"properties":[]},{"type":"Feature","geometry":{"type":"LineString","coordinates":[[-74.075833299996,4.5980556000042],[-78.5494552,-0.26064060000109]]},"properties":[]},{"type":"Feature","geometry":{"type":"LineString","coordinates":[[-74.075833299996,4.5980556000042],[-79.897453000004,-2.2038160000041]]},"properties":[]},{"type":"Feature","geometry":{"type":"LineString","coordinates":[[-74.075833299996,4.5980556000042],[-79.897453000004,-2.2038160000041]]},"properties":[]},{"type":"Feature","geometry":{"type":"LineString","coordinates":[[-74.075833299996,4.5980556000042],[-79.897453000004,-2.2038160000041]]},"properties":[]},{"type":"Feature","geometry":{"type":"LineString","coordinates":[[-74.075833299996,4.5980556000042],[-79.897453000004,-2.2038160000041]]},"properties":[]},{"type":"Feature","geometry":{"type":"LineString","coordinates":[[-74.075833299996,4.5980556000042],[-79.897453000004,-2.2038160000041]]},"properties":[]},{"type":"Feature","geometry":{"type":"LineString","coordinates":[[-74.075833299996,4.5980556000042],[-79.897453000004,-2.2038160000041]]},"properties":[]},{"type":"Feature","geometry":{"type":"LineString","coordinates":[[-84.082012000001,9.9271279999987],[-84.082012000001,9.9271279999987]]},"properties":[]},{"type":"Feature","geometry":{"type":"LineString","coordinates":[[-84.082012000001,9.9271279999987],[-84.101562500003,9.9164237000031]]},"properties":[]},{"type":"Feature","geometry":{"type":"LineString","coordinates":[[-84.082012000001,9.9271279999987],[-84.101562500003,9.9164237000031]]},"properties":[]},{"type":"Feature","geometry":{"type":"LineString","coordinates":[[-84.082012000001,9.9271279999987],[-84.082012000001,9.9271279999987]]},"properties":[]},{"type":"Feature","geometry":{"type":"LineString","coordinates":[[-84.082012000001,9.9271279999987],[-84.108206000002,9.9620665999991]]},"properties":[]},{"type":"Feature","geometry":{"type":"LineString","coordinates":[[-84.082012000001,9.9271279999987],[-56.702935300001,-34.325549]]},"properties":[]},{"type":"Feature","geometry":{"type":"LineString","coordinates":[[-84.082012000001,9.9271279999987],[-84.101562500003,9.9164237000031]]},"properties":[]},{"type":"Feature","geometry":{"type":"LineString","coordinates":[[-84.082012000001,9.9271279999987],[-56.702935300001,-34.325549]]},"properties":[]},{"type":"Feature","geometry":{"type":"LineString","coordinates":[[-84.082012000001,9.9271279999987],[-84.8106903,9.9811960000042]]},"properties":[]},{"type":"Feature","geometry":{"type":"LineString","coordinates":[[-84.082012000001,9.9271279999987],[-84.101562500003,9.9164237000031]]},"properties":[]},{"type":"Feature","geometry":{"type":"LineString","coordinates":[[-84.082012000001,9.9271279999987],[-84.108206000002,9.9620665999991]]},"properties":[]},{"type":"Feature","geometry":{"type":"LineString","coordinates":[[-84.082012000001,9.9271279999987],[-56.702935300001,-34.325549]]},"properties":[]},{"type":"Feature","geometry":{"type":"LineString","coordinates":[[-84.082012000001,9.9271279999987],[-84.096170599998,9.9965072999986]]},"properties":[]},{"type":"Feature","geometry":{"type":"LineString","coordinates":[[-84.082012000001,9.9271279999987],[-56.702935300001,-34.325549]]},"properties":[]},{"type":"Feature","geometry":{"type":"LineString","coordinates":[[-84.082012000001,9.9271279999987],[-84.082012000001,9.9271279999987]]},"properties":[]},{"type":"Feature","geometry":{"type":"LineString","coordinates":[[-90.527463000001,14.583263000001],[-90.527463000001,14.583263000001]]},"properties":[]},{"type":"Feature","geometry":{"type":"LineString","coordinates":[[-90.527463000001,14.583263000001],[-90.527463000001,14.583263000001]]},"properties":[]},{"type":"Feature","geometry":{"type":"LineString","coordinates":[[-90.527463000001,14.583263000001],[-90.553811399999,14.604067000003]]},"properties":[]},{"type":"Feature","geometry":{"type":"LineString","coordinates":[[-90.527463000001,14.583263000001],[-90.587500000003,14.526944400002]]},"properties":[]},{"type":"Feature","geometry":{"type":"LineString","coordinates":[[-90.527463000001,14.583263000001],[-86.251388900004,12.136388900003]]},"properties":[]},{"type":"Feature","geometry":{"type":"LineString","coordinates":[[-90.527463000001,14.583263000001],[-88.027740000003,15.501669999998]]},"properties":[]},{"type":"Feature","geometry":{"type":"LineString","coordinates":[[-90.527463000001,14.583263000001],[-88.027740000003,15.501669999998]]},"properties":[]},{"type":"Feature","geometry":{"type":"LineString","coordinates":[[-90.527463000001,14.583263000001],[-88.027740000003,15.501669999998]]},"properties":[]},{"type":"Feature","geometry":{"type":"LineString","coordinates":[[-90.527463000001,14.583263000001],[-87.216700000003,14.083299999999]]},"properties":[]},{"type":"Feature","geometry":{"type":"LineString","coordinates":[[-90.527463000001,14.583263000001],[-87.216700000003,14.083299999999]]},"properties":[]},{"type":"Feature","geometry":{"type":"LineString","coordinates":[[-79.518791999998,8.9942689000002],[-79.387346499998,9.0670033000026]]},"properties":[]},{"type":"Feature","geometry":{"type":"LineString","coordinates":[[-79.518791999998,8.9942689000002],[-79.518791999998,8.9942689000002]]},"properties":[]},{"type":"Feature","geometry":{"type":"LineString","coordinates":[[-79.518791999998,8.9942689000002],[-79.518791999998,8.9942689000002]]},"properties":[]},{"type":"Feature","geometry":{"type":"LineString","coordinates":[[-79.518791999998,8.9942689000002],[-79.518791999998,8.9942689000002]]},"properties":[]},{"type":"Feature","geometry":{"type":"LineString","coordinates":[[-77.0622028,-12.047815800001],[-76.9257945,-12.003130899998]]},"properties":[]},{"type":"Feature","geometry":{"type":"LineString","coordinates":[[-77.0622028,-12.047815800001],[-76.928999099998,-12.084950299997]]},"properties":[]},{"type":"Feature","geometry":{"type":"LineString","coordinates":[[-77.0622028,-12.047815800001],[-76.887257799999,-12.029878199998]]},"properties":[]},{"type":"Feature","geometry":{"type":"LineString","coordinates":[[-77.0622028,-12.047815800001],[-77.0622028,-12.047815800001]]},"properties":[]},{"type":"Feature","geometry":{"type":"LineString","coordinates":[[-77.0622028,-12.047815800001],[-76.972727799998,-12.102846999998]]},"properties":[]},{"type":"Feature","geometry":{"type":"LineString","coordinates":[[-77.0622028,-12.047815800001],[-76.887257799999,-12.029878199998]]},"properties":[]},{"type":"Feature","geometry":{"type":"LineString","coordinates":[[-77.0622028,-12.047815800001],[-76.887257799999,-12.029878199998]]},"properties":[]},{"type":"Feature","geometry":{"type":"LineString","coordinates":[[-77.0622028,-12.047815800001],[-76.887257799999,-12.029878199998]]},"properties":[]},{"type":"Feature","geometry":{"type":"LineString","coordinates":[[-77.0622028,-12.047815800001],[-77.0622028,-12.047815800001]]},"properties":[]},{"type":"Feature","geometry":{"type":"LineString","coordinates":[[-77.0622028,-12.047815800001],[-76.9257945,-12.003130899998]]},"properties":[]},{"type":"Feature","geometry":{"type":"LineString","coordinates":[[-77.0622028,-12.047815800001],[-77.015023800001,-12.106521500002]]},"properties":[]},{"type":"Feature","geometry":{"type":"LineString","coordinates":[[-77.0622028,-12.047815800001],[-76.928999099998,-12.084950299997]]},"properties":[]},{"type":"Feature","geometry":{"type":"LineString","coordinates":[[-77.0622028,-12.047815800001],[-77.0622028,-12.047815800001]]},"properties":[]},{"type":"Feature","geometry":{"type":"LineString","coordinates":[[-77.0622028,-12.047815800001],[-76.887257799999,-12.029878199998]]},"properties":[]},{"type":"Feature","geometry":{"type":"LineString","coordinates":[[-77.0622028,-12.047815800001],[-76.972727799998,-12.102846999998]]},"properties":[]},{"type":"Feature","geometry":{"type":"LineString","coordinates":[[-77.0622028,-12.047815800001],[-77.0622028,-12.047815800001]]},"properties":[]},{"type":"Feature","geometry":{"type":"LineString","coordinates":[[-77.0622028,-12.047815800001],[-76.972727799998,-12.102846999998]]},"properties":[]},{"type":"Feature","geometry":{"type":"LineString","coordinates":[[-77.0622028,-12.047815800001],[-77.0622028,-12.047815800001]]},"properties":[]},{"type":"Feature","geometry":{"type":"LineString","coordinates":[[-77.0622028,-12.047815800001],[-76.928999099998,-12.084950299997]]},"properties":[]},{"type":"Feature","geometry":{"type":"LineString","coordinates":[[-77.0622028,-12.047815800001],[-76.972727799998,-12.102846999998]]},"properties":[]},{"type":"Feature","geometry":{"type":"LineString","coordinates":[[-77.0622028,-12.047815800001],[-76.9257945,-12.003130899998]]},"properties":[]},{"type":"Feature","geometry":{"type":"LineString","coordinates":[[-77.0622028,-12.047815800001],[-77.0622028,-12.047815800001]]},"properties":[]},{"type":"Feature","geometry":{"type":"LineString","coordinates":[[-77.0622028,-12.047815800001],[-76.723977300003,-11.563868099999]]},"properties":[]}],"properties":{"tags":"","description":"","title":"LatAm Distribution"}}