{"type":"FeatureCollection","features":[{"type":"Feature","geometry":{"type":"Point","coordinates":[-61.326853491463,-4.4420384993829]},"properties":{"description":"","address":"Latin America","title":"Suppliers of coffeebean"}},{"type":"Feature","geometry":{"type":"Point","coordinates":[102.7099379857,25.045349996736]},"properties":{"supplychain_instance_id":"supplychain-1","stop_instance_id":"stop-33","description":"","address":"Yunnan, China","title":"Suppliers of coffeebean"}},{"type":"Feature","geometry":{"type":"Point","coordinates":[-122.34205668297,47.610135894906]},"properties":{"supplychain_instance_id":"supplychain-1","stop_instance_id":"stop-8","description":"","address":"Pike Place Market, Seattle, WA, USA","title":"Origin"}},{"type":"Feature","geometry":{"type":"Point","coordinates":[-122.33207078297,47.606209494906]},"properties":{"youtube:link":"","water":"0","energy":"0","co2e":"0","weight":"0","supplychain_instance_id":"supplychain-1","stop_instance_id":"stop-1","description":"headquaters ","address":"Seattle, WA, USA","title":"Headquarters"}},{"type":"Feature","geometry":{"type":"Point","coordinates":[-86.241904987995,15.199998997934]},"properties":{"title":"supplier of coffeebean","address":"Honduras","description":"","stop_instance_id":"stop-9","supplychain_instance_id":"supplychain-1","weight":"0","co2e":"0","energy":"0","water":"0","youtube:link":""}},{"type":"Feature","geometry":{"type":"Point","coordinates":[-85.207228988139,12.865415998239]},"properties":{"title":"Nicaragua","address":"Nicaragua","description":"","stop_instance_id":"stop-40","supplychain_instance_id":"supplychain-1","weight":"0","co2e":"0","energy":"0","water":"0","youtube:link":""}},{"type":"Feature","geometry":{"type":"Point","coordinates":[-83.753427988342,9.7489169986561]},"properties":{"title":"costa rica","address":"Costa Rica","description":"supplier of coffee bean","stop_instance_id":"stop-53","supplychain_instance_id":"supplychain-1","weight":"0","co2e":"0","energy":"0","water":"0","youtube:link":""}},{"type":"Feature","geometry":{"type":"Point","coordinates":[-88.896529987625,13.794184998117]},"properties":{"title":"supplier of coffeebean","address":"El Salvador","description":"","stop_instance_id":"stop-110","supplychain_instance_id":"supplychain-1"}},{"type":"Feature","geometry":{"type":"Point","coordinates":[-80.782126988755,8.5379809988203]},"properties":{"title":"supplier of coffeebean","address":"Panama","description":"","stop_instance_id":"stop-127","supplychain_instance_id":"supplychain-1"}},{"type":"Feature","geometry":{"type":"Point","coordinates":[-90.230758987436,15.783470997858]},"properties":{"title":"supplier of coffeebean","address":"Guatemala","description":"","stop_instance_id":"stop-146","supplychain_instance_id":"supplychain-1"}},{"type":"Feature","geometry":{"type":"Point","coordinates":[-102.55278398572,23.634500996897]},"properties":{"title":"supplier of coffeebean","address":"Mexico","description":"","stop_instance_id":"stop-167","supplychain_instance_id":"supplychain-1"}},{"type":"Feature","geometry":{"type":"Point","coordinates":[-55.491476992276,-8.7831949987869]},"properties":{"title":"supplier of coffeebean","address":"South America","description":"","stop_instance_id":"stop-190","supplychain_instance_id":"supplychain-1"}},{"type":"Feature","geometry":{"type":"Point","coordinates":[-5.5470799992279,7.5399889989565]},"properties":{"title":"cocoa harvestation","address":"C\u00f4te d'Ivoire","description":"","stop_instance_id":"stop-215","supplychain_instance_id":"supplychain-1"}},{"type":"Feature","geometry":{"type":"Point","coordinates":[40.489672994363,9.1449999987374]},"properties":{"title":"cocoa","address":"Ethiopia","description":"","stop_instance_id":"stop-242","supplychain_instance_id":"supplychain-1"}},{"type":"Feature","geometry":{"type":"Point","coordinates":[-122.67620708292,45.523451495003]},"properties":{"title":"Tea leaves","address":"Portland, OR, USA","description":"","stop_instance_id":"stop-271","supplychain_instance_id":"supplychain-1"}},{"type":"Feature","geometry":{"type":"Point","coordinates":[-87.528948387816,38.033619295485]},"properties":{"title":"starbucks coffee lid","address":"Berry Plastics Boulevard, Evansville, IN 47725, USA","description":"","stop_instance_id":"stop-302","supplychain_instance_id":"supplychain-1"}},{"type":"Feature","geometry":{"type":"Point","coordinates":[-122.67620708292,45.523451495003]},"properties":{"title":"coffee sleeve","address":"Portland, OR, USA","description":"","stop_instance_id":"stop-335","supplychain_instance_id":"supplychain-1"}}],"properties":{"sm:ui:tileset":"satellite","title":"Starbucks products of origin","description":"Find out what made out of starbucks and its country of origin","tags":"starbucks"}}