{"type":"FeatureCollection","features":[{"type":"Feature","geometry":{"type":"Point","coordinates":[5.2912659992635,52.132632994762]},"properties":{"description":"","address":"The Netherlands","title":"Netherlands"}},{"type":"Feature","geometry":{"type":"Point","coordinates":[-102.55278398572,23.634500996897]},"properties":{"supplychain_instance_id":"supplychain-1","stop_instance_id":"stop-169","description":"","address":"Mexico","title":"Mexico"}},{"type":"Feature","geometry":{"type":"Point","coordinates":[120.96051498316,23.697809996889]},"properties":{"supplychain_instance_id":"supplychain-1","stop_instance_id":"stop-144","description":"","address":"Taiwan","title":"Taiwan"}},{"type":"Feature","geometry":{"type":"Point","coordinates":[12.56737999825,41.871939995212]},"properties":{"supplychain_instance_id":"supplychain-1","stop_instance_id":"stop-121","description":"","address":"Italy","title":"Italy"}},{"type":"Feature","geometry":{"type":"Point","coordinates":[127.76692198221,35.907756995657]},"properties":{"supplychain_instance_id":"supplychain-1","stop_instance_id":"stop-100","description":"","address":"South Korea","title":"Korea"}},{"type":"Feature","geometry":{"type":"Point","coordinates":[138.25292398076,36.204823995632]},"properties":{"supplychain_instance_id":"supplychain-1","stop_instance_id":"stop-81","description":"","address":"Japan","title":"Japan"}},{"type":"Feature","geometry":{"type":"Point","coordinates":[-51.925279992772,-14.235003998059]},"properties":{"supplychain_instance_id":"supplychain-1","stop_instance_id":"stop-64","description":"","address":"Brazil","title":"Brazil"}},{"type":"Feature","geometry":{"type":"Point","coordinates":[108.27719898493,14.058323998082]},"properties":{"supplychain_instance_id":"supplychain-1","stop_instance_id":"stop-49","description":"","address":"Vietnam","title":"Vietnam"}},{"type":"Feature","geometry":{"type":"Point","coordinates":[106.88594368512,-6.355056599119]},"properties":{"supplychain_instance_id":"supplychain-1","stop_instance_id":"stop-25","description":"","address":"Indonesia","title":"Indonesia"}},{"type":"Feature","geometry":{"type":"Point","coordinates":[78.962879989009,20.593683997257]},"properties":{"supplychain_instance_id":"supplychain-1","stop_instance_id":"stop-16","description":"","address":"India","title":"India"}},{"type":"Feature","geometry":{"type":"Point","coordinates":[104.19539698549,35.861659995661]},"properties":{"supplychain_instance_id":"supplychain-1","stop_instance_id":"stop-9","description":"","address":"China","title":"China"}},{"type":"Feature","geometry":{"type":"Point","coordinates":[-120.55420118322,43.804133395095]},"properties":{"supplychain_instance_id":"supplychain-1","stop_instance_id":"stop-4","description":"","address":"Oregon, USA","title":"Oregon"}},{"type":"Feature","geometry":{"type":"Point","coordinates":[-63.616671991144,-38.416096995455]},"properties":{"supplychain_instance_id":"supplychain-1","stop_instance_id":"stop-1","description":"","address":"Argentina","title":"Argentina"}}],"properties":{"title":"ASDFGHJKL","description":"","tags":""}}