{"type":"FeatureCollection","features":[{"type":"Feature","geometry":{"type":"Point","coordinates":[-7.0926199990127,31.791701996029]},"properties":{"supplychain_instance_id":"supplychain-1","stop_instance_id":"stop-3142","description":"","address":"Morocco","title":"Morroco"}},{"type":"Feature","geometry":{"type":"Point","coordinates":[-3.7492199994781,40.463666995306]},"properties":{"supplychain_instance_id":"supplychain-1","stop_instance_id":"stop-3031","description":"","address":"Spain","title":"Spain"}},{"type":"Feature","geometry":{"type":"Point","coordinates":[-8.2244539988552,39.399871995382]},"properties":{"supplychain_instance_id":"supplychain-1","stop_instance_id":"stop-2922","description":"","address":"Portugal","title":"Portugal"}},{"type":"Feature","geometry":{"type":"Point","coordinates":[-3.4359729995217,55.378050994717]},"properties":{"supplychain_instance_id":"supplychain-1","stop_instance_id":"stop-2815","description":"","address":"United Kingdom","title":"Great Britain"}},{"type":"Feature","geometry":{"type":"Point","coordinates":[-8.2438899988524,53.412909994738]},"properties":{"supplychain_instance_id":"supplychain-1","stop_instance_id":"stop-2710","description":"","address":"Ireland","title":"Ireland"}},{"type":"Feature","geometry":{"type":"Point","coordinates":[9.5017849986771,56.263919994714]},"properties":{"supplychain_instance_id":"supplychain-1","stop_instance_id":"stop-2607","description":"","address":"Denmark","title":"Denmark"}},{"type":"Feature","geometry":{"type":"Point","coordinates":[8.4689459988211,60.472023994758]},"properties":{"supplychain_instance_id":"supplychain-1","stop_instance_id":"stop-2506","description":"","address":"Norway","title":"Norway"}},{"type":"Feature","geometry":{"type":"Point","coordinates":[18.643500997405,60.128160994751]},"properties":{"supplychain_instance_id":"supplychain-1","stop_instance_id":"stop-2407","description":"","address":"Sweden","title":"Sweden"}},{"type":"Feature","geometry":{"type":"Point","coordinates":[25.748150996416,61.924109994797]},"properties":{"supplychain_instance_id":"supplychain-1","stop_instance_id":"stop-2310","description":"","address":"Finland","title":"Finland"}},{"type":"Feature","geometry":{"type":"Point","coordinates":[10.451525998545,51.165690994785]},"properties":{"supplychain_instance_id":"supplychain-1","stop_instance_id":"stop-2215","description":"","address":"Germany","title":"Germany"}},{"type":"Feature","geometry":{"type":"Point","coordinates":[2.2137489996918,46.227637994968]},"properties":{"supplychain_instance_id":"supplychain-1","stop_instance_id":"stop-2122","description":"","address":"France","title":"France"}},{"type":"Feature","geometry":{"type":"Point","coordinates":[8.2275119988548,46.818187994941]},"properties":{"supplychain_instance_id":"supplychain-1","stop_instance_id":"stop-2031","description":"","address":"Switzerland","title":"Switzerland"}},{"type":"Feature","geometry":{"type":"Point","coordinates":[5.2912659992635,52.132632994762]},"properties":{"supplychain_instance_id":"supplychain-1","stop_instance_id":"stop-1942","description":"","address":"The Netherlands","title":"Netherlands"}},{"type":"Feature","geometry":{"type":"Point","coordinates":[4.4699359993778,50.503886994803]},"properties":{"supplychain_instance_id":"supplychain-1","stop_instance_id":"stop-1855","description":"","address":"Belgium","title":"Belgium"}},{"type":"Feature","geometry":{"type":"Point","coordinates":[19.145135997335,51.919437994767]},"properties":{"supplychain_instance_id":"supplychain-1","stop_instance_id":"stop-1770","description":"","address":"Poland","title":"Poland"}},{"type":"Feature","geometry":{"type":"Point","coordinates":[14.550071997975,47.51623099491]},"properties":{"supplychain_instance_id":"supplychain-1","stop_instance_id":"stop-1687","description":"","address":"Austria","title":"Austria"}},{"type":"Feature","geometry":{"type":"Point","coordinates":[15.472961997846,49.817491994824]},"properties":{"supplychain_instance_id":"supplychain-1","stop_instance_id":"stop-1606","description":"","address":"Czech Republic","title":"Czech Republic"}},{"type":"Feature","geometry":{"type":"Point","coordinates":[24.966759996525,45.943160994982]},"properties":{"supplychain_instance_id":"supplychain-1","stop_instance_id":"stop-1527","description":"","address":"Romania","title":"Romania"}},{"type":"Feature","geometry":{"type":"Point","coordinates":[19.503303997285,47.162493994925]},"properties":{"supplychain_instance_id":"supplychain-1","stop_instance_id":"stop-1450","description":"","address":"Hungary","title":"Hungary"}},{"type":"Feature","geometry":{"type":"Point","coordinates":[25.485829996452,42.733882995158]},"properties":{"supplychain_instance_id":"supplychain-1","stop_instance_id":"stop-1375","description":"","address":"Bulgaria","title":"Bulgaria"}},{"type":"Feature","geometry":{"type":"Point","coordinates":[21.824311996962,39.074207995406]},"properties":{"supplychain_instance_id":"supplychain-1","stop_instance_id":"stop-1302","description":"","address":"Greece","title":"Greece"}},{"type":"Feature","geometry":{"type":"Point","coordinates":[35.243321995095,38.963744995414]},"properties":{"supplychain_instance_id":"supplychain-1","stop_instance_id":"stop-1231","description":"","address":"Turkey","title":"Turkey"}},{"type":"Feature","geometry":{"type":"Point","coordinates":[30.802497995712,26.82055299654]},"properties":{"supplychain_instance_id":"supplychain-1","stop_instance_id":"stop-1162","description":"","address":"Egypt","title":"Egypt"}},{"type":"Feature","geometry":{"type":"Point","coordinates":[35.862284995008,33.854720995837]},"properties":{"supplychain_instance_id":"supplychain-1","stop_instance_id":"stop-1095","description":"","address":"Lebanon","title":"Lebanon"}},{"type":"Feature","geometry":{"type":"Point","coordinates":[33.429858995346,35.126412995724]},"properties":{"supplychain_instance_id":"supplychain-1","stop_instance_id":"stop-1030","description":"","address":"Cyprus","title":"Cyprus"}},{"type":"Feature","geometry":{"type":"Point","coordinates":[36.238413994956,30.585163996148]},"properties":{"supplychain_instance_id":"supplychain-1","stop_instance_id":"stop-967","description":"","address":"Jordan","title":"Jordan"}},{"type":"Feature","geometry":{"type":"Point","coordinates":[47.48176599339,29.311659996276]},"properties":{"supplychain_instance_id":"supplychain-1","stop_instance_id":"stop-906","description":"","address":"Kuwait","title":"Kuwait"}},{"type":"Feature","geometry":{"type":"Point","coordinates":[45.079161993725,23.885941996868]},"properties":{"supplychain_instance_id":"supplychain-1","stop_instance_id":"stop-847","description":"","address":"Saudi Arabia","title":"Saudi Arabia"}},{"type":"Feature","geometry":{"type":"Point","coordinates":[55.923254992215,21.512582997146]},"properties":{"supplychain_instance_id":"supplychain-1","stop_instance_id":"stop-790","description":"","address":"Oman","title":"Oman"}},{"type":"Feature","geometry":{"type":"Point","coordinates":[51.183883992875,25.354825996701]},"properties":{"supplychain_instance_id":"supplychain-1","stop_instance_id":"stop-735","description":"","address":"Qatar","title":"Qatar"}},{"type":"Feature","geometry":{"type":"Point","coordinates":[50.557699992963,26.066699996622]},"properties":{"supplychain_instance_id":"supplychain-1","stop_instance_id":"stop-682","description":"","address":"Bahrain","title":"Bahrain"}},{"type":"Feature","geometry":{"type":"Point","coordinates":[53.847817992505,23.424075996921]},"properties":{"supplychain_instance_id":"supplychain-1","stop_instance_id":"stop-631","description":"","address":"United Arab Emirates","title":"United Arab Emirates"}},{"type":"Feature","geometry":{"type":"Point","coordinates":[22.937505996807,-30.55948199615]},"properties":{"supplychain_instance_id":"supplychain-1","stop_instance_id":"stop-582","description":"","address":"South Africa","title":"South Africa"}},{"type":"Feature","geometry":{"type":"Point","coordinates":[-63.616671991144,-38.416096995455]},"properties":{"supplychain_instance_id":"supplychain-1","stop_instance_id":"stop-535","description":"","address":"Argentina","title":"Argentina"}},{"type":"Feature","geometry":{"type":"Point","coordinates":[-71.542968990041,-35.675146995677]},"properties":{"supplychain_instance_id":"supplychain-1","stop_instance_id":"stop-490","description":"","address":"Chile","title":"Chile"}},{"type":"Feature","geometry":{"type":"Point","coordinates":[-51.925279992772,-14.235003998059]},"properties":{"supplychain_instance_id":"supplychain-1","stop_instance_id":"stop-447","description":"","address":"Brazil","title":"Brazil"}},{"type":"Feature","geometry":{"type":"Point","coordinates":[-75.015151989558,-9.1899669987314]},"properties":{"supplychain_instance_id":"supplychain-1","stop_instance_id":"stop-406","description":"","address":"Peru","title":"Peru"}},{"type":"Feature","geometry":{"type":"Point","coordinates":[-102.55278398572,23.634500996897]},"properties":{"supplychain_instance_id":"supplychain-1","stop_instance_id":"stop-367","description":"","address":"Mexico","title":"Mexico"}},{"type":"Feature","geometry":{"type":"Point","coordinates":[-66.59014899073,18.220832997549]},"properties":{"supplychain_instance_id":"supplychain-1","stop_instance_id":"stop-330","description":"","address":"Puerto Rico","title":"Puerto Rico"}},{"type":"Feature","geometry":{"type":"Point","coordinates":[-69.96833799026,12.521109998285]},"properties":{"supplychain_instance_id":"supplychain-1","stop_instance_id":"stop-295","description":"","address":"Aruba","title":"Aruba"}},{"type":"Feature","geometry":{"type":"Point","coordinates":[-68.990019990396,12.169569998331]},"properties":{"supplychain_instance_id":"supplychain-1","stop_instance_id":"stop-262","description":"","address":"Cura\u00e7ao","title":"Curacao"}},{"type":"Feature","geometry":{"type":"Point","coordinates":[-77.396279989226,25.034279996737]},"properties":{"supplychain_instance_id":"supplychain-1","stop_instance_id":"stop-231","description":"","address":"The Bahamas","title":"Bahamas"}},{"type":"Feature","geometry":{"type":"Point","coordinates":[-95.712890986677,37.090239995559]},"properties":{"supplychain_instance_id":"supplychain-1","stop_instance_id":"stop-202","description":"","address":"United States","title":"United States"}},{"type":"Feature","geometry":{"type":"Point","coordinates":[-74.005973089698,40.714352795289]},"properties":{"supplychain_instance_id":"supplychain-1","stop_instance_id":"stop-175","description":"","address":"New York, NY, USA","title":"New York City"}},{"type":"Feature","geometry":{"type":"Point","coordinates":[-122.33207078297,47.606209494906]},"properties":{"supplychain_instance_id":"supplychain-1","stop_instance_id":"stop-150","description":"","address":"Seattle, WA, USA","title":"Seattle, Washington"}},{"type":"Feature","geometry":{"type":"Point","coordinates":[-106.3467709852,56.130365994714]},"properties":{"supplychain_instance_id":"supplychain-1","stop_instance_id":"stop-127","description":"","address":"Canada","title":"Canada"}},{"type":"Feature","geometry":{"type":"Point","coordinates":[22.937505996807,-30.55948199615]},"properties":{"supplychain_instance_id":"supplychain-1","stop_instance_id":"stop-106","description":"","address":"South Africa","title":"South Africa"}},{"type":"Feature","geometry":{"type":"Point","coordinates":[174.88597097565,-40.900556995276]},"properties":{"supplychain_instance_id":"supplychain-1","stop_instance_id":"stop-87","description":"","address":"New Zealand","title":"New Zealand"}},{"type":"Feature","geometry":{"type":"Point","coordinates":[133.77513598138,-25.27439799671]},"properties":{"supplychain_instance_id":"supplychain-1","stop_instance_id":"stop-70","description":"","address":"Australia","title":"Australia"}},{"type":"Feature","geometry":{"type":"Point","coordinates":[106.88594368512,-6.355056599119]},"properties":{"supplychain_instance_id":"supplychain-1","stop_instance_id":"stop-55","description":"","address":"Indonesia","title":"Indonesia"}},{"type":"Feature","geometry":{"type":"Point","coordinates":[121.77401698304,12.879720998237]},"properties":{"supplychain_instance_id":"supplychain-1","stop_instance_id":"stop-42","description":"","address":"Philippines","title":"Phillipines"}},{"type":"Feature","geometry":{"type":"Point","coordinates":[100.99254098594,15.870031997848]},"properties":{"supplychain_instance_id":"supplychain-1","stop_instance_id":"stop-31","description":"","address":"Thailand","title":"Thailand"}},{"type":"Feature","geometry":{"type":"Point","coordinates":[104.19539698549,35.861659995661]},"properties":{"supplychain_instance_id":"supplychain-1","stop_instance_id":"stop-22","description":"","address":"China","title":"China"}},{"type":"Feature","geometry":{"type":"Point","coordinates":[127.76692198221,35.907756995657]},"properties":{"supplychain_instance_id":"supplychain-1","stop_instance_id":"stop-15","description":"","address":"South Korea","title":"Korea"}},{"type":"Feature","geometry":{"type":"Point","coordinates":[138.25292398076,36.204823995632]},"properties":{"supplychain_instance_id":"supplychain-1","stop_instance_id":"stop-10","description":"","address":"Japan","title":"japan"}},{"type":"Feature","geometry":{"type":"Point","coordinates":[105.31875598534,61.524009994785]},"properties":{"supplychain_instance_id":"supplychain-1","stop_instance_id":"stop-1","description":"","address":"Russian Federation","title":"Russian Federation "}}],"properties":{"sm:ui:tileset":"satellite","title":"starbucks store locator","description":"","tags":""}}