{"supplychain":{"category":null,"created":1374073507,"enable_comments":true,"flags":0,"id":6304,"modified":1374074213,"other_perms":1,"passcode":null,"user_featured":false,"usergroup_id":null,"usergroup_perms":0,"user_id":5862,"owner":{"id":5862,"name":"ef_lizabethw","avatar":"http:\/\/free.sourcemap.com\/assets\/images\/default-user.png","banner_url":null,"display_name":null},"taxonomy":null,"attributes":{"sm:ui:tileset":"satellite","title":"starbucks store locator","description":"","tags":""},"stops":[{"local_stop_id":56,"id":56,"geometry":"POINT(-789546.84668028 3735999.2271399)","attributes":{"supplychain_instance_id":"supplychain-1","stop_instance_id":"stop-3142","description":"","address":"Morocco","title":"Morroco"}},{"local_stop_id":55,"id":55,"geometry":"POINT(-417361.26121386 4933551.651775)","attributes":{"supplychain_instance_id":"supplychain-1","stop_instance_id":"stop-3031","description":"","address":"Spain","title":"Spain"}},{"local_stop_id":54,"id":54,"geometry":"POINT(-915542.03120526 4779112.7409819)","attributes":{"supplychain_instance_id":"supplychain-1","stop_instance_id":"stop-2922","description":"","address":"Portugal","title":"Portugal"}},{"local_stop_id":53,"id":53,"geometry":"POINT(-382490.76468619 7435586.5299477)","attributes":{"supplychain_instance_id":"supplychain-1","stop_instance_id":"stop-2815","description":"","address":"United Kingdom","title":"Great Britain"}},{"local_stop_id":52,"id":52,"geometry":"POINT(-917705.63682801 7059743.326019)","attributes":{"supplychain_instance_id":"supplychain-1","stop_instance_id":"stop-2710","description":"","address":"Ireland","title":"Ireland"}},{"local_stop_id":51,"id":51,"geometry":"POINT(1057733.8676799 7611135.0671694)","attributes":{"supplychain_instance_id":"supplychain-1","stop_instance_id":"stop-2607","description":"","address":"Denmark","title":"Denmark"}},{"local_stop_id":50,"id":50,"geometry":"POINT(942758.7561445 8505587.0375049)","attributes":{"supplychain_instance_id":"supplychain-1","stop_instance_id":"stop-2506","description":"","address":"Norway","title":"Norway"}},{"local_stop_id":49,"id":49,"geometry":"POINT(2075385.037635 8428326.964267)","attributes":{"supplychain_instance_id":"supplychain-1","stop_instance_id":"stop-2407","description":"","address":"Sweden","title":"Sweden"}},{"local_stop_id":48,"id":48,"geometry":"POINT(2866271.0577893 8841170.3929835)","attributes":{"supplychain_instance_id":"supplychain-1","stop_instance_id":"stop-2310","description":"","address":"Finland","title":"Finland"}},{"local_stop_id":47,"id":47,"geometry":"POINT(1163458.5521707 6650655.0402484)","attributes":{"supplychain_instance_id":"supplychain-1","stop_instance_id":"stop-2215","description":"","address":"Germany","title":"Germany"}},{"local_stop_id":46,"id":46,"geometry":"POINT(246433.41138981 5816903.7126173)","attributes":{"supplychain_instance_id":"supplychain-1","stop_instance_id":"stop-2122","description":"","address":"France","title":"France"}},{"local_stop_id":45,"id":45,"geometry":"POINT(915882.44620806 5912448.0540482)","attributes":{"supplychain_instance_id":"supplychain-1","stop_instance_id":"stop-2031","description":"","address":"Switzerland","title":"Switzerland"}},{"local_stop_id":44,"id":44,"geometry":"POINT(589021.03668977 6824142.8206739)","attributes":{"supplychain_instance_id":"supplychain-1","stop_instance_id":"stop-1942","description":"","address":"The Netherlands","title":"Netherlands"}},{"local_stop_id":43,"id":43,"geometry":"POINT(497590.99932926 6534001.8553792)","attributes":{"supplychain_instance_id":"supplychain-1","stop_instance_id":"stop-1855","description":"","address":"Belgium","title":"Belgium"}},{"local_stop_id":42,"id":42,"geometry":"POINT(2131226.7903913 6785571.8978479)","attributes":{"supplychain_instance_id":"supplychain-1","stop_instance_id":"stop-1770","description":"","address":"Poland","title":"Poland"}},{"local_stop_id":41,"id":41,"geometry":"POINT(1619706.60582 6026746.9738055)","attributes":{"supplychain_instance_id":"supplychain-1","stop_instance_id":"stop-1687","description":"","address":"Austria","title":"Austria"}},{"local_stop_id":40,"id":40,"geometry":"POINT(1722442.2506639 6414728.458057)","attributes":{"supplychain_instance_id":"supplychain-1","stop_instance_id":"stop-1606","description":"","address":"Czech Republic","title":"Czech Republic"}},{"local_stop_id":39,"id":39,"geometry":"POINT(2779287.009571 5771245.4036282)","attributes":{"supplychain_instance_id":"supplychain-1","stop_instance_id":"stop-1527","description":"","address":"Romania","title":"Romania"}},{"local_stop_id":38,"id":38,"geometry":"POINT(2171097.8697642 5968637.6782985)","attributes":{"supplychain_instance_id":"supplychain-1","stop_instance_id":"stop-1450","description":"","address":"Hungary","title":"Hungary"}},{"local_stop_id":37,"id":37,"geometry":"POINT(2837069.617649 5271553.4466849)","attributes":{"supplychain_instance_id":"supplychain-1","stop_instance_id":"stop-1375","description":"","address":"Bulgaria","title":"Bulgaria"}},{"local_stop_id":36,"id":36,"geometry":"POINT(2429471.2984153 4732306.8123197)","attributes":{"supplychain_instance_id":"supplychain-1","stop_instance_id":"stop-1302","description":"","address":"Greece","title":"Greece"}},{"local_stop_id":35,"id":35,"geometry":"POINT(3923268.6583573 4716479.6839723)","attributes":{"supplychain_instance_id":"supplychain-1","stop_instance_id":"stop-1231","description":"","address":"Turkey","title":"Turkey"}},{"local_stop_id":34,"id":34,"geometry":"POINT(3428918.3920435 3101070.0503622)","attributes":{"supplychain_instance_id":"supplychain-1","stop_instance_id":"stop-1162","description":"","address":"Egypt","title":"Egypt"}},{"local_stop_id":33,"id":33,"geometry":"POINT(3992171.3043275 4009311.2470976)","attributes":{"supplychain_instance_id":"supplychain-1","stop_instance_id":"stop-1095","description":"","address":"Lebanon","title":"Lebanon"}},{"local_stop_id":32,"id":32,"geometry":"POINT(3721394.8806529 4181073.462683)","attributes":{"supplychain_instance_id":"supplychain-1","stop_instance_id":"stop-1030","description":"","address":"Cyprus","title":"Cyprus"}},{"local_stop_id":31,"id":31,"geometry":"POINT(4034041.7930743 3578991.1717096)","attributes":{"supplychain_instance_id":"supplychain-1","stop_instance_id":"stop-967","description":"","address":"Jordan","title":"Jordan"}},{"local_stop_id":30,"id":30,"geometry":"POINT(5285646.0123496 3415373.4874844)","attributes":{"supplychain_instance_id":"supplychain-1","stop_instance_id":"stop-906","description":"","address":"Kuwait","title":"Kuwait"}},{"local_stop_id":29,"id":29,"geometry":"POINT(5018189.358529 2739515.7915507)","attributes":{"supplychain_instance_id":"supplychain-1","stop_instance_id":"stop-847","description":"","address":"Saudi Arabia","title":"Saudi Arabia"}},{"local_stop_id":28,"id":28,"geometry":"POINT(6225348.2692358 2453104.6408902)","attributes":{"supplychain_instance_id":"supplychain-1","stop_instance_id":"stop-790","description":"","address":"Oman","title":"Oman"}},{"local_stop_id":27,"id":27,"geometry":"POINT(5697763.9029088 2919390.3324817)","attributes":{"supplychain_instance_id":"supplychain-1","stop_instance_id":"stop-735","description":"","address":"Qatar","title":"Qatar"}},{"local_stop_id":26,"id":26,"geometry":"POINT(5628057.4188957 3007344.3716459)","attributes":{"supplychain_instance_id":"supplychain-1","stop_instance_id":"stop-682","description":"","address":"Bahrain","title":"Bahrain"}},{"local_stop_id":25,"id":25,"geometry":"POINT(5994311.6792545 2683384.6572901)","attributes":{"supplychain_instance_id":"supplychain-1","stop_instance_id":"stop-631","description":"","address":"United Arab Emirates","title":"United Arab Emirates"}},{"local_stop_id":24,"id":24,"geometry":"POINT(2553391.4876322 -3575670.6750294)","attributes":{"supplychain_instance_id":"supplychain-1","stop_instance_id":"stop-582","description":"","address":"South Africa","title":"South Africa"}},{"local_stop_id":23,"id":23,"geometry":"POINT(-7081775.5320169 -4638374.2744388)","attributes":{"supplychain_instance_id":"supplychain-1","stop_instance_id":"stop-535","description":"","address":"Argentina","title":"Argentina"}},{"local_stop_id":22,"id":22,"geometry":"POINT(-7964126.8778103 -4256013.6745668)","attributes":{"supplychain_instance_id":"supplychain-1","stop_instance_id":"stop-490","description":"","address":"Chile","title":"Chile"}},{"local_stop_id":21,"id":21,"geometry":"POINT(-5780295.7280935 -1601191.8132151)","attributes":{"supplychain_instance_id":"supplychain-1","stop_instance_id":"stop-447","description":"","address":"Brazil","title":"Brazil"}},{"local_stop_id":20,"id":20,"geometry":"POINT(-8350648.5212576 -1027437.3556249)","attributes":{"supplychain_instance_id":"supplychain-1","stop_instance_id":"stop-406","description":"","address":"Peru","title":"Peru"}},{"local_stop_id":19,"id":19,"geometry":"POINT(-11416123.692723 2708933.2918558)","attributes":{"supplychain_instance_id":"supplychain-1","stop_instance_id":"stop-367","description":"","address":"Mexico","title":"Mexico"}},{"local_stop_id":18,"id":18,"geometry":"POINT(-7412781.4774963 2063412.9210676)","attributes":{"supplychain_instance_id":"supplychain-1","stop_instance_id":"stop-330","description":"","address":"Puerto Rico","title":"Puerto Rico"}},{"local_stop_id":17,"id":17,"geometry":"POINT(-7788839.7567274 1405072.298339)","attributes":{"supplychain_instance_id":"supplychain-1","stop_instance_id":"stop-295","description":"","address":"Aruba","title":"Aruba"}},{"local_stop_id":16,"id":16,"geometry":"POINT(-7679933.8951487 1365012.6660205)","attributes":{"supplychain_instance_id":"supplychain-1","stop_instance_id":"stop-262","description":"","address":"Cura\u00e7ao","title":"Curacao"}},{"local_stop_id":15,"id":15,"geometry":"POINT(-8615714.4776943 2879955.7372682)","attributes":{"supplychain_instance_id":"supplychain-1","stop_instance_id":"stop-231","description":"","address":"The Bahamas","title":"Bahamas"}},{"local_stop_id":14,"id":14,"geometry":"POINT(-10654710.286989 4451692.5541908)","attributes":{"supplychain_instance_id":"supplychain-1","stop_instance_id":"stop-202","description":"","address":"United States","title":"United States"}},{"local_stop_id":13,"id":13,"geometry":"POINT(-8238307.2400059 4970299.6279391)","attributes":{"supplychain_instance_id":"supplychain-1","stop_instance_id":"stop-175","description":"","address":"New York, NY, USA","title":"New York City"}},{"local_stop_id":12,"id":12,"geometry":"POINT(-13617943.827247 6041590.3850939)","attributes":{"supplychain_instance_id":"supplychain-1","stop_instance_id":"stop-150","description":"","address":"Seattle, WA, USA","title":"Seattle, Washington"}},{"local_stop_id":11,"id":11,"geometry":"POINT(-11838468.393581 7584411.7316911)","attributes":{"supplychain_instance_id":"supplychain-1","stop_instance_id":"stop-127","description":"","address":"Canada","title":"Canada"}},{"local_stop_id":10,"id":10,"geometry":"POINT(2553391.4876322 -3575670.6750294)","attributes":{"supplychain_instance_id":"supplychain-1","stop_instance_id":"stop-106","description":"","address":"South Africa","title":"South Africa"}},{"local_stop_id":9,"id":9,"geometry":"POINT(19468217.235897 -4997684.8898554)","attributes":{"supplychain_instance_id":"supplychain-1","stop_instance_id":"stop-87","description":"","address":"New Zealand","title":"New Zealand"}},{"local_stop_id":8,"id":8,"geometry":"POINT(14891780.018248 -2909486.0545921)","attributes":{"supplychain_instance_id":"supplychain-1","stop_instance_id":"stop-70","description":"","address":"Australia","title":"Australia"}},{"local_stop_id":7,"id":7,"geometry":"POINT(11898488.823986 -708896.69280552)","attributes":{"supplychain_instance_id":"supplychain-1","stop_instance_id":"stop-55","description":"","address":"Indonesia","title":"Indonesia"}},{"local_stop_id":6,"id":6,"geometry":"POINT(13555821.562404 1445993.9972958)","attributes":{"supplychain_instance_id":"supplychain-1","stop_instance_id":"stop-42","description":"","address":"Philippines","title":"Phillipines"}},{"local_stop_id":5,"id":5,"geometry":"POINT(11242438.236474 1789676.6232449)","attributes":{"supplychain_instance_id":"supplychain-1","stop_instance_id":"stop-31","description":"","address":"Thailand","title":"Thailand"}},{"local_stop_id":4,"id":4,"geometry":"POINT(11598978.535428 4281602.6590309)","attributes":{"supplychain_instance_id":"supplychain-1","stop_instance_id":"stop-22","description":"","address":"China","title":"China"}},{"local_stop_id":3,"id":3,"geometry":"POINT(14222948.695284 4287936.2888022)","attributes":{"supplychain_instance_id":"supplychain-1","stop_instance_id":"stop-15","description":"","address":"South Korea","title":"Korea"}},{"local_stop_id":2,"id":2,"geometry":"POINT(15390245.098219 4328841.5619102)","attributes":{"supplychain_instance_id":"supplychain-1","stop_instance_id":"stop-10","description":"","address":"Japan","title":"japan"}},{"local_stop_id":1,"id":1,"geometry":"POINT(11724030.287269 8747149.0475725)","attributes":{"supplychain_instance_id":"supplychain-1","stop_instance_id":"stop-1","description":"","address":"Russian Federation","title":"Russian Federation "}}],"hops":[]},"editable":false}