{"type":"FeatureCollection","features":[{"type":"Feature","geometry":{"type":"Point","coordinates":[-76.727744999999,39.962598400001]},"properties":{"description":"","title":"York Hospital","placename":"York, PA, USA","address":"York, PA"}},{"type":"Feature","geometry":{"type":"Point","coordinates":[-93.750178899997,32.525151599998]},"properties":{"description":"","title":"Willis-Knighton Medical Center","placename":"Shreveport, LA, USA","address":"Shreveport, LA"}},{"type":"Feature","geometry":{"type":"Point","coordinates":[-74.005973100003,40.7143528]},"properties":{"description":"","title":"Weill Cornell","placename":"New York, NY, USA","address":"New York, NY"}},{"type":"Feature","geometry":{"type":"Point","coordinates":[-83.555212,41.6639383]},"properties":{"description":"","title":"University of Toledo Medical College","placename":"Toledo, OH, USA","address":"Toledo, OH"}},{"type":"Feature","geometry":{"type":"Point","coordinates":[-84.512019599999,39.103118199997]},"properties":{"description":"","title":"UC Health - University Hospital","placename":"Cincinnati, OH, USA","address":"Cincinnati, OH"}},{"type":"Feature","geometry":{"type":"Point","coordinates":[-74.1723667,40.735656999999]},"properties":{"description":"","title":"University of Medicine Dentistry of NJ","placename":"Newark, NJ, USA","address":"Newark, NJ"}},{"type":"Feature","geometry":{"type":"Point","coordinates":[-117.1572551,32.715329199999]},"properties":{"description":"","title":"UCSD Medical Center","placename":"San Diego, CA, USA","address":"San Diego, CA"}},{"type":"Feature","geometry":{"type":"Point","coordinates":[-121.4943996,38.5815719]},"properties":{"description":"","title":"UC Davis Medical Center","placename":"Sacramento, CA, USA","address":"Sacramento, CA"}},{"type":"Feature","geometry":{"type":"Point","coordinates":[-96.6988856,33.019843100004]},"properties":{"description":"","title":"The Heart Hospital Baylor Plano","placename":"Plano, TX, USA","address":"Plano, TX"}},{"type":"Feature","geometry":{"type":"Point","coordinates":[-122.4442906,47.2528768]},"properties":{"description":"","title":"Multicare Health System","placename":"Tacoma, WA, USA","address":"Tacoma, WA"}},{"type":"Feature","geometry":{"type":"Point","coordinates":[-73.140942900001,40.925653800002]},"properties":{"description":"","title":"SUNY Stony Brook University Hospital","placename":"Stony Brook, NY, USA","address":"Stony Brook, NY"}},{"type":"Feature","geometry":{"type":"Point","coordinates":[-93.292298900001,37.208957199999]},"properties":{"description":"","title":"St John's Health System-Springfield, MO","placename":"Springfield, MO, USA","address":"Springfield, MO"}},{"type":"Feature","geometry":{"type":"Point","coordinates":[-73.756231700003,42.652579299998]},"properties":{"description":"","title":"St Peter's Hospital","placename":"Albany, NY, USA","address":"Albany, NY"}},{"type":"Feature","geometry":{"type":"Point","coordinates":[-89.580097800003,40.666148999998]},"properties":{"description":"","title":"St Francis Medical Center - IL","placename":"East Peoria, IL, USA","address":"East Peoria, IL"}},{"type":"Feature","geometry":{"type":"Point","coordinates":[-117.27333,32.84722]},"properties":{"description":"","title":"Scripps La Jolla Hospital","placename":"La Jolla, San Diego, CA, USA","address":"La Jolla, CA"}},{"type":"Feature","geometry":{"type":"Point","coordinates":[-97.342782000003,31.098234400002]},"properties":{"description":"","title":"Scott and White Memorial Hospital","placename":"Temple, TX, USA","address":"Temple, TX"}},{"type":"Feature","geometry":{"type":"Point","coordinates":[-75.163788999999,39.952335]},"properties":{"description":"","title":"Penn Presbyterian Medical Center","placename":"Philadelphia, PA, USA","address":"Philadelphia, PA"}},{"type":"Feature","geometry":{"type":"Point","coordinates":[-84.387982400002,33.7489954]},"properties":{"description":"","title":"Piedmont Hospital","placename":"Atlanta, GA, USA","address":"Atlanta, GA"}},{"type":"Feature","geometry":{"type":"Point","coordinates":[-81.379236499997,28.538335500004]},"properties":{"description":"","title":"Orlando Regional Medical Center","placename":"Orlando, FL, USA","address":"Orlando, FL"}},{"type":"Feature","geometry":{"type":"Point","coordinates":[-74.005973100003,40.7143528]},"properties":{"description":"","title":"New York University Hospital Center","placename":"New York, NY, USA","address":"New York, NY"}},{"type":"Feature","geometry":{"type":"Point","coordinates":[-93.609106399997,41.6005448]},"properties":{"description":"","title":"Mercy Medical Center - Des Moines","placename":"Des Moines, IA, USA","address":"Des Moines, IA"}},{"type":"Feature","geometry":{"type":"Point","coordinates":[-98.2300124,26.203407100003]},"properties":{"description":"","title":"McAllen Heart Hospital","placename":"McAllen, TX, USA","address":"McAllen, TX"}},{"type":"Feature","geometry":{"type":"Point","coordinates":[-70.255325899996,43.661470999998]},"properties":{"description":"","title":"Maine Medical Center","placename":"Portland, ME, USA","address":"Portland, ME"}},{"type":"Feature","geometry":{"type":"Point","coordinates":[-73.950000000004,40.650000000002]},"properties":{"description":"","title":"Maimonides Medical Ctr","placename":"Brooklyn, NY, USA","address":"Brooklyn, NY"}},{"type":"Feature","geometry":{"type":"Point","coordinates":[-75.277072100004,39.989054500003]},"properties":{"description":"","title":"Lankenau Hospital Medical Center","placename":"Wynnewood, Narberth, PA, USA","address":"Wynnewood, PA"}},{"type":"Feature","geometry":{"type":"Point","coordinates":[-76.305514400002,40.037875499999]},"properties":{"description":"","title":"Lancaster General","placename":"Lancaster, PA, USA","address":"Lancaster, PA"}},{"type":"Feature","geometry":{"type":"Point","coordinates":[-82.637938700002,38.478414399999]},"properties":{"description":"","title":"Kings Daughters Medical Center","placename":"Ashland, KY, USA","address":"Ashland, KY"}},{"type":"Feature","geometry":{"type":"Point","coordinates":[-122.5703692,45.407620500003]},"properties":{"description":"","title":"Kaiser Permanente Sunnyside Med Ctr","placename":"Clackamas, OR, USA","address":"Clackamas, OR"}},{"type":"Feature","geometry":{"type":"Point","coordinates":[-86.052222200003,39.906944400001]},"properties":{"description":"","title":"Community Heart and Vascular Hosp","placename":"Castleton, Indianapolis, IN, USA","address":"Castleton, IN"}},{"type":"Feature","geometry":{"type":"Point","coordinates":[-74.043473599998,40.885932499999]},"properties":{"description":"","title":"Hackensack University Medical Center","placename":"Hackensack, NJ, USA","address":"Hackensack, NJ"}},{"type":"Feature","geometry":{"type":"Point","coordinates":[-81.379236499997,28.538335500004]},"properties":{"description":"","title":"Florida Hospital","placename":"Orlando, FL, USA","address":"Orlando, FL"}},{"type":"Feature","geometry":{"type":"Point","coordinates":[-75.163788999999,39.952335]},"properties":{"description":"","title":"Einstein Medical Center","placename":"Philadelphia, PA, USA","address":"Philadelphia, PA"}},{"type":"Feature","geometry":{"type":"Point","coordinates":[-88.147289299997,41.785862900002]},"properties":{"description":"","title":"Edward Hospital","placename":"Naperville, IL, USA","address":"Naperville, IL"}},{"type":"Feature","geometry":{"type":"Point","coordinates":[-75.7496572,39.683722599999]},"properties":{"description":"","title":"Christiana Care Health System","placename":"Newark, DE, USA","address":"Newark, DE"}},{"type":"Feature","geometry":{"type":"Point","coordinates":[-84.512019599999,39.103118199997]},"properties":{"description":"","title":"Christ Hospital - OH","placename":"Cincinnati, OH, USA","address":"Cincinnati, OH"}},{"type":"Feature","geometry":{"type":"Point","coordinates":[0,0]},"properties":{"description":"","title":"Chippenham\/JW Hospitals","address":"Richmond, VA"}},{"type":"Feature","geometry":{"type":"Point","coordinates":[-85.668086299998,42.963359900002]},"properties":{"description":"","title":"Butterworth Hospital - Spectrum Health","placename":"Grand Rapids, MI, USA","address":"Grand Rapids, MI"}},{"type":"Feature","geometry":{"type":"Point","coordinates":[-96.681679000002,40.806861999999]},"properties":{"description":"","title":"Bryan Medical Center East","placename":"Lincoln, NE, USA","address":"Lincoln, NE"}},{"type":"Feature","geometry":{"type":"Point","coordinates":[-77.436048099996,37.540724599999]},"properties":{"description":"","title":"St. Mary's Hospital","placename":"Richmond, VA, USA","address":"Richmond, VA"}},{"type":"Feature","geometry":{"type":"Point","coordinates":[-71.059773200004,42.358430800001]},"properties":{"description":"","title":"Beth Israel Deaconess Medical Center","placename":"Boston, MA, USA","address":"Boston, MA"}},{"type":"Feature","geometry":{"type":"Point","coordinates":[-112.0740373,33.448377099997]},"properties":{"description":"","title":"Banner Good Samaritan Medical Center","placename":"Phoenix, AZ, USA","address":"Phoenix, AZ"}},{"type":"Feature","geometry":{"type":"Point","coordinates":[-75.490183300001,40.608430499997]},"properties":{"description":"","title":"Lehigh Valley Hospital","placename":"Allentown, PA, USA","address":"Allentown, PA"}},{"type":"Feature","geometry":{"type":"Point","coordinates":[-71.454789100002,42.995639699998]},"properties":{"description":"","title":"Catholic Medical Center","placename":"Manchester, NH, USA","address":"Manchester, NH"}},{"type":"Feature","geometry":{"type":"Point","coordinates":[-81.034814399996,34.000710400003]},"properties":{"description":"","title":"Palmetto Health Richland","placename":"Columbia, SC, USA","address":"Columbia, SC"}},{"type":"Feature","geometry":{"type":"Point","coordinates":[-119.7725868,36.746842199997]},"properties":{"description":"","title":"Fresno Community Hospital","placename":"Fresno, CA, USA","address":"Fresno, CA"}},{"type":"Feature","geometry":{"type":"Point","coordinates":[-79.791975399996,36.072635400002]},"properties":{"description":"","title":"Cone Health System","placename":"Greensboro, NC, USA","address":"Greensboro, NC"}},{"type":"Feature","geometry":{"type":"Point","coordinates":[-122.6762071,45.523451499997]},"properties":{"description":"","title":"Providence St. Vincent Medical Center","placename":"Portland, OR, USA","address":"Portland, OR"}},{"type":"Feature","geometry":{"type":"Point","coordinates":[-83.632402199998,32.840694599999]},"properties":{"description":"","title":"The Medical Center of Central Georgia","placename":"Macon, GA, USA","address":"Macon, GA"}},{"type":"Feature","geometry":{"type":"Point","coordinates":[-79.941426600001,37.270970399997]},"properties":{"description":"","title":"Carilion Health System","placename":"Roanoke, VA, USA","address":"Roanoke, VA"}},{"type":"Feature","geometry":{"type":"Point","coordinates":[-75.881307500002,41.245914900003]},"properties":{"description":"","title":"Geisinger Wyoming Valley Medical Center","placename":"Wilkes-Barre, PA, USA","address":"Wilkes Barre, PA"}},{"type":"Feature","geometry":{"type":"Point","coordinates":[-90.199404200003,38.6270025]},"properties":{"description":"","title":"Missouri Baptist Medical Center","placename":"St. Louis, MO, USA","address":"St. Louis, MO"}},{"type":"Feature","geometry":{"type":"Point","coordinates":[-74.481543800001,40.796766699998]},"properties":{"description":"","title":"Atlantic Health System-MMH","placename":"Morristown, NJ, USA","address":"Morristown, NJ"}},{"type":"Feature","geometry":{"type":"Point","coordinates":[-75.125349200001,40.1198332]},"properties":{"description":"","title":"Abington Memorial Hospital","placename":"Abington, PA, USA","address":"Abington, PA"}},{"type":"Feature","geometry":{"type":"Point","coordinates":[-73.756231700003,42.652579299998]},"properties":{"description":"","title":"Albany Medical Center","placename":"Albany, NY, USA","address":"Albany, NY"}},{"type":"Feature","geometry":{"type":"Point","coordinates":[-95.369389599997,29.760192700002]},"properties":{"description":"","title":"MHHS - Texas Medical Center","placename":"Houston, TX, USA","address":"Houston, TX"}},{"type":"Feature","geometry":{"type":"Point","coordinates":[-121.9552356,37.354107899997]},"properties":{"description":"","title":"Kaiser Permanente - Homestead Hospital","placename":"Santa Clara, CA, USA","address":"Santa Clara, CA"}},{"type":"Feature","geometry":{"type":"Point","coordinates":[-121.4943996,38.5815719]},"properties":{"description":"","title":"Mercy General Hospital","placename":"Sacramento, CA, USA","address":"Sacramento, CA"}},{"type":"Feature","geometry":{"type":"Point","coordinates":[-71.109733499997,42.373615800001]},"properties":{"description":"","title":"Lemonade","placename":"Cambridge, MA, USA","address":"Cambridge, MA"}},{"type":"Feature","geometry":{"type":"Point","coordinates":[-75.743753599998,41.959857699998]},"properties":{"description":"","title":"Refrigerator","placename":"123 Main Street, Hallstead, PA 18822, USA","address":"123 Main St."}},{"type":"Feature","geometry":{"type":"Point","coordinates":[-75.743753599998,41.959857699998]},"properties":{"description":"","title":"Family","placename":"123 Main Street, Hallstead, PA 18822, USA","address":"123 Main St."}},{"type":"Feature","geometry":{"type":"Point","coordinates":[-71.453788399997,42.474856600003]},"properties":{"description":"","title":"Lemonade Stand","placename":"Massachusetts Avenue & Main Street, Acton, MA 01720, USA","address":"Main St. & Massachusetts Ave."}},{"type":"Feature","geometry":{"type":"Point","coordinates":[-71.104465900003,42.365334299998]},"properties":{"description":"","title":"Neighbors","placename":"Central Square, Cambridge, MA 02139, USA","address":"Central Square, Cambridge"}},{"type":"Feature","geometry":{"type":"LineString","coordinates":[[-71.109733499997,42.373615800001],[-75.743753599998,41.959857699998]]},"properties":{"distance":"384.634036","title":"Lemonade to Refrigerator"}},{"type":"Feature","geometry":{"type":"LineString","coordinates":[[-75.743753599998,41.959857699998],[-75.743753599998,41.959857699998]]},"properties":{"distance":"0","title":"Refrigerator to Family"}},{"type":"Feature","geometry":{"type":"LineString","coordinates":[[-71.109733499997,42.373615800001],[-71.453788399997,42.474856600003]]},"properties":{"distance":"30.401358","title":"Lemonade to Lemonade Stand"}},{"type":"Feature","geometry":{"type":"LineString","coordinates":[[-71.453788399997,42.474856600003],[-71.104465900003,42.365334299998]]},"properties":{"distance":"31.153482","title":"Lemonade Stand to Neighbors"}}],"properties":{"category":"51","sm:ui:tileset":"terrain","title":"OHC","description":"","tags":"ohc txcenter"}}