{"type":"FeatureCollection","features":[{"type":"Feature","geometry":{"type":"Point","coordinates":[118.08942498357,24.4798339968]},"properties":{"supplychain_instance_id":"supplychain-1","stop_instance_id":"stop-206","description":"","address":"Xiamen, Fujian, China","title":"Factory & Tannery"}},{"type":"Feature","geometry":{"type":"Point","coordinates":[4.9382384993126,51.628709694773]},"properties":{"supplychain_instance_id":"supplychain-1","stop_instance_id":"stop-53","description":"","address":"Dongen, The Netherlands","title":"Tannery"}},{"type":"Feature","geometry":{"type":"Point","coordinates":[18.921855797366,49.06529289485]},"properties":{"supplychain_instance_id":"supplychain-1","stop_instance_id":"stop-42","description":"","address":"Martin, Slovakia","title":"Factory"}},{"type":"Feature","geometry":{"type":"Point","coordinates":[100.568959886,14.353212798044]},"properties":{"supplychain_instance_id":"supplychain-1","stop_instance_id":"stop-33","description":"","address":"Phra Nakhon Si Ayutthaya, Thailand","title":"Factory & Tannery"}},{"type":"Feature","geometry":{"type":"Point","coordinates":[112.7343979843,-7.2891659989908]},"properties":{"supplychain_instance_id":"supplychain-1","stop_instance_id":"stop-26","description":"","address":"Surabaya, East Java, Indonesia","title":"Factory & Tannery"}},{"type":"Feature","geometry":{"type":"Point","coordinates":[-8.5483246988101,40.926793995275]},"properties":{"youtube:link":"","water":"0","energy":"0","co2e":"0","weight":"0","supplychain_instance_id":"supplychain-1","stop_instance_id":"stop-5","description":"","address":"4520 Santa Maria da Feira, Portugal","title":"Factory"}},{"type":"Feature","geometry":{"type":"Point","coordinates":[8.8252949987715,55.055336994719]},"properties":{"youtube:link":"","water":"0","energy":"0","co2e":"0","weight":"0","supplychain_instance_id":"supplychain-1","stop_instance_id":"stop-1","description":"","address":"6261 Bredebro, Denmark","title":"Factory - R&D"}}],"properties":{"sm:ui:tileset":"cloudmade","title":"Ecco - Global Strategy","description":"","tags":""}}