{"type":"FeatureCollection","features":[{"type":"Feature","geometry":{"type":"Point","coordinates":[106.88594368512,-6.355056599119]},"properties":{"description":"","address":"Indonesia","title":"Indonesia"}},{"type":"Feature","geometry":{"type":"Point","coordinates":[90.356330987419,23.684993996891]},"properties":{"supplychain_instance_id":"supplychain-1","stop_instance_id":"stop-123","description":"","address":"Bangladesh","title":"Bangladesh"}},{"type":"Feature","geometry":{"type":"Point","coordinates":[108.27719898493,14.058323998082]},"properties":{"supplychain_instance_id":"supplychain-1","stop_instance_id":"stop-102","description":"","address":"Vietnam","title":"Vietnam"}},{"type":"Feature","geometry":{"type":"Point","coordinates":[104.99096298539,12.565678998279]},"properties":{"supplychain_instance_id":"supplychain-1","stop_instance_id":"stop-83","description":"","address":"Cambodia","title":"Cambodia"}},{"type":"Feature","geometry":{"type":"Point","coordinates":[120.96051498316,23.697809996889]},"properties":{"supplychain_instance_id":"supplychain-1","stop_instance_id":"stop-66","description":"","address":"Taiwan","title":"Taiwan"}},{"type":"Feature","geometry":{"type":"Point","coordinates":[114.10949698411,22.396427997041]},"properties":{"supplychain_instance_id":"supplychain-1","stop_instance_id":"stop-51","description":"","address":"Hong Kong","title":"Hongkong"}},{"type":"Feature","geometry":{"type":"Point","coordinates":[113.26653098423,23.132190996955]},"properties":{"supplychain_instance_id":"supplychain-1","stop_instance_id":"stop-38","description":"","address":"Guangdong, China","title":"Guangdong"}},{"type":"Feature","geometry":{"type":"Point","coordinates":[115.90891498387,28.674431996342]},"properties":{"supplychain_instance_id":"supplychain-1","stop_instance_id":"stop-27","description":"","address":"Jiangxi, China","title":"Jiangxi"}},{"type":"Feature","geometry":{"type":"Point","coordinates":[114.34192098408,30.545860996151]},"properties":{"supplychain_instance_id":"supplychain-1","stop_instance_id":"stop-18","description":"","address":"Hubei, China","title":"Hubei"}},{"type":"Feature","geometry":{"type":"Point","coordinates":[118.76323198347,32.061706996003]},"properties":{"supplychain_instance_id":"supplychain-1","stop_instance_id":"stop-11","description":"","address":"Jiangsu, China","title":"Jiangsu"}},{"type":"Feature","geometry":{"type":"Point","coordinates":[113.75365798416,34.765526995755]},"properties":{"supplychain_instance_id":"supplychain-1","stop_instance_id":"stop-4","description":"","address":"Henan, China","title":"Henan"}},{"type":"Feature","geometry":{"type":"Point","coordinates":[117.28492298367,31.861183996022]},"properties":{"youtube:link":"","water":"0","energy":"0","co2e":"0","weight":"0","supplychain_instance_id":"supplychain-1","stop_instance_id":"stop-1","description":"","address":"Anhui, China","title":"Anhui"}}],"properties":{"title":"Yue","description":"","tags":""}}