{"supplychain":{"category":36,"created":1379823771,"enable_comments":true,"flags":0,"id":6585,"modified":1380045533,"other_perms":1,"passcode":null,"user_featured":false,"usergroup_id":null,"usergroup_perms":0,"user_id":6244,"owner":{"id":6244,"name":"mkaissar96","avatar":"http:\/\/free.sourcemap.com\/assets\/images\/default-user.png","banner_url":null,"display_name":null},"taxonomy":[{"description":"Clothing, Shoes & Jewelry","id":8,"left":1,"name":"clothing-shoes","right":12,"title":"Clothing, Shoes & Jewelry"},{"description":"Clothing","id":36,"left":2,"name":"clothing","right":3,"title":"Clothing"}],"attributes":{"sm:ui:tileset":"terrain","title":"GAP Inc.","description":"The \"sourcemap\" of the locations of GAP Inc. retail stores, raw materials, and manufacturing sites. Includes transportation route from start to finish and \"newsflashes\" about working conditions in countries. ","tags":""},"stops":[{"local_stop_id":109,"id":109,"geometry":"POINT(11351890.342794 469131.36759243)","attributes":{"supplychain_instance_id":"supplychain-1","stop_instance_id":"stop-8768","description":"","address":"Malaysia","title":"STORES (10)"}},{"local_stop_id":108,"id":108,"geometry":"POINT(5285646.0123496 3415373.4874844)","attributes":{"supplychain_instance_id":"supplychain-1","stop_instance_id":"stop-8551","description":"","address":"Kuwait","title":"STORES (2)"}},{"local_stop_id":107,"id":107,"geometry":"POINT(7449910.4238529 6110111.7017501)","attributes":{"supplychain_instance_id":"supplychain-1","stop_instance_id":"stop-8336","description":"","address":"Kazakhstan","title":"STORES (2)"}},{"local_stop_id":106,"id":106,"geometry":"POINT(4034041.7930743 3578991.1717096)","attributes":{"supplychain_instance_id":"supplychain-1","stop_instance_id":"stop-8123","description":"","address":"Jordan","title":"STORES (1)"}},{"local_stop_id":105,"id":105,"geometry":"POINT(15390245.098219 4328841.5619102)","attributes":{"supplychain_instance_id":"supplychain-1","stop_instance_id":"stop-7912","description":"","address":"Japan","title":"STORES (144)"}},{"local_stop_id":104,"id":104,"geometry":"POINT(1398994.3420108 5141815.9369254)","attributes":{"supplychain_instance_id":"supplychain-1","stop_instance_id":"stop-7703","description":"","address":"Italy","title":"STORES (10)"}},{"local_stop_id":103,"id":103,"geometry":"POINT(3879663.7006247 3638731.1870765)","attributes":{"supplychain_instance_id":"supplychain-1","stop_instance_id":"stop-7496","description":"","address":"Israel","title":"STORES (5)"}},{"local_stop_id":102,"id":102,"geometry":"POINT(-917705.63682801 7059743.326019)","attributes":{"supplychain_instance_id":"supplychain-1","stop_instance_id":"stop-7291","description":"","address":"Ireland","title":"STORES (3)"}},{"local_stop_id":101,"id":101,"geometry":"POINT(11898488.823986 -708896.69280552)","attributes":{"supplychain_instance_id":"supplychain-1","stop_instance_id":"stop-7088","description":"","address":"Indonesia","title":"STORES (3)"}},{"local_stop_id":100,"id":100,"geometry":"POINT(8790107.5919468 2343495.1653783)","attributes":{"supplychain_instance_id":"supplychain-1","stop_instance_id":"stop-6887","description":"","address":"India","title":"STORES (40)"}},{"local_stop_id":99,"id":99,"geometry":"POINT(12702611.098948 2559188.1798433)","attributes":{"supplychain_instance_id":"supplychain-1","stop_instance_id":"stop-6688","description":"","address":"Hong Kong","title":"STORES (3)"}},{"local_stop_id":97,"id":97,"geometry":"POINT(11724030.287269 8747149.0475725)","attributes":{"youtube:link":"","water":"0","energy":"0","co2e":"0","weight":"0","supplychain_instance_id":"supplychain-1","stop_instance_id":"stop-5809","description":"","address":"Russia","title":"STORES (1)"}},{"local_stop_id":96,"id":96,"geometry":"POINT(246433.41138981 5816903.7126173)","attributes":{"supplychain_instance_id":"supplychain-1","stop_instance_id":"stop-5616","description":"","address":"France","title":"STORES (37)"}},{"local_stop_id":95,"id":95,"geometry":"POINT(-9895916.4515114 1550614.4482931)","attributes":{"supplychain_instance_id":"supplychain-1","stop_instance_id":"stop-5425","description":"","address":"El Salvador","title":"STORES (1)"}},{"local_stop_id":94,"id":94,"geometry":"POINT(3428918.3920435 3101070.0503622)","attributes":{"supplychain_instance_id":"supplychain-1","stop_instance_id":"stop-5236","description":"","address":"Egypt","title":"STORES (3)"}},{"local_stop_id":93,"id":93,"geometry":"POINT(3721394.8806529 4181073.462683)","attributes":{"supplychain_instance_id":"supplychain-1","stop_instance_id":"stop-5049","description":"","address":"Cyprus","title":"STORES (1)"}},{"local_stop_id":92,"id":92,"geometry":"POINT(1692056.2598222 5637278.2011058)","attributes":{"supplychain_instance_id":"supplychain-1","stop_instance_id":"stop-4864","description":"","address":"Croatia","title":"STORES (1)"}},{"local_stop_id":91,"id":91,"geometry":"POINT(-8270741.275707 509367.28126829)","attributes":{"supplychain_instance_id":"supplychain-1","stop_instance_id":"stop-4681","description":"","address":"Colombia","title":"STORES (3)"}},{"local_stop_id":90,"id":90,"geometry":"POINT(-7964126.8778103 -4256013.6745668)","attributes":{"supplychain_instance_id":"supplychain-1","stop_instance_id":"stop-4500","description":"","address":"Chile","title":"STORES (4)"}},{"local_stop_id":89,"id":89,"geometry":"POINT(-11838468.393581 7584411.7316911)","attributes":{"supplychain_instance_id":"supplychain-1","stop_instance_id":"stop-4321","description":"","address":"Canada","title":"STORES (101)"}},{"local_stop_id":88,"id":88,"geometry":"POINT(2837069.617649 5271553.4466849)","attributes":{"supplychain_instance_id":"supplychain-1","stop_instance_id":"stop-4144","description":"","address":"Bulgaria","title":"STORES (1)"}},{"local_stop_id":87,"id":87,"geometry":"POINT(5628057.4188957 3007344.3716459)","attributes":{"supplychain_instance_id":"supplychain-1","stop_instance_id":"stop-3969","description":"","address":"Bahrain","title":"STORES (2)"}},{"local_stop_id":86,"id":86,"geometry":"POINT(5296239.2864115 4886759.7511277)","attributes":{"supplychain_instance_id":"supplychain-1","stop_instance_id":"stop-3796","description":"","address":"Azerbaijan","title":"STORES (1)"}},{"local_stop_id":85,"id":85,"geometry":"POINT(5013628.2650333 4875988.6437361)","attributes":{"supplychain_instance_id":"supplychain-1","stop_instance_id":"stop-3625","description":"","address":"Armenia","title":"STORES (1)"}},{"local_stop_id":84,"id":84,"geometry":"POINT(14891780.018248 -2909486.0545921)","attributes":{"supplychain_instance_id":"supplychain-1","stop_instance_id":"stop-3456","description":"","address":"Australia","title":"STORES (3)"}},{"local_stop_id":83,"id":83,"geometry":"POINT(5994311.6792545 2683384.6572901)","attributes":{"supplychain_instance_id":"supplychain-1","stop_instance_id":"stop-3289","description":"","address":"United Arab Emirates","title":"STORES (14)"}},{"local_stop_id":82,"id":82,"geometry":"POINT(3469336.4953941 6170212.7105816)","attributes":{"supplychain_instance_id":"supplychain-1","stop_instance_id":"stop-3124","description":"","address":"Ukraine","title":"STORES (3)"}},{"local_stop_id":81,"id":81,"geometry":"POINT(3923268.6583573 4716479.6839723)","attributes":{"supplychain_instance_id":"supplychain-1","stop_instance_id":"stop-2961","description":"","address":"Turkey","title":"STORES (21)"}},{"local_stop_id":80,"id":80,"geometry":"POINT(11242438.236474 1789676.6232449)","attributes":{"supplychain_instance_id":"supplychain-1","stop_instance_id":"stop-2800","description":"","address":"Thailand","title":"STORES (8)"}},{"local_stop_id":79,"id":79,"geometry":"POINT(14222948.695284 4287936.2888022)","attributes":{"supplychain_instance_id":"supplychain-1","stop_instance_id":"stop-2641","description":"","address":"South Korea","title":"STORES (6)"}},{"local_stop_id":78,"id":78,"geometry":"POINT(2553391.4876322 -3575670.6750294)","attributes":{"supplychain_instance_id":"supplychain-1","stop_instance_id":"stop-2484","description":"","address":"South Africa","title":"STORES (2)"}},{"local_stop_id":77,"id":77,"geometry":"POINT(2338361.5272298 5467999.2014166)","attributes":{"supplychain_instance_id":"supplychain-1","stop_instance_id":"stop-2329","description":"","address":"Serbia","title":"STORES (1)"}},{"local_stop_id":76,"id":76,"geometry":"POINT(11557171.276152 150527.16261961)","attributes":{"supplychain_instance_id":"supplychain-1","stop_instance_id":"stop-2176","description":"","address":"Singapore","title":"STORES (4)"}},{"local_stop_id":75,"id":75,"geometry":"POINT(5018189.358529 2739515.7915507)","attributes":{"supplychain_instance_id":"supplychain-1","stop_instance_id":"stop-2025","description":"","address":"Saudi Arabia","title":"STORES (19)"}},{"local_stop_id":74,"id":74,"geometry":"POINT(11724030.287269 8747149.0475725)","attributes":{"supplychain_instance_id":"supplychain-1","stop_instance_id":"stop-1876","description":"","address":"Russia","title":"STORES (11)"}},{"local_stop_id":73,"id":73,"geometry":"POINT(2779287.009571 5771245.4036282)","attributes":{"supplychain_instance_id":"supplychain-1","stop_instance_id":"stop-1729","description":"","address":"Romania","title":"STORES (2)"}},{"local_stop_id":72,"id":72,"geometry":"POINT(5697763.9029088 2919390.3324817)","attributes":{"supplychain_instance_id":"supplychain-1","stop_instance_id":"stop-1584","description":"","address":"Qatar","title":"STORES (1)"}},{"local_stop_id":71,"id":71,"geometry":"POINT(-7412781.4774963 2063412.9210676)","attributes":{"supplychain_instance_id":"supplychain-1","stop_instance_id":"stop-1441","description":"","address":"Puerto Rico","title":"STORES (6)"}},{"local_stop_id":70,"id":70,"geometry":"POINT(13555821.562404 1445993.9972958)","attributes":{"supplychain_instance_id":"supplychain-1","stop_instance_id":"stop-1300","description":"","address":"Philippines","title":"STORES (9)"}},{"local_stop_id":69,"id":69,"geometry":"POINT(11598978.535428 4281602.6590309)","attributes":{"supplychain_instance_id":"supplychain-1","stop_instance_id":"stop-1161","description":"","address":"China","title":"STORES (5)"}},{"local_stop_id":68,"id":68,"geometry":"POINT(2131226.7903913 6785571.8978479)","attributes":{"supplychain_instance_id":"supplychain-1","stop_instance_id":"stop-1024","description":"","address":"Poland","title":"STORES (3)"}},{"local_stop_id":67,"id":67,"geometry":"POINT(7719463.0010459 3551885.6644184)","attributes":{"supplychain_instance_id":"supplychain-1","stop_instance_id":"stop-889","description":"","address":"Pakistan","title":"STORES (1)"}},{"local_stop_id":66,"id":66,"geometry":"POINT(-8992625.2415858 953980.90122213)","attributes":{"supplychain_instance_id":"supplychain-1","stop_instance_id":"stop-756","description":"","address":"Panama","title":"STORES (3)"}},{"local_stop_id":65,"id":65,"geometry":"POINT(6225348.2692358 2453104.6408902)","attributes":{"supplychain_instance_id":"supplychain-1","stop_instance_id":"stop-625","description":"","address":"Oman","title":"STORES (1)"}},{"local_stop_id":64,"id":64,"geometry":"POINT(-789546.84668028 3735999.2271399)","attributes":{"supplychain_instance_id":"supplychain-1","stop_instance_id":"stop-496","description":"","address":"Morocco","title":"STORES (1)"}},{"local_stop_id":63,"id":63,"geometry":"POINT(-11416123.692723 2708933.2918558)","attributes":{"supplychain_instance_id":"supplychain-1","stop_instance_id":"stop-369","description":"","address":"Mexico","title":"STORES (27)"}},{"local_stop_id":62,"id":62,"geometry":"POINT(-382490.76468619 7435586.5299477)","attributes":{"supplychain_instance_id":"supplychain-1","stop_instance_id":"stop-244","description":"","address":"United Kingdom","title":"STORES (148)"}},{"local_stop_id":61,"id":61,"geometry":"POINT(-10654710.286989 4451692.5541908)","attributes":{"supplychain_instance_id":"supplychain-1","stop_instance_id":"stop-121","description":"","address":"United States","title":"STORES (889)"}},{"local_stop_id":60,"id":60,"geometry":"POINT(11242438.236474 1789676.6232449)","attributes":{"supplychain_instance_id":"supplychain-1","stop_instance_id":"stop-3523","description":"","address":"Thailand","title":"Manufacturing"}},{"local_stop_id":59,"id":59,"geometry":"POINT(11557171.276152 150527.16261961)","attributes":{"supplychain_instance_id":"supplychain-1","stop_instance_id":"stop-3408","description":"","address":"Singapore","title":"Manufacturing"}},{"local_stop_id":58,"id":58,"geometry":"POINT(13555821.562404 1445993.9972958)","attributes":{"supplychain_instance_id":"supplychain-1","stop_instance_id":"stop-3295","description":"","address":"Philippines","title":"Manufacturing"}},{"local_stop_id":57,"id":57,"geometry":"POINT(7719463.0010459 3551885.6644184)","attributes":{"supplychain_instance_id":"supplychain-1","stop_instance_id":"stop-3184","description":"","address":"Pakistan","title":"Manufacturing"}},{"local_stop_id":56,"id":56,"geometry":"POINT(9364641.7327457 3298848.051391)","attributes":{"supplychain_instance_id":"supplychain-1","stop_instance_id":"stop-3075","description":"","address":"Nepal","title":"Manufacturing"}},{"local_stop_id":55,"id":55,"geometry":"POINT(11351890.342794 469131.36759243)","attributes":{"supplychain_instance_id":"supplychain-1","stop_instance_id":"stop-2968","description":"","address":"Malaysia","title":"Manufacturing"}},{"local_stop_id":54,"id":54,"geometry":"POINT(12771425.691201 505392.76655398)","attributes":{"supplychain_instance_id":"supplychain-1","stop_instance_id":"stop-2863","description":"","address":"Brunei Darussalam","title":"Manufacturing"}},{"local_stop_id":53,"id":53,"geometry":"POINT(13465262.934018 2716627.9388584)","attributes":{"supplychain_instance_id":"supplychain-1","stop_instance_id":"stop-2760","description":"","address":"Taiwan","title":"Manufacturing"}},{"local_stop_id":52,"id":52,"geometry":"POINT(12639646.123297 2535403.7287158)","attributes":{"supplychain_instance_id":"supplychain-1","stop_instance_id":"stop-2659","description":"","address":"Macau","title":"Manufacturing"}},{"local_stop_id":51,"id":51,"geometry":"POINT(14222948.695284 4287936.2888022)","attributes":{"supplychain_instance_id":"supplychain-1","stop_instance_id":"stop-2560","description":"","address":"South Korea","title":"Manufacturing"}},{"local_stop_id":50,"id":50,"geometry":"POINT(16224923.426809 1709699.6243859)","attributes":{"youtube:link":"","water":"0","energy":"0","co2e":"0","weight":"0","supplychain_instance_id":"supplychain-1","stop_instance_id":"stop-2415","description":"","address":"Saipan, 96950, CNMI","title":"Manufacturing"}},{"local_stop_id":49,"id":49,"geometry":"POINT(15390245.098219 4328841.5619102)","attributes":{"supplychain_instance_id":"supplychain-1","stop_instance_id":"stop-2320","description":"","address":"Japan","title":"Manufacturing"}},{"local_stop_id":48,"id":48,"geometry":"POINT(12702611.098948 2559188.1798433)","attributes":{"supplychain_instance_id":"supplychain-1","stop_instance_id":"stop-2227","description":"","address":"Hong Kong","title":"Manufacturing"}},{"local_stop_id":47,"id":47,"geometry":"POINT(5994311.6792545 2683384.6572901)","attributes":{"supplychain_instance_id":"supplychain-1","stop_instance_id":"stop-2136","description":"","address":"United Arab Emirates","title":"Manufacturing"}},{"local_stop_id":46,"id":46,"geometry":"POINT(1061709.5319736 4013627.8298352)","attributes":{"supplychain_instance_id":"supplychain-1","stop_instance_id":"stop-2047","description":"","address":"Tunisia","title":"Manufacturing"}},{"local_stop_id":45,"id":45,"geometry":"POINT(2553391.4876322 -3575670.6750294)","attributes":{"supplychain_instance_id":"supplychain-1","stop_instance_id":"stop-1960","description":"","address":"South Africa","title":"Manufacturing"}},{"local_stop_id":44,"id":44,"geometry":"POINT(5697763.9029088 2919390.3324817)","attributes":{"supplychain_instance_id":"supplychain-1","stop_instance_id":"stop-1875","description":"","address":"Qatar","title":"Manufacturing"}},{"local_stop_id":43,"id":43,"geometry":"POINT(6225348.2692358 2453104.6408902)","attributes":{"supplychain_instance_id":"supplychain-1","stop_instance_id":"stop-1792","description":"","address":"Oman","title":"Manufacturing"}},{"local_stop_id":42,"id":42,"geometry":"POINT(-789546.84668028 3735999.2271399)","attributes":{"supplychain_instance_id":"supplychain-1","stop_instance_id":"stop-1711","description":"","address":"Morocco","title":"Manufacturing"}},{"local_stop_id":41,"id":41,"geometry":"POINT(5217445.1244492 -2127516.8215841)","attributes":{"supplychain_instance_id":"supplychain-1","stop_instance_id":"stop-1632","description":"","address":"Madagascar","title":"Manufacturing"}},{"local_stop_id":40,"id":40,"geometry":"POINT(3142950.8653794 -3453515.3049818)","attributes":{"supplychain_instance_id":"supplychain-1","stop_instance_id":"stop-1555","description":"","address":"Lesotho","title":"Manufacturing"}},{"local_stop_id":39,"id":39,"geometry":"POINT(4034041.7930743 3578991.1717096)","attributes":{"supplychain_instance_id":"supplychain-1","stop_instance_id":"stop-1480","description":"","address":"Jordan","title":"Manufacturing"}},{"local_stop_id":38,"id":38,"geometry":"POINT(3879663.7006247 3638731.1870765)","attributes":{"supplychain_instance_id":"supplychain-1","stop_instance_id":"stop-1296","description":"","address":"Israel","title":"Manufacturing"}},{"local_stop_id":37,"id":37,"geometry":"POINT(3428918.3920435 3101070.0503622)","attributes":{"supplychain_instance_id":"supplychain-1","stop_instance_id":"stop-1225","description":"","address":"Egypt","title":"Manufacturing"}},{"local_stop_id":36,"id":36,"geometry":"POINT(5628057.4188957 3007344.3716459)","attributes":{"supplychain_instance_id":"supplychain-1","stop_instance_id":"stop-1156","description":"","address":"Bahrain","title":"Manufacturing"}},{"local_stop_id":35,"id":35,"geometry":"POINT(-382490.76468619 7435586.5299477)","attributes":{"supplychain_instance_id":"supplychain-1","stop_instance_id":"stop-1089","description":"","address":"United Kingdom","title":"Manufacturing"}},{"local_stop_id":34,"id":34,"geometry":"POINT(3923268.6583573 4716479.6839723)","attributes":{"supplychain_instance_id":"supplychain-1","stop_instance_id":"stop-1024","description":"","address":"Turkey","title":"Manufacturing"}},{"local_stop_id":33,"id":33,"geometry":"POINT(-417361.26121386 4933551.651775)","attributes":{"supplychain_instance_id":"supplychain-1","stop_instance_id":"stop-961","description":"","address":"Spain","title":"Manufacturing"}},{"local_stop_id":32,"id":32,"geometry":"POINT(11724030.287269 8747149.0475725)","attributes":{"supplychain_instance_id":"supplychain-1","stop_instance_id":"stop-900","description":"","address":"Russia","title":"Manufacturing"}},{"local_stop_id":31,"id":31,"geometry":"POINT(2779287.009571 5771245.4036282)","attributes":{"supplychain_instance_id":"supplychain-1","stop_instance_id":"stop-841","description":"","address":"Romania","title":"Manufacturing"}},{"local_stop_id":30,"id":30,"geometry":"POINT(-915542.03120526 4779112.7409819)","attributes":{"supplychain_instance_id":"supplychain-1","stop_instance_id":"stop-784","description":"","address":"Portugal","title":"Manufacturing"}},{"local_stop_id":29,"id":29,"geometry":"POINT(3158121.1516241 6009523.4670508)","attributes":{"supplychain_instance_id":"supplychain-1","stop_instance_id":"stop-729","description":"","address":"Moldova","title":"Manufacturing"}},{"local_stop_id":28,"id":28,"geometry":"POINT(1398994.3420108 5141815.9369254)","attributes":{"supplychain_instance_id":"supplychain-1","stop_instance_id":"stop-676","description":"","address":"Italy","title":"Manufacturing"}},{"local_stop_id":27,"id":27,"geometry":"POINT(1398994.3420108 5141815.9369254)","attributes":{"supplychain_instance_id":"supplychain-1","stop_instance_id":"stop-625","description":"","address":"Italy","title":"Manufacturing"}},{"local_stop_id":26,"id":26,"geometry":"POINT(246433.41138981 5816903.7126173)","attributes":{"supplychain_instance_id":"supplychain-1","stop_instance_id":"stop-576","description":"","address":"France","title":"Manufacturing"}},{"local_stop_id":25,"id":25,"geometry":"POINT(2837069.617649 5271553.4466849)","attributes":{"supplychain_instance_id":"supplychain-1","stop_instance_id":"stop-529","description":"","address":"Bulgaria","title":"Manufacturing"}},{"local_stop_id":24,"id":24,"geometry":"POINT(-10654710.286989 4451692.5541908)","attributes":{"supplychain_instance_id":"supplychain-1","stop_instance_id":"stop-484","description":"","address":"United States","title":"Manufacturing"}},{"local_stop_id":23,"id":23,"geometry":"POINT(-8350648.5212576 -1027437.3556249)","attributes":{"supplychain_instance_id":"supplychain-1","stop_instance_id":"stop-441","description":"","address":"Peru","title":"Manufacturing"}},{"local_stop_id":22,"id":22,"geometry":"POINT(-9485225.3428655 1444360.5193557)","attributes":{"supplychain_instance_id":"supplychain-1","stop_instance_id":"stop-400","description":"","address":"Nicaragua","title":"Manufacturing"}},{"local_stop_id":21,"id":21,"geometry":"POINT(-11416123.692723 2708933.2918558)","attributes":{"supplychain_instance_id":"supplychain-1","stop_instance_id":"stop-361","description":"","address":"Mexico","title":"Manufacturing"}},{"local_stop_id":20,"id":20,"geometry":"POINT(-9600404.9483055 1712260.1402682)","attributes":{"supplychain_instance_id":"supplychain-1","stop_instance_id":"stop-324","description":"","address":"Honduras","title":"Manufacturing"}},{"local_stop_id":19,"id":19,"geometry":"POINT(-8046753.3245622 2151543.9444501)","attributes":{"supplychain_instance_id":"supplychain-1","stop_instance_id":"stop-289","description":"","address":"Haiti","title":"Manufacturing"}},{"local_stop_id":18,"id":18,"geometry":"POINT(-10044442.144372 1779661.0115165)","attributes":{"supplychain_instance_id":"supplychain-1","stop_instance_id":"stop-256","description":"","address":"Guatemala","title":"Manufacturing"}},{"local_stop_id":17,"id":17,"geometry":"POINT(-9895916.4515114 1550614.4482931)","attributes":{"supplychain_instance_id":"supplychain-1","stop_instance_id":"stop-225","description":"","address":"El Salvador","title":"Manufacturing"}},{"local_stop_id":16,"id":16,"geometry":"POINT(-7810470.5809389 2123842.6258654)","attributes":{"supplychain_instance_id":"supplychain-1","stop_instance_id":"stop-196","description":"","address":"Dominican Republic","title":"Manufacturing"}},{"local_stop_id":15,"id":15,"geometry":"POINT(-9323388.9558533 1090519.2314395)","attributes":{"supplychain_instance_id":"supplychain-1","stop_instance_id":"stop-169","description":"","address":"Costa Rica","title":"Manufacturing"}},{"local_stop_id":14,"id":14,"geometry":"POINT(-11838468.393581 7584411.7316911)","attributes":{"supplychain_instance_id":"supplychain-1","stop_instance_id":"stop-144","description":"","address":"Canada","title":"Manufacturing"}},{"local_stop_id":13,"id":13,"geometry":"POINT(-5780295.7280935 -1601191.8132151)","attributes":{"supplychain_instance_id":"supplychain-1","stop_instance_id":"stop-121","description":"","address":"Brazil","title":"Manufacturing"}},{"local_stop_id":12,"id":12,"geometry":"POINT(-8238307.2400059 4970299.6279391)","attributes":{"supplychain_instance_id":"supplychain-1","stop_instance_id":"stop-100","description":"","address":"New York, NY, USA","title":"Product Development Offices"}},{"local_stop_id":11,"id":11,"geometry":"POINT(-13627666.994773 4547679.5083485)","attributes":{"supplychain_instance_id":"supplychain-1","stop_instance_id":"stop-81","description":"","address":"San Francisco, CA, USA","title":"Headquarters"}},{"local_stop_id":10,"id":10,"geometry":"POINT(-8232573.4513347 4979670.764697)","attributes":{"youtube:link":"","water":"0","energy":"0","co2e":"0","weight":"0","supplychain_instance_id":"supplychain-1","stop_instance_id":"stop-64","description":"","address":"3rd Avenue & East 85th Street, New York, NY 10028, USA","title":"\"Our Store\""}},{"local_stop_id":9,"id":9,"geometry":"POINT(8991475.311246 879195.5175163)","attributes":{"supplychain_instance_id":"supplychain-1","stop_instance_id":"stop-49","description":"","address":"Sri Lanka","title":"Manufacturing"}},{"local_stop_id":8,"id":8,"geometry":"POINT(10058420.755468 2715069.9669033)","attributes":{"supplychain_instance_id":"supplychain-1","stop_instance_id":"stop-36","description":"","address":"Bangladesh","title":"Manufacturing","weight":"0","co2e":"0","energy":"0","water":"0","youtube:link":"http:\/\/www.youtube.com\/watch?v=5yafZp8VTbc "}},{"local_stop_id":7,"id":7,"geometry":"POINT(11687540.537429 1410155.0120853)","attributes":{"supplychain_instance_id":"supplychain-1","stop_instance_id":"stop-25","description":"","address":"Cambodia","title":"Manufacturing"}},{"local_stop_id":6,"id":6,"geometry":"POINT(12053362.655524 1580908.7583518)","attributes":{"supplychain_instance_id":"supplychain-1","stop_instance_id":"stop-16","description":"","address":"Vietnam","title":"Manufacturing"}},{"local_stop_id":5,"id":5,"geometry":"POINT(11598978.535428 4281602.6590309)","attributes":{"supplychain_instance_id":"supplychain-1","stop_instance_id":"stop-9","description":"","address":"China","title":"Manufacturing"}},{"local_stop_id":4,"id":4,"geometry":"POINT(11898488.823986 -708896.69280552)","attributes":{"supplychain_instance_id":"supplychain-1","stop_instance_id":"stop-4","description":"","address":"Indonesia","title":"Manufacturing"}},{"local_stop_id":3,"id":3,"geometry":"POINT(8790107.5919468 2343495.1653783)","attributes":{"supplychain_instance_id":"supplychain-1","stop_instance_id":"stop-1","description":"","address":"India","title":"Manufacturing"}},{"local_stop_id":2,"id":2,"geometry":"POINT(8790107.5919468 2343495.1653783)","attributes":{"title":"RAW MATERIALS","address":"India","description":"","stop_instance_id":"stop-117","supplychain_instance_id":"supplychain-1"}},{"local_stop_id":1,"id":1,"geometry":"POINT(11598978.535428 4281602.6590309)","attributes":{"title":"RAW MATERIALS","address":"China","description":"","stop_instance_id":"stop-236","supplychain_instance_id":"supplychain-1"}}],"hops":[{"from_stop_id":1,"to_stop_id":51,"geometry":"MULTILINESTRING((11598978.535428 4281602.6590309,14222948.695284 4287936.2888022))","attributes":{"title":"RAW MATERIALS to Manufacturing","co2e":"0","distance":"2118.363697"}},{"from_stop_id":1,"to_stop_id":49,"geometry":"MULTILINESTRING((11598978.535428 4281602.6590309,15390245.098219 4328841.5619102))","attributes":{"distance":"3046.758002","title":"RAW MATERIALS to Manufacturing","co2e":"0"}},{"from_stop_id":1,"to_stop_id":53,"geometry":"MULTILINESTRING((11598978.535428 4281602.6590309,13465262.934018 2716627.9388584))","attributes":{"title":"RAW MATERIALS to Manufacturing","co2e":"0","distance":"2103.135865"}},{"from_stop_id":1,"to_stop_id":48,"geometry":"MULTILINESTRING((11598978.535428 4281602.6590309,12702611.098948 2559188.1798433))","attributes":{"distance":"1777.723218","co2e":"0","title":"RAW MATERIALS to Manufacturing"}},{"from_stop_id":1,"to_stop_id":58,"geometry":"MULTILINESTRING((11598978.535428 4281602.6590309,13555821.562404 1445993.9972958))","attributes":{"distance":"3102.746513","co2e":"0","title":"RAW MATERIALS to Manufacturing"}},{"from_stop_id":1,"to_stop_id":50,"geometry":"MULTILINESTRING((11598978.535428 4281602.6590309,16224923.426809 1709699.6243859))","attributes":{"title":"RAW MATERIALS to Manufacturing","distance":"4712.515768","co2e":"0"}},{"from_stop_id":1,"to_stop_id":7,"geometry":"MULTILINESTRING((11598978.535428 4281602.6590309,11687540.537429 1410155.0120853))","attributes":{"distance":"2591.623025","co2e":"0","title":"RAW MATERIALS to Manufacturing"}},{"from_stop_id":1,"to_stop_id":6,"geometry":"MULTILINESTRING((11598978.535428 4281602.6590309,12053362.655524 1580908.7583518))","attributes":{"distance":"2458.399523","co2e":"0","title":"RAW MATERIALS to Manufacturing"}},{"from_stop_id":1,"to_stop_id":32,"geometry":"MULTILINESTRING((11598978.535428 4281602.6590309,11724030.287269 8747149.0475725))","attributes":{"title":"RAW MATERIALS to Manufacturing","distance":"2854.615492","co2e":"0"}},{"from_stop_id":1,"to_stop_id":54,"geometry":"MULTILINESTRING((11598978.535428 4281602.6590309,12771425.691201 505392.76655398))","attributes":{"co2e":"0","distance":"3646.704738","title":"RAW MATERIALS to Manufacturing"}},{"from_stop_id":1,"to_stop_id":60,"geometry":"MULTILINESTRING((11598978.535428 4281602.6590309,11242438.236474 1789676.6232449))","attributes":{"title":"RAW MATERIALS to Manufacturing","distance":"2245.548847","co2e":"0"}},{"from_stop_id":1,"to_stop_id":55,"geometry":"MULTILINESTRING((11598978.535428 4281602.6590309,11351890.342794 469131.36759242))","attributes":{"co2e":"0","title":"RAW MATERIALS to Manufacturing","distance":"3526.805953"}},{"from_stop_id":1,"to_stop_id":8,"geometry":"MULTILINESTRING((11598978.535428 4281602.6590309,10058420.755468 2715069.9669033))","attributes":{"title":"RAW MATERIALS to Manufacturing","distance":"1897.860582"}},{"from_stop_id":1,"to_stop_id":4,"geometry":"MULTILINESTRING((11598978.535428 4281602.6590309,11898488.823986 -708896.69280552))","attributes":{"distance":"4702.697302","title":"RAW MATERIALS to Manufacturing","co2e":"0"}},{"from_stop_id":1,"to_stop_id":9,"geometry":"MULTILINESTRING((11598978.535428 4281602.6590309,8991475.311246 879195.5175163))","attributes":{"co2e":"0","distance":"3916.950695","title":"RAW MATERIALS to Manufacturing"}},{"from_stop_id":2,"to_stop_id":57,"geometry":"MULTILINESTRING((8790107.5919468 2343495.1653783,7719463.0010459 3551885.6644184))","attributes":{"distance":"1452.853517","co2e":"0","title":"RAW MATERIALS to Manufacturing"}},{"from_stop_id":2,"to_stop_id":36,"geometry":"MULTILINESTRING((8790107.5919468 2343495.1653783,5628057.4188957 3007344.3716459))","attributes":{"distance":"2957.079746","co2e":"0","title":"RAW MATERIALS to Manufacturing"}},{"from_stop_id":2,"to_stop_id":38,"geometry":"MULTILINESTRING((8790107.5919468 2343495.1653783,3879663.7006247 3638731.1870765))","attributes":{"title":"RAW MATERIALS to Manufacturing","co2e":"0","distance":"4534.440814"}},{"from_stop_id":2,"to_stop_id":34,"geometry":"MULTILINESTRING((8790107.5919468 2343495.1653783,3923268.6583573 4716479.6839723))","attributes":{"co2e":"0","distance":"4631.170594","title":"RAW MATERIALS to Manufacturing"}},{"from_stop_id":1,"to_stop_id":35,"geometry":"MULTILINESTRING((11598978.535428 4281602.6590309,-382490.76468619 7435586.5299477))","attributes":{"distance":"7779.560130","co2e":"0","title":"RAW MATERIALS to Manufacturing"}},{"from_stop_id":2,"to_stop_id":28,"geometry":"MULTILINESTRING((8790107.5919468 2343495.1653783,1398994.3420108 5141815.9369254))","attributes":{"title":"RAW MATERIALS to Manufacturing","distance":"6569.033727","co2e":"0"}},{"from_stop_id":1,"to_stop_id":29,"geometry":"MULTILINESTRING((11598978.535428 4281602.6590309,3158121.1516241 6009523.4670508))","attributes":{"title":"RAW MATERIALS to Manufacturing","co2e":"0","distance":"6177.483284"}},{"from_stop_id":38,"to_stop_id":107,"geometry":"MULTILINESTRING((3879663.7006247 3638731.1870765,7449910.4238529 6110111.7017501))","attributes":{"co2e":"0","distance":"3298.011850","title":"Manufacturing to STORES (2)"}},{"from_stop_id":36,"to_stop_id":107,"geometry":"MULTILINESTRING((5628057.4188957 3007344.3716459,7449910.4238529 6110111.7017501))","attributes":{"title":"Manufacturing to STORES (2)","co2e":"0","distance":"2827.154606"}},{"from_stop_id":57,"to_stop_id":85,"geometry":"MULTILINESTRING((7719463.0010459 3551885.6644184,5013628.2650333 4875988.6437361))","attributes":{"co2e":"0","title":"Manufacturing to STORES (1)","distance":"2446.091127"}},{"from_stop_id":8,"to_stop_id":107,"geometry":"MULTILINESTRING((10058420.755468 2715069.9669033,7449910.4238529 6110111.7017501))","attributes":{"co2e":"0","distance":"3403.868790","title":"Manufacturing to STORES (2)"}},{"from_stop_id":9,"to_stop_id":84,"geometry":"MULTILINESTRING((8991475.311246 879195.5175163,14891780.018248 -2909486.0545921))","attributes":{"title":"Manufacturing to STORES (3)","distance":"6813.874549","co2e":"0"}},{"from_stop_id":2,"to_stop_id":4,"geometry":"MULTILINESTRING((8790107.5919468 2343495.1653783,11898488.823986 -708896.69280552))","attributes":{"co2e":"0","distance":"4275.980423","title":"RAW MATERIALS to Manufacturing"}},{"from_stop_id":4,"to_stop_id":84,"geometry":"MULTILINESTRING((11898488.823986 -708896.69280552,14891780.018248 -2909486.0545921))","attributes":{"title":"Manufacturing to STORES (3)","co2e":"0","distance":"3549.075748"}},{"from_stop_id":35,"to_stop_id":96,"geometry":"MULTILINESTRING((-382490.76468619 7435586.5299477,246433.41138981 5816903.7126173))","attributes":{"distance":"1091.316119","title":"Manufacturing to STORES (37)","co2e":"0"}},{"from_stop_id":35,"to_stop_id":68,"geometry":"MULTILINESTRING((-382490.76468619 7435586.5299477,2131226.7903913 6785571.8978479))","attributes":{"co2e":"0","title":"Manufacturing to STORES (3)","distance":"1529.679022"}},{"from_stop_id":41,"to_stop_id":78,"geometry":"MULTILINESTRING((5217445.1244492 -2127516.8215841,2553391.4876322 -3575670.6750294))","attributes":{"co2e":"0","distance":"2742.044538","title":"Manufacturing to STORES (2)"}},{"from_stop_id":2,"to_stop_id":41,"geometry":"MULTILINESTRING((8790107.5919468 2343495.1653783,5217445.1244492 -2127516.8215841))","attributes":{"distance":"5601.774843","title":"RAW MATERIALS to Manufacturing","co2e":"0"}},{"from_stop_id":35,"to_stop_id":82,"geometry":"MULTILINESTRING((-382490.76468619 7435586.5299477,3469336.4953941 6170212.7105816))","attributes":{"co2e":"0","distance":"2469.707512","title":"Manufacturing to STORES (3)"}},{"from_stop_id":34,"to_stop_id":82,"geometry":"MULTILINESTRING((3923268.6583573 4716479.6839723,3469336.4953941 6170212.7105816))","attributes":{"co2e":"0","distance":"1096.720066","title":"Manufacturing to STORES (3)"}},{"from_stop_id":46,"to_stop_id":64,"geometry":"MULTILINESTRING((1061709.5319736 4013627.8298352,-789546.84668028 3735999.2271399))","attributes":{"title":"Manufacturing to STORES (1)","distance":"1569.257985","co2e":"0"}},{"from_stop_id":2,"to_stop_id":46,"geometry":"MULTILINESTRING((8790107.5919468 2343495.1653783,1061709.5319736 4013627.8298352))","attributes":{"title":"RAW MATERIALS to Manufacturing","distance":"6896.009298","co2e":"0"}},{"from_stop_id":1,"to_stop_id":33,"geometry":"MULTILINESTRING((11598978.535428 4281602.6590309,-417361.26121386 4933551.651775))","attributes":{"distance":"8788.266410","title":"RAW MATERIALS to Manufacturing","co2e":"0"}},{"from_stop_id":2,"to_stop_id":13,"geometry":"MULTILINESTRING((8790107.5919468 2343495.1653783,-5780295.7280935 -1601191.8132151))","attributes":{"title":"RAW MATERIALS to Manufacturing","distance":"14775.306246","co2e":"0"}},{"from_stop_id":13,"to_stop_id":90,"geometry":"MULTILINESTRING((-5780295.7280935 -1601191.8132151,-7964126.8778103 -4256013.6745668))","attributes":{"distance":"3084.193301","co2e":"0","title":"Manufacturing to STORES (4)"}},{"from_stop_id":2,"to_stop_id":23,"geometry":"MULTILINESTRING((8790107.5919468 2343495.1653783,-8350648.5212576 -1027437.3556249))","attributes":{"co2e":"0","distance":"16951.291198","title":"RAW MATERIALS to Manufacturing"}},{"from_stop_id":23,"to_stop_id":91,"geometry":"MULTILINESTRING((-8350648.5212576 -1027437.3556249,-8270741.275707 509367.28126829))","attributes":{"title":"Manufacturing to STORES (3)","co2e":"0","distance":"1532.202017"}},{"from_stop_id":2,"to_stop_id":17,"geometry":"MULTILINESTRING((8790107.5919468 2343495.1653783,-9895916.4515114 1550614.4482931))","attributes":{"title":"RAW MATERIALS to Manufacturing","distance":"15967.664696","co2e":"0"}},{"from_stop_id":17,"to_stop_id":71,"geometry":"MULTILINESTRING((-9895916.4515114 1550614.4482931,-7412781.4774963 2063412.9210676))","attributes":{"title":"Manufacturing to STORES (6)","co2e":"0","distance":"2432.597803"}},{"from_stop_id":17,"to_stop_id":95,"geometry":"MULTILINESTRING((-9895916.4515114 1550614.4482931,-9895916.4515114 1550614.4482931))","attributes":{"title":"Manufacturing to STORES (1)","distance":"0","co2e":"0"}},{"from_stop_id":17,"to_stop_id":63,"geometry":"MULTILINESTRING((-9895916.4515114 1550614.4482931,-11416123.692723 2708933.2918558))","attributes":{"title":"Manufacturing to STORES (27)","distance":"1804.959890","co2e":"0"}},{"from_stop_id":17,"to_stop_id":61,"geometry":"MULTILINESTRING((-9895916.4515114 1550614.4482931,-10654710.286989 4451692.5541908))","attributes":{"title":"Manufacturing to STORES (889)","distance":"2677.241959","co2e":"0"}},{"from_stop_id":17,"to_stop_id":89,"geometry":"MULTILINESTRING((-9895916.4515114 1550614.4482931,-11838468.393581 7584411.7316911))","attributes":{"distance":"4938.651929","title":"Manufacturing to STORES (101)","co2e":"0"}},{"from_stop_id":11,"to_stop_id":2,"geometry":"MULTILINESTRING((-13627666.994773 4547679.5083485,8790107.5919468 2343495.1653783))","attributes":{"co2e":"0","distance":"13150.271066","title":"Headquarters to RAW MATERIALS"}},{"from_stop_id":11,"to_stop_id":1,"geometry":"MULTILINESTRING((-13627666.994773 4547679.5083485,11598978.535428 4281602.6590309))","attributes":{"distance":"10525.190673","title":"Headquarters to RAW MATERIALS","co2e":"0"}},{"from_stop_id":11,"to_stop_id":12,"geometry":"MULTILINESTRING((-13627666.994773 4547679.5083485,-8238307.2400059 4970299.6279391))","attributes":{"title":"Headquarters to Product Development Offices","distance":"4129.053616","co2e":"0"}},{"from_stop_id":24,"to_stop_id":10,"geometry":"MULTILINESTRING((-10654710.286989 4451692.5541908,-8232573.4513347 4979670.764697))","attributes":{"co2e":"0","title":"Manufacturing to \"Our Store\"","distance":"1920.812862"}},{"from_stop_id":2,"to_stop_id":24,"geometry":"MULTILINESTRING((8790107.5919468 2343495.1653783,-10654710.286989 4451692.5541908))","attributes":{"distance":"13576.669309","co2e":"0","title":"RAW MATERIALS to Manufacturing"}},{"from_stop_id":12,"to_stop_id":2,"geometry":"MULTILINESTRING((-8238307.2400059 4970299.6279391,8790107.5919468 2343495.1653783))","attributes":{"co2e":"0","title":"Product Development Offices to RAW MATERIALS","distance":"12647.335998"}},{"from_stop_id":12,"to_stop_id":1,"geometry":"MULTILINESTRING((-8238307.2400059 4970299.6279391,11598978.535428 4281602.6590309))","attributes":{"co2e":"0","title":"Product Development Offices to RAW MATERIALS","distance":"11498.240391"}}]},"editable":false}